# Name: Digital Yacht AIT250
# Chipset: Unknown
# Description: Class B Marine AIS receiver
# Submitter: Jan Veninga <veninga@familiemail.nl>
# Date: 2009-07-30
# Location: Enkhuizen, The Netherlands, 52.69997N/5.290465E
#
# Device is described here:
# http://www.yachtronics.com/yachtronics/manuals/DIGITAL%20YACHT%20AIT250%20OPERATION.pdf
#
# This file is Copyright (c) 2010 by the GPSD project
# BSD terms apply: see the file COPYING in the distribution root for details.
#
$GPRMC,194907.00,A,5241.99815,N,00517.56525,E,0.005,,010809,,,A*7B
!AIVDO,1,1,,,B3aC3LP00063aj7RNpl03wSUwP06,0*43
!AIVDM,1,1,,B,13njCt031t0DA=lN2:jKmad60l1p,0*12
$GPGBS,194907.00,3.0,1.9,4.2,,,,*4E
$GPRMC,194908.00,A,5241.99805,N,00517.56503,E,0.003,,010809,,,A*77
!AIVDO,1,1,,,B3aC3LP00063ai7RNph03wT5wP06,0*23
!AIVDM,1,1,,B,33meMd50000EoJPMvw?:Ubp@0000,0*4F
$GPGBS,194908.00,3.0,1.9,4.2,,,,*41
$GPRMC,194909.00,A,5241.99792,N,00517.56477,E,0.004,,010809,,,A*72
!AIVDO,1,1,,,B3aC3LP00063agWRNpd03wTUwP06,0*21
$GPGBS,194909.00,3.0,1.9,4.2,,,,*40
!AIVDM,1,1,,A,B3`gaQ000062PeWRIt403wTUoP06,0*11
!AIVDM,1,1,,A,13b?ED00000E2`dN1S9=oS0@00Sb,0*6E
$GPRMC,194910.00,A,5241.99782,N,00517.56453,E,0.006,,010809,,,A*7F
!AIVDO,1,1,,,B3aC3LP00063afWRNp`03wU5wP06,0*45
!AIVDM,1,1,,A,D02E3:0Alg6D000000000000001,2*17
$GPGBS,194910.00,3.0,1.9,4.2,,,,*48
!AIVDM,1,1,,A,139QcE7P?w<tSF0l4Q@>4?wv0PS<,0*5A
$GPRMC,194911.00,A,5241.99772,N,00517.56430,E,0.020,229.98,010809,,,A*66
!AIVDM,1,1,,B,402E3:0000HttPGEahN7pi700p6T,0*09
!AIVDM,1,1,,A,14S64>51ASPEeIpN05::v`lF086a,0*3B
!AIVDO,1,1,,,B3aC3LP00063aeWRNpV?gwUUwP06,0*4B
$GPGBS,194911.00,3.0,1.9,4.2,,,,*49
!AIVDM,1,1,,B,13bf9v00010IaB<N8IK3uSvH00SC,0*44
$GPRMC,194912.00,A,5241.99761,N,00517.56408,E,0.012,,010809,,,A*7B
!AIVDM,1,1,,B,13bcuF0P000H@EhN:0s1dgvF087B,0*28
!AIVDO,1,1,,,B3aC3LP00063ad7RNpP03wV5wP06,0*14
$GPGBS,194912.00,3.0,1.9,4.2,,,,*4A
$GPRMC,194913.00,A,5241.99751,N,00517.56393,E,0.012,,010809,,,A*7C
!AIVDO,1,1,,,B3aC3LP00063acWRNpL03wVUwP06,0*0F
$GPGBS,194913.00,3.0,1.9,4.2,,,,*4B
$GPRMC,194914.00,A,5241.99742,N,00517.56388,E,0.005,,010809,,,A*75
!AIVDO,1,1,,,B3aC3LP00063ac7RNpH03wW5wP06,0*0A
$GPGBS,194914.00,3.0,1.9,4.2,,,,*4C
!AIVDM,1,1,,A,13aC225P130HqLfN3t4i6OvJP<0<,0*33
$GPRMC,194915.00,A,5241.99733,N,00517.56384,E,0.013,,010809,,,A*79
!AIVDO,1,1,,,B3aC3LP00063ac7RNpD03wWUwP06,0*66
$GPGBS,194915.00,3.0,1.9,4.2,,,,*4D
!AIVDM,1,1,,A,13`e>5OP1S0GmF@N0OLBF?vL00SQ,0*35
$GPRMC,194916.00,A,5241.99726,N,00517.56385,E,0.007,,010809,,,A*7A
!AIVDO,1,1,,,B3aC3LP00063ac7RNp@03w`5wP06,0*35
$GPGBS,194916.00,3.0,1.9,4.2,,,,*4E
!AIVDM,1,1,,B,100001?P?w<tSF0l4Q@>4?wp0W3h,0*28
$GPRMC,194917.00,A,5241.99721,N,00517.56389,E,0.003,,010809,,,A*74
!AIVDO,1,1,,,B3aC3LP00063ac7RNp@03w`UwP06,0*55
$GPGBS,194917.00,3.0,1.9,4.2,,,,*4F
$GPRMC,194918.00,A,5241.99715,N,00517.56394,E,0.004,,010809,,,A*77
!AIVDO,1,1,,,B3aC3LP00063acWRNp<03wa5wP06,0*28
$GPGBS,194918.00,3.0,1.9,4.2,,,,*40
!AIVDM,2,1,8,B,54S64>02;dlqK8@cL00lDADl0000000000000016;0<:65wj0?hCDm1DQ0C@,0*63
!AIVDM,2,2,8,B,00000000002,2*2D
$GPRMC,194919.00,A,5241.99711,N,00517.56399,E,0.004,,010809,,,A*7F
!AIVDO,1,1,,,B3aC3LP00063acWRNp<03waUwP06,0*48
$GPGBS,194919.00,3.0,1.9,4.2,,,,*41
$GPRMC,194920.00,A,5241.99711,N,00517.56409,E,0.005,,010809,,,A*7A
!AIVDM,1,1,,B,13`g5:0P0`0E9MbN1FgDE?vV06K4,0*45
!AIVDO,1,1,,,B3aC3LP00063ad7RNp<03wb5wP06,0*4C
!AIVDM,1,1,,A,13BE3l001n0DJHVN1fQJrHjb00SU,0*35
$GPGBS,194920.00,3.0,1.9,4.2,,,,*4B
$GPRMC,194921.00,A,5241.99708,N,00517.56417,E,0.007,,010809,,,A*7E
!AIVDM,1,1,,A,13bf9v00010IaApN8IK3uSvd0H<V,0*26
!AIVDO,1,1,,,B3aC3LP00063adWRNp803wbUwP06,0*48
$GPGBS,194921.00,3.0,1.9,4.2,,,,*4A
!AIVDM,1,1,,A,13bcuF0P000H@EjN:0sEiOv`00T4,0*43
$GPRMC,194922.00,A,5241.99705,N,00517.56418,E,0.003,,010809,,,A*7B
!AIVDO,1,1,,,B3aC3LP00063adWRNp803wc5wP06,0*29
$GPGBS,194922.00,3.0,1.9,4.2,,,,*49
!AIVDM,1,1,,A,13ck<f10?wPCe;`N3>f>428b0D1S,0*43
$GPRMC,194923.00,A,5241.99704,N,00517.56423,E,0.007,,010809,,,A*77
$GPGBS,194923.00,3.0,1.9,4.2,,,,*48
!AIVDO,1,1,,,B3aC3LP00063ae7RNp803wcUwP06,0*28
$GPRMC,194924.00,A,5241.99705,N,00517.56425,E,0.006,,010809,,,A*76
$GPGBS,194924.00,3.0,1.9,4.2,,,,*4F
!AIVDO,1,1,,,B3aC3LP00063ae7RNp803wd5wP06,0*4F
!AIVDM,1,1,,B,100001?P?w<tSF0l4Q@>4?wp0PS6,0*11
!AIVDM,1,1,,B,13aC225P130HqQ@N3tfQ5OvfP6K4,0*37
$GPRMC,194925.00,A,5241.99714,N,00517.56429,E,0.002,,010809,,,A*7F
$GPGBS,194925.00,3.0,1.9,4.2,,,,*4E
!AIVDO,1,1,,,B3aC3LP00063ae7RNp<03wdUwP06,0*2B
!AIVDM,1,1,,B,D02E3:1FTg6D000000000000001,2*2A
$GPRMC,194926.00,A,5241.99718,N,00517.56440,E,0.010,,010809,,,A*7C
$GPGBS,194926.00,3.0,1.9,4.2,,,,*4D
!AIVDO,1,1,,,B3aC3LP00063af7RNp<03we5wP06,0*49
$GPRMC,194927.00,A,5241.99723,N,00517.56454,E,0.009,,010809,,,A*78
$GPGBS,194927.00,3.0,1.9,4.2,,,,*4C
!AIVDO,1,1,,,B3aC3LP00063afWRNp@03weUsP06,0*31
!AIVDM,1,1,,A,13`p;<0P0`0E8p0N1GU4G?vl@@@G,0*32
$GPRMC,194928.00,A,5241.99730,N,00517.56469,E,0.005,,010809,,,A*77
$GPGBS,194928.00,3.0,1.9,4.2,,,,*43
!AIVDO,1,1,,,B3aC3LP00063ag7RNpD03wf5sP06,0*37
!AIVDM,1,1,,B,100001?P?w<tSF0l4Q@>4?wp0PS3,0*14
$GPRMC,194929.00,A,5241.99738,N,00517.56482,E,0.002,,010809,,,A*7C
$GPGBS,194929.00,3.0,1.9,4.2,,,,*42
!AIVDO,1,1,,,B3aC3LP00063ah7RNpD03wfUsP06,0*58
!AIVDM,1,1,,A,139QcE7P?w<tSF0l4Q@>4?wv0URP,0*32
$GPRMC,194930.00,A,5241.99745,N,00517.56492,E,0.006,,010809,,,A*7B
$GPGBS,194930.00,3.0,1.9,4.2,,,,*4A
!AIVDO,1,1,,,B3aC3LP00063ahWRNpH03wg5sP06,0*55
!AIVDM,1,1,,B,402E3:0000HttPGEahN7pi700pBB,0*6B
$GPRMC,194931.00,A,5241.99750,N,00517.56500,E,0.002,,010809,,,A*70
$GPGBS,194931.00,3.0,1.9,4.2,,,,*4B
!AIVDM,1,1,,B,13bcuF0P000H@F2N:0tL<wvt0<0=,0*0D
!AIVDM,1,1,,B,13bf9v00000IaBlN8IMSuSw006K4,0*63
!AIVDO,1,1,,,B3aC3LP00063ai7RNpL03wgUsP06,0*50
$GPRMC,194932.00,A,5241.99756,N,00517.56508,E,0.002,,010809,,,A*7D
!AIVDM,1,1,,B,33a9=20P@g0DvDhN1Jbd78tv00vi,0*3A
$GPGBS,194932.00,3.0,1.9,4.2,,,,*48
!AIVDO,1,1,,,B3aC3LP00063ai7RNpL03wh5sP06,0*3F
!AIVDM,1,1,,A,13c7O4001N0EmBtMweB6GF?22D2n,0*57
$GPRMC,194933.00,A,5241.99761,N,00517.56512,E,0.011,,010809,,,A*71
$GPGBS,194933.00,3.0,1.9,4.2,,,,*49
!AIVDO,1,1,,,B3aC3LP00063aiWRNpP03whUsP06,0*23
$GPRMC,194934.00,A,5241.99768,N,00517.56512,E,0.015,,010809,,,A*7B
$GPGBS,194934.00,3.0,1.9,4.2,,,,*4E
!AIVDO,1,1,,,B3aC3LP00063aiWRNpP03wi5sP06,0*42
!AIVDM,1,1,,A,13aC225P150HqUlN3uHA5ww2P<0<,0*31
$GPRMC,194935.00,A,5241.99779,N,00517.56509,E,0.002,,010809,,,A*76
!AIVDM,1,1,,A,B3`qKD@00064BIWRQGVI;wiUoP06,0*75
$GPGBS,194935.00,3.0,1.9,4.2,,,,*4F
!AIVDM,1,1,,B,H3`gaQ1AU0Pttp0000000000003,2*6D
!AIVDM,1,1,,B,13a6ld3P@9PDv3TN1GdRv7k800SH,0*60
!AIVDO,1,1,,,B3aC3LP00063ai7RNpT03wiUsP06,0*46
$GPRMC,194936.00,A,5241.99789,N,00517.56508,E,0.014,,010809,,,A*7C
!AIVDM,1,1,,A,33a9=20P@g0DvAtN1Jgd28q20000,0*7E
$GPGBS,194936.00,3.0,1.9,4.2,,,,*4C
!AIVDM,1,1,,B,H3`gaQ4UDBE5847@9nohh01@3220,0*7F
!AIVDO,1,1,,,B3aC3LP00063ai7RNp`03wj5sP06,0*11
$GPRMC,194937.00,A,5241.99795,N,00517.56519,E,0.008,,010809,,,A*7D
$GPGBS,194937.00,3.0,1.9,4.2,,,,*4D
!AIVDO,1,1,,,B3aC3LP00063aiWRNpd03wjUsP06,0*15
$GPRMC,194938.00,A,5241.99803,N,00517.56530,E,0.010,,010809,,,A*70
$GPGBS,194938.00,3.0,1.9,4.2,,,,*42
!AIVDM,1,1,,B,13`p;<0P0a0E8upN1GJDG?w:@@Fs,0*7F
!AIVDO,1,1,,,B3aC3LP00063ajWRNph03wk5sP06,0*7B
$GPRMC,194939.00,A,5241.99809,N,00517.56539,E,0.009,,010809,,,A*7A
!AIVDM,1,1,,A,B3`qLQ000061`fWRrD26cwkUoP06,0*7E
!AIVDM,1,1,,A,B3`jde0000648W7RQ>H03wkUoP06,0*00
$GPGBS,194939.00,3.0,1.9,4.2,,,,*43
!AIVDM,1,1,,B,B3`gaQ000062Pc7RIt403wkUoP06,0*4B
!AIVDM,1,1,,B,139QcE7P?w<tSF0l4Q@>4?wv0l08,0*02
!AIVDO,1,1,,,B3aC3LP00063ajWRNph03wkUsP06,0*1B
$GPRMC,194940.00,A,5241.99812,N,00517.56549,E,0.005,,010809,,,A*75
