$GPGGA,145243.000,3401.9764,N,11744.8274,W,2,10,0.87,234.7,M,-33.2,M,0000,0000*5F
{"class":"TPV","tag":"GGA","mode":3,"lat":34.032940000,"lon":-117.747123333,"alt":234.700}
$GPGSA,A,3,14,09,22,18,19,24,06,21,03,31,,,1.58,0.87,1.31*0D
{"class":"TPV","tag":"GSA","mode":3,"lat":34.032940000,"lon":-117.747123333,"alt":234.700,"epv":7.533}
$GPGSV,3,1,11,14,86,335,41,22,54,049,36,24,54,134,38,51,48,161,31*7F
$GPGSV,3,2,11,19,36,273,30,06,28,224,27,03,27,237,25,18,25,076,36*70
$GPGSV,3,3,11,31,19,169,29,21,16,136,28,09,11,039,34*48
{"class":"SKY","tag":"GSV","xdop":0.56,"ydop":0.88,"vdop":1.31,"tdop":1.17,"hdop":0.87,"gdop":2.26,"pdop":1.58,"satellites":[{"PRN":14,"el":86,"az":335,"ss":41,"used":true},{"PRN":22,"el":54,"az":49,"ss":36,"used":true},{"PRN":24,"el":54,"az":134,"ss":38,"used":true},{"PRN":138,"el":48,"az":161,"ss":31,"used":false},{"PRN":19,"el":36,"az":273,"ss":30,"used":true},{"PRN":6,"el":28,"az":224,"ss":27,"used":true},{"PRN":3,"el":27,"az":237,"ss":25,"used":true},{"PRN":18,"el":25,"az":76,"ss":36,"used":true},{"PRN":31,"el":19,"az":169,"ss":29,"used":true},{"PRN":21,"el":16,"az":136,"ss":28,"used":true},{"PRN":9,"el":11,"az":39,"ss":34,"used":true}]}
$GPRMC,145243.000,A,3401.9764,N,11744.8274,W,0.00,119.27,030610,,,D*70
{"class":"TPV","tag":"RMC","mode":3,"time":"2010-06-03T14:52:43.000Z","ept":0.005,"lat":34.032940000,"lon":-117.747123333,"alt":234.700,"epx":2.117,"epy":3.287,"epv":7.533,"track":119.2700,"speed":0.000}
$GPGGA,145244.000,3401.9764,N,11744.8274,W,2,10,0.87,234.7,M,-33.2,M,0000,0000*58
$GPGSA,A,3,14,09,22,18,19,24,06,21,03,31,,,1.58,0.87,1.31*0D
$GPGSV,3,1,11,14,86,335,41,22,54,050,36,24,54,134,38,51,48,161,31*77
$GPGSV,3,2,11,19,36,273,30,06,28,224,27,03,27,237,25,18,25,076,36*70
$GPGSV,3,3,11,31,19,169,28,21,16,136,28,09,11,039,34*49
{"class":"SKY","tag":"GSV","xdop":0.56,"ydop":0.88,"vdop":1.31,"tdop":1.17,"hdop":0.87,"gdop":2.26,"pdop":1.58,"satellites":[{"PRN":14,"el":86,"az":335,"ss":41,"used":true},{"PRN":22,"el":54,"az":50,"ss":36,"used":true},{"PRN":24,"el":54,"az":134,"ss":38,"used":true},{"PRN":138,"el":48,"az":161,"ss":31,"used":false},{"PRN":19,"el":36,"az":273,"ss":30,"used":true},{"PRN":6,"el":28,"az":224,"ss":27,"used":true},{"PRN":3,"el":27,"az":237,"ss":25,"used":true},{"PRN":18,"el":25,"az":76,"ss":36,"used":true},{"PRN":31,"el":19,"az":169,"ss":28,"used":true},{"PRN":21,"el":16,"az":136,"ss":28,"used":true},{"PRN":9,"el":11,"az":39,"ss":34,"used":true}]}
$GPRMC,145244.000,A,3401.9764,N,11744.8274,W,0.00,119.27,030610,,,D*77
{"class":"TPV","tag":"RMC","mode":3,"time":"2010-06-03T14:52:44.000Z","ept":0.005,"lat":34.032940000,"lon":-117.747123333,"alt":234.700,"epx":2.117,"epy":3.287,"epv":7.533,"track":119.2700,"speed":0.000,"climb":0.000,"eps":6.57}
$GPGGA,145245.000,3401.9764,N,11744.8274,W,2,10,0.87,234.7,M,-33.2,M,0000,0000*59
$GPGSA,A,3,14,09,22,18,19,24,06,21,03,31,,,1.58,0.87,1.31*0D
$GPGSV,3,1,11,14,86,335,41,22,54,050,36,24,54,134,38,51,48,161,31*77
$GPGSV,3,2,11,19,36,273,30,06,28,224,27,03,27,237,25,18,25,076,35*73
$GPGSV,3,3,11,31,19,169,28,21,16,136,27,09,11,039,34*46
{"class":"SKY","tag":"GSV","xdop":0.56,"ydop":0.88,"vdop":1.31,"tdop":1.17,"hdop":0.87,"gdop":2.26,"pdop":1.58,"satellites":[{"PRN":14,"el":86,"az":335,"ss":41,"used":true},{"PRN":22,"el":54,"az":50,"ss":36,"used":true},{"PRN":24,"el":54,"az":134,"ss":38,"used":true},{"PRN":138,"el":48,"az":161,"ss":31,"used":false},{"PRN":19,"el":36,"az":273,"ss":30,"used":true},{"PRN":6,"el":28,"az":224,"ss":27,"used":true},{"PRN":3,"el":27,"az":237,"ss":25,"used":true},{"PRN":18,"el":25,"az":76,"ss":35,"used":true},{"PRN":31,"el":19,"az":169,"ss":28,"used":true},{"PRN":21,"el":16,"az":136,"ss":27,"used":true},{"PRN":9,"el":11,"az":39,"ss":34,"used":true}]}
$GPRMC,145245.000,A,3401.9764,N,11744.8274,W,0.00,119.27,030610,,,D*76
{"class":"TPV","tag":"RMC","mode":3,"time":"2010-06-03T14:52:45.000Z","ept":0.005,"lat":34.032940000,"lon":-117.747123333,"alt":234.700,"epx":2.117,"epy":3.287,"epv":7.533,"track":119.2700,"speed":0.000,"climb":0.000,"eps":6.57}
$GPGGA,145246.000,3401.9765,N,11744.8274,W,2,10,0.87,234.7,M,-33.2,M,0000,0000*5B
$GPGSA,A,3,14,09,22,18,19,24,06,21,03,31,,,1.58,0.87,1.31*0D
$GPGSV,3,1,11,14,86,335,41,22,54,050,36,24,53,134,38,51,48,161,31*70
$GPGSV,3,2,11,19,36,273,30,06,28,224,27,03,27,237,25,18,25,076,35*73
$GPGSV,3,3,11,31,19,169,28,21,16,136,27,09,11,039,34*46
{"class":"SKY","tag":"GSV","xdop":0.56,"ydop":0.88,"vdop":1.31,"tdop":1.17,"hdop":0.87,"gdop":2.26,"pdop":1.58,"satellites":[{"PRN":14,"el":86,"az":335,"ss":41,"used":true},{"PRN":22,"el":54,"az":50,"ss":36,"used":true},{"PRN":24,"el":53,"az":134,"ss":38,"used":true},{"PRN":138,"el":48,"az":161,"ss":31,"used":false},{"PRN":19,"el":36,"az":273,"ss":30,"used":true},{"PRN":6,"el":28,"az":224,"ss":27,"used":true},{"PRN":3,"el":27,"az":237,"ss":25,"used":true},{"PRN":18,"el":25,"az":76,"ss":35,"used":true},{"PRN":31,"el":19,"az":169,"ss":28,"used":true},{"PRN":21,"el":16,"az":136,"ss":27,"used":true},{"PRN":9,"el":11,"az":39,"ss":34,"used":true}]}
$GPRMC,145246.000,A,3401.9765,N,11744.8274,W,0.01,119.27,030610,,,D*75
{"class":"TPV","tag":"RMC","mode":3,"time":"2010-06-03T14:52:46.000Z","ept":0.005,"lat":34.032941667,"lon":-117.747123333,"alt":234.700,"epx":2.117,"epy":3.287,"epv":7.533,"track":119.2700,"speed":0.005,"climb":0.000,"eps":6.57}
$GPGGA,145247.000,3401.9765,N,11744.8274,W,2,10,0.87,234.8,M,-33.2,M,0000,0000*55
$GPGSA,A,3,14,09,22,18,19,24,06,21,03,31,,,1.58,0.87,1.31*0D
$GPGSV,3,1,11,14,86,335,40,22,54,050,35,24,53,134,38,51,48,161,30*73
$GPGSV,3,2,11,19,36,273,29,06,28,224,25,03,27,237,25,18,25,076,34*78
$GPGSV,3,3,11,31,19,169,27,21,16,136,26,09,11,039,33*4F
{"class":"SKY","tag":"GSV","xdop":0.56,"ydop":0.88,"vdop":1.31,"tdop":1.17,"hdop":0.87,"gdop":2.26,"pdop":1.58,"satellites":[{"PRN":14,"el":86,"az":335,"ss":40,"used":true},{"PRN":22,"el":54,"az":50,"ss":35,"used":true},{"PRN":24,"el":53,"az":134,"ss":38,"used":true},{"PRN":138,"el":48,"az":161,"ss":30,"used":false},{"PRN":19,"el":36,"az":273,"ss":29,"used":true},{"PRN":6,"el":28,"az":224,"ss":25,"used":true},{"PRN":3,"el":27,"az":237,"ss":25,"used":true},{"PRN":18,"el":25,"az":76,"ss":34,"used":true},{"PRN":31,"el":19,"az":169,"ss":27,"used":true},{"PRN":21,"el":16,"az":136,"ss":26,"used":true},{"PRN":9,"el":11,"az":39,"ss":33,"used":true}]}
$GPRMC,145247.000,A,3401.9765,N,11744.8274,W,0.00,119.27,030610,,,D*75
{"class":"TPV","tag":"RMC","mode":3,"time":"2010-06-03T14:52:47.000Z","ept":0.005,"lat":34.032941667,"lon":-117.747123333,"alt":234.800,"epx":2.117,"epy":3.287,"epv":7.533,"track":119.2700,"speed":0.000,"climb":0.100,"eps":6.57}
$GPGGA,145248.000,3401.9765,N,11744.8274,W,2,10,0.87,234.8,M,-33.2,M,0000,0000*5A
$GPGSA,A,3,14,09,22,18,19,24,06,21,03,31,,,1.58,0.87,1.31*0D
$GPGSV,3,1,11,14,86,335,41,22,54,050,36,24,53,134,38,51,48,161,30*71
$GPGSV,3,2,11,19,36,273,29,06,28,224,26,03,27,237,26,18,25,076,34*78
$GPGSV,3,3,11,31,19,169,27,21,16,136,27,09,11,039,34*49
{"class":"SKY","tag":"GSV","xdop":0.56,"ydop":0.88,"vdop":1.31,"tdop":1.17,"hdop":0.87,"gdop":2.26,"pdop":1.58,"satellites":[{"PRN":14,"el":86,"az":335,"ss":41,"used":true},{"PRN":22,"el":54,"az":50,"ss":36,"used":true},{"PRN":24,"el":53,"az":134,"ss":38,"used":true},{"PRN":138,"el":48,"az":161,"ss":30,"used":false},{"PRN":19,"el":36,"az":273,"ss":29,"used":true},{"PRN":6,"el":28,"az":224,"ss":26,"used":true},{"PRN":3,"el":27,"az":237,"ss":26,"used":true},{"PRN":18,"el":25,"az":76,"ss":34,"used":true},{"PRN":31,"el":19,"az":169,"ss":27,"used":true},{"PRN":21,"el":16,"az":136,"ss":27,"used":true},{"PRN":9,"el":11,"az":39,"ss":34,"used":true}]}
$GPRMC,145248.000,A,3401.9765,N,11744.8274,W,0.00,119.27,030610,,,D*7A
{"class":"TPV","tag":"RMC","mode":3,"time":"2010-06-03T14:52:48.000Z","ept":0.005,"lat":34.032941667,"lon":-117.747123333,"alt":234.800,"epx":2.117,"epy":3.287,"epv":7.533,"track":119.2700,"speed":0.000,"climb":0.000,"eps":6.57}
$GPGGA,145249.000,3401.9765,N,11744.8274,W,2,10,0.87,234.8,M,-33.2,M,0000,0000*5B
$GPGSA,A,3,14,09,22,18,19,24,06,21,03,31,,,1.58,0.87,1.31*0D
$GPGSV,3,1,11,14,86,335,42,22,54,050,36,24,53,134,38,51,48,161,30*72
$GPGSV,3,2,11,19,36,273,29,06,28,224,27,03,27,237,27,18,25,076,34*78
$GPGSV,3,3,11,31,19,169,27,21,16,136,28,09,11,039,34*46
{"class":"SKY","tag":"GSV","xdop":0.56,"ydop":0.88,"vdop":1.31,"tdop":1.17,"hdop":0.87,"gdop":2.26,"pdop":1.58,"satellites":[{"PRN":14,"el":86,"az":335,"ss":42,"used":true},{"PRN":22,"el":54,"az":50,"ss":36,"used":true},{"PRN":24,"el":53,"az":134,"ss":38,"used":true},{"PRN":138,"el":48,"az":161,"ss":30,"used":false},{"PRN":19,"el":36,"az":273,"ss":29,"used":true},{"PRN":6,"el":28,"az":224,"ss":27,"used":true},{"PRN":3,"el":27,"az":237,"ss":27,"used":true},{"PRN":18,"el":25,"az":76,"ss":34,"used":true},{"PRN":31,"el":19,"az":169,"ss":27,"used":true},{"PRN":21,"el":16,"az":136,"ss":28,"used":true},{"PRN":9,"el":11,"az":39,"ss":34,"used":true}]}
$GPRMC,145249.000,A,3401.9765,N,11744.8274,W,0.00,119.27,030610,,,D*7B
{"class":"TPV","tag":"RMC","mode":3,"time":"2010-06-03T14:52:49.000Z","ept":0.005,"lat":34.032941667,"lon":-117.747123333,"alt":234.800,"epx":2.117,"epy":3.287,"epv":7.533,"track":119.2700,"speed":0.000,"climb":0.000,"eps":6.57}
$GPGGA,145250.000,3401.9765,N,11744.8274,W,2,10,0.87,234.8,M,-33.2,M,0000,0000*53
$GPGSA,A,3,14,09,22,18,19,24,06,21,03,31,,,1.58,0.87,1.31*0D
$GPGSV,3,1,11,14,86,335,42,22,54,050,36,24,53,134,38,51,48,161,30*72
$GPGSV,3,2,11,19,36,273,29,06,28,224,27,03,27,237,27,18,25,076,34*78
$GPGSV,3,3,11,31,19,169,27,21,16,136,28,09,11,039,34*46
{"class":"SKY","tag":"GSV","xdop":0.56,"ydop":0.88,"vdop":1.31,"tdop":1.17,"hdop":0.87,"gdop":2.26,"pdop":1.58,"satellites":[{"PRN":14,"el":86,"az":335,"ss":42,"used":true},{"PRN":22,"el":54,"az":50,"ss":36,"used":true},{"PRN":24,"el":53,"az":134,"ss":38,"used":true},{"PRN":138,"el":48,"az":161,"ss":30,"used":false},{"PRN":19,"el":36,"az":273,"ss":29,"used":true},{"PRN":6,"el":28,"az":224,"ss":27,"used":true},{"PRN":3,"el":27,"az":237,"ss":27,"used":true},{"PRN":18,"el":25,"az":76,"ss":34,"used":true},{"PRN":31,"el":19,"az":169,"ss":27,"used":true},{"PRN":21,"el":16,"az":136,"ss":28,"used":true},{"PRN":9,"el":11,"az":39,"ss":34,"used":true}]}
$GPRMC,145250.000,A,3401.9765,N,11744.8274,W,0.00,119.27,030610,,,D*73
{"class":"TPV","tag":"RMC","mode":3,"time":"2010-06-03T14:52:50.000Z","ept":0.005,"lat":34.032941667,"lon":-117.747123333,"alt":234.800,"epx":2.117,"epy":3.287,"epv":7.533,"track":119.2700,"speed":0.000,"climb":0.000,"eps":6.57}
$GPGGA,145251.000,3401.9765,N,11744.8274,W,2,10,0.87,234.8,M,-33.2,M,0000,0000*52
$GPGSA,A,3,14,09,22,18,19,24,06,21,03,31,,,1.58,0.87,1.31*0D
$GPGSV,3,1,11,14,86,335,42,22,54,050,36,24,53,134,38,51,48,161,30*72
$GPGSV,3,2,11,19,36,273,29,06,28,224,27,03,27,237,27,18,25,076,34*78
$GPGSV,3,3,11,31,19,169,26,21,16,136,28,09,11,039,34*47
{"class":"SKY","tag":"GSV","xdop":0.56,"ydop":0.88,"vdop":1.31,"tdop":1.17,"hdop":0.87,"gdop":2.26,"pdop":1.58,"satellites":[{"PRN":14,"el":86,"az":335,"ss":42,"used":true},{"PRN":22,"el":54,"az":50,"ss":36,"used":true},{"PRN":24,"el":53,"az":134,"ss":38,"used":true},{"PRN":138,"el":48,"az":161,"ss":30,"used":false},{"PRN":19,"el":36,"az":273,"ss":29,"used":true},{"PRN":6,"el":28,"az":224,"ss":27,"used":true},{"PRN":3,"el":27,"az":237,"ss":27,"used":true},{"PRN":18,"el":25,"az":76,"ss":34,"used":true},{"PRN":31,"el":19,"az":169,"ss":26,"used":true},{"PRN":21,"el":16,"az":136,"ss":28,"used":true},{"PRN":9,"el":11,"az":39,"ss":34,"used":true}]}
$GPRMC,145251.000,A,3401.9765,N,11744.8274,W,0.00,119.27,030610,,,D*72
{"class":"TPV","tag":"RMC","mode":3,"time":"2010-06-03T14:52:51.000Z","ept":0.005,"lat":34.032941667,"lon":-117.747123333,"alt":234.800,"epx":2.117,"epy":3.287,"epv":7.533,"track":119.2700,"speed":0.000,"climb":0.000,"eps":6.57}
$GPGGA,145252.000,3401.9765,N,11744.8274,W,2,10,0.87,234.8,M,-33.2,M,0000,0000*51
$GPGSA,A,3,14,09,22,18,19,24,06,21,03,31,,,1.58,0.87,1.31*0D
$GPGSV,3,1,11,14,86,335,41,22,54,050,35,24,53,134,39,51,48,161,29*7B
$GPGSV,3,2,11,19,36,273,28,06,28,224,27,03,27,237,26,18,25,076,34*78
$GPGSV,3,3,11,31,19,169,25,21,16,136,28,09,11,039,33*43
{"class":"SKY","tag":"GSV","xdop":0.56,"ydop":0.88,"vdop":1.31,"tdop":1.17,"hdop":0.87,"gdop":2.26,"pdop":1.58,"satellites":[{"PRN":14,"el":86,"az":335,"ss":41,"used":true},{"PRN":22,"el":54,"az":50,"ss":35,"used":true},{"PRN":24,"el":53,"az":134,"ss":39,"used":true},{"PRN":138,"el":48,"az":161,"ss":29,"used":false},{"PRN":19,"el":36,"az":273,"ss":28,"used":true},{"PRN":6,"el":28,"az":224,"ss":27,"used":true},{"PRN":3,"el":27,"az":237,"ss":26,"used":true},{"PRN":18,"el":25,"az":76,"ss":34,"used":true},{"PRN":31,"el":19,"az":169,"ss":25,"used":true},{"PRN":21,"el":16,"az":136,"ss":28,"used":true},{"PRN":9,"el":11,"az":39,"ss":33,"used":true}]}
$GPRMC,145252.000,A,3401.9765,N,11744.8274,W,0.01,119.27,030610,,,D*70
{"class":"TPV","tag":"RMC","mode":3,"time":"2010-06-03T14:52:52.000Z","ept":0.005,"lat":34.032941667,"lon":-117.747123333,"alt":234.800,"epx":2.117,"epy":3.287,"epv":7.533,"track":119.2700,"speed":0.005,"climb":0.000,"eps":6.57}
$GPGGA,145253.000,3401.9765,N,11744.8274,W,2,10,0.87,234.8,M,-33.2,M,0000,0000*50
$GPGSA,A,3,14,09,22,18,19,24,06,21,03,31,,,1.58,0.87,1.31*0D
$GPGSV,3,1,11,14,86,335,40,22,54,050,34,24,53,134,38,51,48,161,28*7B
$GPGSV,3,2,11,19,36,273,27,06,28,224,27,03,27,237,25,18,25,076,33*73
$GPGSV,3,3,11,31,19,169,25,21,16,136,28,09,11,039,32*42
{"class":"SKY","tag":"GSV","xdop":0.56,"ydop":0.88,"vdop":1.31,"tdop":1.17,"hdop":0.87,"gdop":2.26,"pdop":1.58,"satellites":[{"PRN":14,"el":86,"az":335,"ss":40,"used":true},{"PRN":22,"el":54,"az":50,"ss":34,"used":true},{"PRN":24,"el":53,"az":134,"ss":38,"used":true},{"PRN":138,"el":48,"az":161,"ss":28,"used":false},{"PRN":19,"el":36,"az":273,"ss":27,"used":true},{"PRN":6,"el":28,"az":224,"ss":27,"used":true},{"PRN":3,"el":27,"az":237,"ss":25,"used":true},{"PRN":18,"el":25,"az":76,"ss":33,"used":true},{"PRN":31,"el":19,"az":169,"ss":25,"used":true},{"PRN":21,"el":16,"az":136,"ss":28,"used":true},{"PRN":9,"el":11,"az":39,"ss":32,"used":true}]}
$GPRMC,145253.000,A,3401.9765,N,11744.8274,W,0.00,119.27,030610,,,D*70
{"class":"TPV","tag":"RMC","mode":3,"time":"2010-06-03T14:52:53.000Z","ept":0.005,"lat":34.032941667,"lon":-117.747123333,"alt":234.800,"epx":2.117,"epy":3.287,"epv":7.533,"track":119.2700,"speed":0.000,"climb":0.000,"eps":6.57}
$GPGGA,145254.000,3401.9765,N,11744.8274,W,2,10,0.87,234.8,M,-33.2,M,0000,0000*57
$GPGSA,A,3,14,09,22,18,19,24,06,21,03,31,,,1.58,0.87,1.31*0D
$GPGSV,3,1,11,14,86,335,40,22,54,050,34,24,53,134,39,51,48,161,28*7A
$GPGSV,3,2,11,19,36,273,27,06,28,224,28,03,27,237,24,18,25,076,34*7A
$GPGSV,3,3,11,31,19,169,25,21,16,136,28,09,11,039,33*43
{"class":"SKY","tag":"GSV","xdop":0.56,"ydop":0.88,"vdop":1.31,"tdop":1.17,"hdop":0.87,"gdop":2.26,"pdop":1.58,"satellites":[{"PRN":14,"el":86,"az":335,"ss":40,"used":true},{"PRN":22,"el":54,"az":50,"ss":34,"used":true},{"PRN":24,"el":53,"az":134,"ss":39,"used":true},{"PRN":138,"el":48,"az":161,"ss":28,"used":false},{"PRN":19,"el":36,"az":273,"ss":27,"used":true},{"PRN":6,"el":28,"az":224,"ss":28,"used":true},{"PRN":3,"el":27,"az":237,"ss":24,"used":true},{"PRN":18,"el":25,"az":76,"ss":34,"used":true},{"PRN":31,"el":19,"az":169,"ss":25,"used":true},{"PRN":21,"el":16,"az":136,"ss":28,"used":true},{"PRN":9,"el":11,"az":39,"ss":33,"used":true}]}
$GPRMC,145254.000,A,3401.9765,N,11744.8274,W,0.01,119.27,030610,,,D*76
{"class":"TPV","tag":"RMC","mode":3,"time":"2010-06-03T14:52:54.000Z","ept":0.005,"lat":34.032941667,"lon":-117.747123333,"alt":234.800,"epx":2.117,"epy":3.287,"epv":7.533,"track":119.2700,"speed":0.005,"climb":0.000,"eps":6.57}
$GPGGA,145255.000,3401.9765,N,11744.8274,W,2,10,0.87,234.8,M,-33.2,M,0000,0000*56
$GPGSA,A,3,14,09,22,18,19,24,06,21,03,31,,,1.58,0.87,1.31*0D
$GPGSV,3,1,11,14,86,335,39,22,54,050,34,24,53,134,40,51,48,161,28*7A
$GPGSV,3,2,11,19,36,273,28,06,28,224,27,03,27,237,26,18,25,076,34*78
$GPGSV,3,3,11,31,19,169,26,21,16,136,28,09,11,039,32*41
{"class":"SKY","tag":"GSV","xdop":0.56,"ydop":0.88,"vdop":1.31,"tdop":1.17,"hdop":0.87,"gdop":2.26,"pdop":1.58,"satellites":[{"PRN":14,"el":86,"az":335,"ss":39,"used":true},{"PRN":22,"el":54,"az":50,"ss":34,"used":true},{"PRN":24,"el":53,"az":134,"ss":40,"used":true},{"PRN":138,"el":48,"az":161,"ss":28,"used":false},{"PRN":19,"el":36,"az":273,"ss":28,"used":true},{"PRN":6,"el":28,"az":224,"ss":27,"used":true},{"PRN":3,"el":27,"az":237,"ss":26,"used":true},{"PRN":18,"el":25,"az":76,"ss":34,"used":true},{"PRN":31,"el":19,"az":169,"ss":26,"used":true},{"PRN":21,"el":16,"az":136,"ss":28,"used":true},{"PRN":9,"el":11,"az":39,"ss":32,"used":true}]}
$GPRMC,145255.000,A,3401.9765,N,11744.8274,W,0.01,119.27,030610,,,D*77
{"class":"TPV","tag":"RMC","mode":3,"time":"2010-06-03T14:52:55.000Z","ept":0.005,"lat":34.032941667,"lon":-117.747123333,"alt":234.800,"epx":2.117,"epy":3.287,"epv":7.533,"track":119.2700,"speed":0.005,"climb":0.000,"eps":6.57}
$GPGGA,145256.000,3401.9765,N,11744.8274,W,2,10,0.87,234.8,M,-33.2,M,0000,0000*55
$GPGSA,A,3,14,09,22,18,19,24,06,21,03,31,,,1.58,0.87,1.31*0D
$GPGSV,3,1,11,14,86,335,39,22,54,050,33,24,53,134,41,51,48,161,*76
$GPGSV,3,2,11,19,36,273,29,06,28,224,27,03,27,237,27,18,25,076,33*7F
$GPGSV,3,3,11,31,19,169,27,21,16,136,28,09,11,039,32*40
{"class":"SKY","tag":"GSV","xdop":0.56,"ydop":0.88,"vdop":1.31,"tdop":1.17,"hdop":0.87,"gdop":2.26,"pdop":1.58,"satellites":[{"PRN":14,"el":86,"az":335,"ss":39,"used":true},{"PRN":22,"el":54,"az":50,"ss":33,"used":true},{"PRN":24,"el":53,"az":134,"ss":41,"used":true},{"PRN":138,"el":48,"az":161,"ss":0,"used":false},{"PRN":19,"el":36,"az":273,"ss":29,"used":true},{"PRN":6,"el":28,"az":224,"ss":27,"used":true},{"PRN":3,"el":27,"az":237,"ss":27,"used":true},{"PRN":18,"el":25,"az":76,"ss":33,"used":true},{"PRN":31,"el":19,"az":169,"ss":27,"used":true},{"PRN":21,"el":16,"az":136,"ss":28,"used":true},{"PRN":9,"el":11,"az":39,"ss":32,"used":true}]}
$GPRMC,145256.000,A,3401.9765,N,11744.8274,W,0.00,119.27,030610,,,D*75
{"class":"TPV","tag":"RMC","mode":3,"time":"2010-06-03T14:52:56.000Z","ept":0.005,"lat":34.032941667,"lon":-117.747123333,"alt":234.800,"epx":2.117,"epy":3.287,"epv":7.533,"track":119.2700,"speed":0.000,"climb":0.000,"eps":6.57}
$GPGGA,145257.000,3401.9765,N,11744.8274,W,2,10,0.87,234.8,M,-33.2,M,0000,0000*54
$GPGSA,A,3,14,09,22,18,19,24,06,21,03,31,,,1.58,0.87,1.31*0D
$GPGSV,3,1,11,14,86,335,31,22,54,050,33,24,53,134,26,51,48,161,27*7A
$GPGSV,3,2,11,19,36,273,29,06,28,224,28,03,27,237,26,18,25,076,19*79
$GPGSV,3,3,11,31,19,169,29,21,16,136,29,09,11,039,30*4D
{"class":"SKY","tag":"GSV","xdop":0.56,"ydop":0.88,"vdop":1.31,"tdop":1.17,"hdop":0.87,"gdop":2.26,"pdop":1.58,"satellites":[{"PRN":14,"el":86,"az":335,"ss":31,"used":true},{"PRN":22,"el":54,"az":50,"ss":33,"used":true},{"PRN":24,"el":53,"az":134,"ss":26,"used":true},{"PRN":138,"el":48,"az":161,"ss":27,"used":false},{"PRN":19,"el":36,"az":273,"ss":29,"used":true},{"PRN":6,"el":28,"az":224,"ss":28,"used":true},{"PRN":3,"el":27,"az":237,"ss":26,"used":true},{"PRN":18,"el":25,"az":76,"ss":19,"used":true},{"PRN":31,"el":19,"az":169,"ss":29,"used":true},{"PRN":21,"el":16,"az":136,"ss":29,"used":true},{"PRN":9,"el":11,"az":39,"ss":30,"used":true}]}
$GPRMC,145257.000,A,3401.9765,N,11744.8274,W,0.00,119.27,030610,,,D*74
{"class":"TPV","tag":"RMC","mode":3,"time":"2010-06-03T14:52:57.000Z","ept":0.005,"lat":34.032941667,"lon":-117.747123333,"alt":234.800,"epx":2.117,"epy":3.287,"epv":7.533,"track":119.2700,"speed":0.000,"climb":0.000,"eps":6.57}
$GPGGA,145258.000,3401.9765,N,11744.8274,W,2,9,0.91,234.8,M,-33.2,M,0000,0000*64
$GPGSA,A,3,14,09,22,19,24,06,21,03,31,,,,1.60,0.91,1.32*0B
$GPGSV,3,1,11,14,86,335,24,22,54,050,33,24,53,134,35,51,48,161,39*73
$GPGSV,3,2,11,19,36,273,30,06,28,224,28,03,27,237,25,18,25,076,19*72
$GPGSV,3,3,11,31,19,169,28,21,16,136,37,09,11,039,29*4B
{"class":"SKY","tag":"GSV","xdop":0.56,"ydop":0.88,"vdop":1.32,"tdop":1.17,"hdop":0.91,"gdop":2.26,"pdop":1.60,"satellites":[{"PRN":14,"el":86,"az":335,"ss":24,"used":true},{"PRN":22,"el":54,"az":50,"ss":33,"used":true},{"PRN":24,"el":53,"az":134,"ss":35,"used":true},{"PRN":138,"el":48,"az":161,"ss":39,"used":false},{"PRN":19,"el":36,"az":273,"ss":30,"used":true},{"PRN":6,"el":28,"az":224,"ss":28,"used":true},{"PRN":3,"el":27,"az":237,"ss":25,"used":true},{"PRN":18,"el":25,"az":76,"ss":19,"used":false},{"PRN":31,"el":19,"az":169,"ss":28,"used":true},{"PRN":21,"el":16,"az":136,"ss":37,"used":true},{"PRN":9,"el":11,"az":39,"ss":29,"used":true}]}
$GPRMC,145258.000,A,3401.9765,N,11744.8274,W,0.00,119.27,030610,,,D*7B
{"class":"TPV","tag":"RMC","mode":3,"time":"2010-06-03T14:52:58.000Z","ept":0.005,"lat":34.032941667,"lon":-117.747123333,"alt":234.800,"epx":2.117,"epy":3.287,"epv":7.533,"track":119.2700,"speed":0.000,"climb":0.000,"eps":6.57}
$GPGGA,145259.000,3401.9765,N,11744.8274,W,2,9,0.93,234.8,M,-33.2,M,0000,0000*67
$GPGSA,A,3,14,09,22,18,19,24,06,21,31,,,,1.63,0.93,1.34*06
$GPGSV,3,1,11,14,86,335,24,22,54,050,25,24,53,134,36,51,48,161,34*7A
$GPGSV,3,2,11,19,36,273,30,06,28,224,27,03,27,237,16,18,25,076,21*76
$GPGSV,3,3,11,31,19,169,29,21,16,136,37,09,11,039,30*42
{"class":"SKY","tag":"GSV","xdop":0.56,"ydop":0.88,"vdop":1.34,"tdop":1.17,"hdop":0.93,"gdop":2.26,"pdop":1.63,"satellites":[{"PRN":14,"el":86,"az":335,"ss":24,"used":true},{"PRN":22,"el":54,"az":50,"ss":25,"used":true},{"PRN":24,"el":53,"az":134,"ss":36,"used":true},{"PRN":138,"el":48,"az":161,"ss":34,"used":false},{"PRN":19,"el":36,"az":273,"ss":30,"used":true},{"PRN":6,"el":28,"az":224,"ss":27,"used":true},{"PRN":3,"el":27,"az":237,"ss":16,"used":false},{"PRN":18,"el":25,"az":76,"ss":21,"used":true},{"PRN":31,"el":19,"az":169,"ss":29,"used":true},{"PRN":21,"el":16,"az":136,"ss":37,"used":true},{"PRN":9,"el":11,"az":39,"ss":30,"used":true}]}
$GPRMC,145259.000,A,3401.9765,N,11744.8274,W,0.01,119.27,030610,,,D*7B
{"class":"TPV","tag":"RMC","mode":3,"time":"2010-06-03T14:52:59.000Z","ept":0.005,"lat":34.032941667,"lon":-117.747123333,"alt":234.800,"epx":2.117,"epy":3.287,"epv":7.590,"track":119.2700,"speed":0.005,"climb":0.000,"eps":6.57}
$GPGGA,145300.000,3401.9765,N,11744.8274,W,2,9,0.88,234.8,M,-33.2,M,0000,0000*60
$GPGSA,A,3,09,22,18,19,24,06,21,03,31,,,,1.87,0.88,1.65*04
$GPGSV,3,1,11,14,86,335,17,22,54,050,27,24,53,134,37,51,48,161,38*75
$GPGSV,3,2,11,19,36,273,29,06,28,224,17,03,27,237,17,18,25,076,29*74
$GPGSV,3,3,11,31,19,169,28,21,16,136,27,09,11,039,29*4A
{"class":"SKY","tag":"GSV","xdop":0.56,"ydop":0.88,"vdop":1.65,"tdop":1.17,"hdop":0.88,"gdop":2.26,"pdop":1.87,"satellites":[{"PRN":14,"el":86,"az":335,"ss":17,"used":false},{"PRN":22,"el":54,"az":50,"ss":27,"used":true},{"PRN":24,"el":53,"az":134,"ss":37,"used":true},{"PRN":138,"el":48,"az":161,"ss":38,"used":false},{"PRN":19,"el":36,"az":273,"ss":29,"used":true},{"PRN":6,"el":28,"az":224,"ss":17,"used":true},{"PRN":3,"el":27,"az":237,"ss":17,"used":true},{"PRN":18,"el":25,"az":76,"ss":29,"used":true},{"PRN":31,"el":19,"az":169,"ss":28,"used":true},{"PRN":21,"el":16,"az":136,"ss":27,"used":true},{"PRN":9,"el":11,"az":39,"ss":29,"used":true}]}
$GPRMC,145300.000,A,3401.9765,N,11744.8274,W,0.00,119.27,030610,,,D*77
{"class":"TPV","tag":"RMC","mode":3,"time":"2010-06-03T14:53:00.000Z","ept":0.005,"lat":34.032941667,"lon":-117.747123333,"alt":234.800,"epx":2.117,"epy":3.287,"epv":7.705,"track":119.2700,"speed":0.000,"climb":0.000,"eps":6.57}
$GPGGA,145301.000,3401.9765,N,11744.8274,W,2,9,0.87,234.8,M,-33.2,M,0000,0000*6E
$GPGSA,A,3,09,22,18,19,24,06,21,03,31,,,,1.87,0.87,1.65*0B
$GPGSV,3,1,11,14,86,335,17,22,54,050,29,24,53,134,37,51,48,161,38*7B
$GPGSV,3,2,11,19,36,273,27,06,28,224,17,03,27,237,18,18,25,076,28*74
$GPGSV,3,3,11,31,19,169,27,21,16,136,26,09,11,039,29*44
{"class":"SKY","tag":"GSV","xdop":0.56,"ydop":0.88,"vdop":1.65,"tdop":1.17,"hdop":0.87,"gdop":2.26,"pdop":1.87,"satellites":[{"PRN":14,"el":86,"az":335,"ss":17,"used":false},{"PRN":22,"el":54,"az":50,"ss":29,"used":true},{"PRN":24,"el":53,"az":134,"ss":37,"used":true},{"PRN":138,"el":48,"az":161,"ss":38,"used":false},{"PRN":19,"el":36,"az":273,"ss":27,"used":true},{"PRN":6,"el":28,"az":224,"ss":17,"used":true},{"PRN":3,"el":27,"az":237,"ss":18,"used":true},{"PRN":18,"el":25,"az":76,"ss":28,"used":true},{"PRN":31,"el":19,"az":169,"ss":27,"used":true},{"PRN":21,"el":16,"az":136,"ss":26,"used":true},{"PRN":9,"el":11,"az":39,"ss":29,"used":true}]}
$GPRMC,145301.000,A,3401.9765,N,11744.8274,W,0.00,119.27,030610,,,D*76
{"class":"TPV","tag":"RMC","mode":3,"time":"2010-06-03T14:53:01.000Z","ept":0.005,"lat":34.032941667,"lon":-117.747123333,"alt":234.800,"epx":2.117,"epy":3.287,"epv":9.487,"track":119.2700,"speed":0.000,"climb":0.000,"eps":6.57}
$GPGGA,145302.000,3401.9765,N,11744.8274,W,2,9,0.91,234.8,M,-33.2,M,0000,0000*6A
$GPGSA,A,3,14,09,22,18,19,24,21,03,31,,,,1.61,0.91,1.32*05
$GPGSV,3,1,11,14,86,335,17,22,54,050,30,24,53,134,37,51,48,161,37*7C
$GPGSV,3,2,11,19,36,273,26,06,28,224,,03,27,237,18,18,25,076,28*73
$GPGSV,3,3,11,31,19,169,27,21,16,136,25,09,11,039,29*47
{"class":"SKY","tag":"GSV","xdop":0.56,"ydop":0.88,"vdop":1.32,"tdop":1.17,"hdop":0.91,"gdop":2.26,"pdop":1.61,"satellites":[{"PRN":14,"el":86,"az":335,"ss":17,"used":true},{"PRN":22,"el":54,"az":50,"ss":30,"used":true},{"PRN":24,"el":53,"az":134,"ss":37,"used":true},{"PRN":138,"el":48,"az":161,"ss":37,"used":false},{"PRN":19,"el":36,"az":273,"ss":26,"used":true},{"PRN":6,"el":28,"az":224,"ss":0,"used":false},{"PRN":3,"el":27,"az":237,"ss":18,"used":true},{"PRN":18,"el":25,"az":76,"ss":28,"used":true},{"PRN":31,"el":19,"az":169,"ss":27,"used":true},{"PRN":21,"el":16,"az":136,"ss":25,"used":true},{"PRN":9,"el":11,"az":39,"ss":29,"used":true}]}
$GPRMC,145302.000,A,3401.9765,N,11744.8274,W,0.01,119.27,030610,,,D*74
{"class":"TPV","tag":"RMC","mode":3,"time":"2010-06-03T14:53:02.000Z","ept":0.005,"lat":34.032941667,"lon":-117.747123333,"alt":234.800,"epx":2.117,"epy":3.287,"epv":9.487,"track":119.2700,"speed":0.005,"climb":0.000,"eps":6.57}
$GPGGA,145303.000,3401.9765,N,11744.8274,W,2,9,0.91,234.8,M,-33.2,M,0000,0000*6B
$GPGSA,A,3,14,09,22,18,19,24,21,03,31,,,,1.61,0.91,1.32*05
$GPGSV,3,1,11,14,86,335,16,22,54,050,31,24,53,134,37,51,48,161,37*7C
$GPGSV,3,2,11,19,36,273,26,06,28,224,,03,27,237,18,18,25,076,28*73
$GPGSV,3,3,11,31,19,169,27,21,16,136,25,09,10,039,29*46
{"class":"SKY","tag":"GSV","xdop":0.56,"ydop":0.88,"vdop":1.32,"tdop":1.17,"hdop":0.91,"gdop":2.26,"pdop":1.61,"satellites":[{"PRN":14,"el":86,"az":335,"ss":16,"used":true},{"PRN":22,"el":54,"az":50,"ss":31,"used":true},{"PRN":24,"el":53,"az":134,"ss":37,"used":true},{"PRN":138,"el":48,"az":161,"ss":37,"used":false},{"PRN":19,"el":36,"az":273,"ss":26,"used":true},{"PRN":6,"el":28,"az":224,"ss":0,"used":false},{"PRN":3,"el":27,"az":237,"ss":18,"used":true},{"PRN":18,"el":25,"az":76,"ss":28,"used":true},{"PRN":31,"el":19,"az":169,"ss":27,"used":true},{"PRN":21,"el":16,"az":136,"ss":25,"used":true},{"PRN":9,"el":10,"az":39,"ss":29,"used":true}]}
$GPRMC,145303.000,A,3401.9765,N,11744.8274,W,0.01,119.27,030610,,,D*75
{"class":"TPV","tag":"RMC","mode":3,"time":"2010-06-03T14:53:03.000Z","ept":0.005,"lat":34.032941667,"lon":-117.747123333,"alt":234.800,"epx":2.117,"epy":3.287,"epv":7.590,"track":119.2700,"speed":0.005,"climb":0.000,"eps":6.57}
$GPGGA,145304.000,3401.9765,N,11744.8274,W,2,9,0.91,234.8,M,-33.2,M,0000,0000*6C
$GPGSA,A,3,14,09,22,18,19,24,21,03,31,,,,1.61,0.91,1.32*05
$GPGSV,3,1,11,14,86,335,16,22,54,050,32,24,53,134,37,51,48,161,37*7F
$GPGSV,3,2,11,19,36,273,26,06,28,224,,03,27,237,18,18,25,076,28*73
$GPGSV,3,3,11,31,19,169,27,21,16,136,26,09,10,039,28*44
{"class":"SKY","tag":"GSV","xdop":0.56,"ydop":0.88,"vdop":1.32,"tdop":1.17,"hdop":0.91,"gdop":2.26,"pdop":1.61,"satellites":[{"PRN":14,"el":86,"az":335,"ss":16,"used":true},{"PRN":22,"el":54,"az":50,"ss":32,"used":true},{"PRN":24,"el":53,"az":134,"ss":37,"used":true},{"PRN":138,"el":48,"az":161,"ss":37,"used":false},{"PRN":19,"el":36,"az":273,"ss":26,"used":true},{"PRN":6,"el":28,"az":224,"ss":0,"used":false},{"PRN":3,"el":27,"az":237,"ss":18,"used":true},{"PRN":18,"el":25,"az":76,"ss":28,"used":true},{"PRN":31,"el":19,"az":169,"ss":27,"used":true},{"PRN":21,"el":16,"az":136,"ss":26,"used":true},{"PRN":9,"el":10,"az":39,"ss":28,"used":true}]}
$GPRMC,145304.000,A,3401.9765,N,11744.8274,W,0.00,119.27,030610,,,D*73
{"class":"TPV","tag":"RMC","mode":3,"time":"2010-06-03T14:53:04.000Z","ept":0.005,"lat":34.032941667,"lon":-117.747123333,"alt":234.800,"epx":2.117,"epy":3.287,"epv":7.590,"track":119.2700,"speed":0.000,"climb":0.000,"eps":6.57}
$GPGGA,145305.000,3401.9765,N,11744.8274,W,2,9,0.91,234.8,M,-33.2,M,0000,0000*6D
$GPGSA,A,3,14,09,22,18,19,24,21,03,31,,,,1.61,0.91,1.32*05
$GPGSV,3,1,11,14,86,335,16,22,54,050,32,24,53,134,37,51,48,161,37*7F
$GPGSV,3,2,11,19,36,273,26,06,28,224,,03,27,237,18,18,25,076,28*73
$GPGSV,3,3,11,31,19,169,27,21,16,136,27,09,10,039,28*45
{"class":"SKY","tag":"GSV","xdop":0.56,"ydop":0.88,"vdop":1.32,"tdop":1.17,"hdop":0.91,"gdop":2.26,"pdop":1.61,"satellites":[{"PRN":14,"el":86,"az":335,"ss":16,"used":true},{"PRN":22,"el":54,"az":50,"ss":32,"used":true},{"PRN":24,"el":53,"az":134,"ss":37,"used":true},{"PRN":138,"el":48,"az":161,"ss":37,"used":false},{"PRN":19,"el":36,"az":273,"ss":26,"used":true},{"PRN":6,"el":28,"az":224,"ss":0,"used":false},{"PRN":3,"el":27,"az":237,"ss":18,"used":true},{"PRN":18,"el":25,"az":76,"ss":28,"used":true},{"PRN":31,"el":19,"az":169,"ss":27,"used":true},{"PRN":21,"el":16,"az":136,"ss":27,"used":true},{"PRN":9,"el":10,"az":39,"ss":28,"used":true}]}
$GPRMC,145305.000,A,3401.9765,N,11744.8274,W,0.00,119.27,030610,,,D*72
{"class":"TPV","tag":"RMC","mode":3,"time":"2010-06-03T14:53:05.000Z","ept":0.005,"lat":34.032941667,"lon":-117.747123333,"alt":234.800,"epx":2.117,"epy":3.287,"epv":7.590,"track":119.2700,"speed":0.000,"climb":0.000,"eps":6.57}
$GPGGA,145306.000,3401.9765,N,11744.8274,W,2,9,0.91,234.8,M,-33.2,M,0000,0000*6E
$GPGSA,A,3,14,09,22,18,19,24,21,03,31,,,,1.61,0.91,1.32*05
$GPGSV,3,1,11,14,86,335,16,22,54,050,32,24,53,134,37,51,48,161,38*70
$GPGSV,3,2,11,19,36,273,26,06,28,224,,03,27,237,18,18,25,076,28*73
$GPGSV,3,3,11,31,19,169,27,21,16,136,27,09,10,039,28*45
{"class":"SKY","tag":"GSV","xdop":0.56,"ydop":0.88,"vdop":1.32,"tdop":1.17,"hdop":0.91,"gdop":2.26,"pdop":1.61,"satellites":[{"PRN":14,"el":86,"az":335,"ss":16,"used":true},{"PRN":22,"el":54,"az":50,"ss":32,"used":true},{"PRN":24,"el":53,"az":134,"ss":37,"used":true},{"PRN":138,"el":48,"az":161,"ss":38,"used":false},{"PRN":19,"el":36,"az":273,"ss":26,"used":true},{"PRN":6,"el":28,"az":224,"ss":0,"used":false},{"PRN":3,"el":27,"az":237,"ss":18,"used":true},{"PRN":18,"el":25,"az":76,"ss":28,"used":true},{"PRN":31,"el":19,"az":169,"ss":27,"used":true},{"PRN":21,"el":16,"az":136,"ss":27,"used":true},{"PRN":9,"el":10,"az":39,"ss":28,"used":true}]}
$GPRMC,145306.000,A,3401.9765,N,11744.8274,W,0.01,119.27,030610,,,D*70
{"class":"TPV","tag":"RMC","mode":3,"time":"2010-06-03T14:53:06.000Z","ept":0.005,"lat":34.032941667,"lon":-117.747123333,"alt":234.800,"epx":2.117,"epy":3.287,"epv":7.590,"track":119.2700,"speed":0.005,"climb":0.000,"eps":6.57}
$GPGGA,145307.000,3401.9765,N,11744.8274,W,2,9,0.91,234.8,M,-33.2,M,0000,0000*6F
$GPGSA,A,3,14,09,22,18,19,24,21,03,31,,,,1.60,0.91,1.32*04
$GPGSV,3,1,11,14,86,335,16,22,54,050,32,24,53,134,37,51,48,161,38*70
$GPGSV,3,2,11,19,36,273,26,06,28,224,,03,27,237,18,18,25,076,28*73
$GPGSV,3,3,11,31,19,169,27,21,16,136,27,09,10,039,28*45
{"class":"SKY","tag":"GSV","xdop":0.56,"ydop":0.88,"vdop":1.32,"tdop":1.17,"hdop":0.91,"gdop":2.26,"pdop":1.60,"satellites":[{"PRN":14,"el":86,"az":335,"ss":16,"used":true},{"PRN":22,"el":54,"az":50,"ss":32,"used":true},{"PRN":24,"el":53,"az":134,"ss":37,"used":true},{"PRN":138,"el":48,"az":161,"ss":38,"used":false},{"PRN":19,"el":36,"az":273,"ss":26,"used":true},{"PRN":6,"el":28,"az":224,"ss":0,"used":false},{"PRN":3,"el":27,"az":237,"ss":18,"used":true},{"PRN":18,"el":25,"az":76,"ss":28,"used":true},{"PRN":31,"el":19,"az":169,"ss":27,"used":true},{"PRN":21,"el":16,"az":136,"ss":27,"used":true},{"PRN":9,"el":10,"az":39,"ss":28,"used":true}]}
$GPRMC,145307.000,A,3401.9765,N,11744.8274,W,0.01,119.27,030610,,,D*71
{"class":"TPV","tag":"RMC","mode":3,"time":"2010-06-03T14:53:07.000Z","ept":0.005,"lat":34.032941667,"lon":-117.747123333,"alt":234.800,"epx":2.117,"epy":3.287,"epv":7.590,"track":119.2700,"speed":0.005,"climb":0.000,"eps":6.57}
$GPGGA,145308.000,3401.9765,N,11744.8275,W,2,9,0.91,234.8,M,-33.2,M,0000,0000*61
$GPGSA,A,3,14,09,22,18,19,24,21,03,31,,,,1.61,0.91,1.32*05
$GPGSV,3,1,11,14,86,338,16,22,54,050,32,24,53,134,37,51,48,161,38*7D
$GPGSV,3,2,11,19,36,273,26,06,28,224,,03,27,237,18,18,25,076,28*73
$GPGSV,3,3,11,31,19,169,26,21,16,136,28,09,10,039,27*44
{"class":"SKY","tag":"GSV","xdop":0.56,"ydop":0.88,"vdop":1.32,"tdop":1.17,"hdop":0.91,"gdop":2.26,"pdop":1.61,"satellites":[{"PRN":14,"el":86,"az":338,"ss":16,"used":true},{"PRN":22,"el":54,"az":50,"ss":32,"used":true},{"PRN":24,"el":53,"az":134,"ss":37,"used":true},{"PRN":138,"el":48,"az":161,"ss":38,"used":false},{"PRN":19,"el":36,"az":273,"ss":26,"used":true},{"PRN":6,"el":28,"az":224,"ss":0,"used":false},{"PRN":3,"el":27,"az":237,"ss":18,"used":true},{"PRN":18,"el":25,"az":76,"ss":28,"used":true},{"PRN":31,"el":19,"az":169,"ss":26,"used":true},{"PRN":21,"el":16,"az":136,"ss":28,"used":true},{"PRN":9,"el":10,"az":39,"ss":27,"used":true}]}
$GPRMC,145308.000,A,3401.9765,N,11744.8275,W,0.00,119.27,030610,,,D*7E
{"class":"TPV","tag":"RMC","mode":3,"time":"2010-06-03T14:53:08.000Z","ept":0.005,"lat":34.032941667,"lon":-117.747125000,"alt":234.800,"epx":2.117,"epy":3.287,"epv":7.590,"track":119.2700,"speed":0.000,"climb":0.000,"eps":6.57}
$GPGGA,145309.000,3401.9765,N,11744.8275,W,2,9,0.91,234.8,M,-33.2,M,0000,0000*60
$GPGSA,A,3,14,09,22,18,19,24,21,03,31,,,,1.61,0.91,1.32*05
$GPGSV,3,1,11,14,86,338,17,22,54,050,32,24,53,134,37,51,48,161,38*7C
$GPGSV,3,2,11,19,36,273,26,06,28,224,,03,27,237,18,18,25,076,28*73
$GPGSV,3,3,11,31,19,169,26,21,16,136,28,09,10,039,27*44
{"class":"SKY","tag":"GSV","xdop":0.56,"ydop":0.88,"vdop":1.32,"tdop":1.17,"hdop":0.91,"gdop":2.26,"pdop":1.61,"satellites":[{"PRN":14,"el":86,"az":338,"ss":17,"used":true},{"PRN":22,"el":54,"az":50,"ss":32,"used":true},{"PRN":24,"el":53,"az":134,"ss":37,"used":true},{"PRN":138,"el":48,"az":161,"ss":38,"used":false},{"PRN":19,"el":36,"az":273,"ss":26,"used":true},{"PRN":6,"el":28,"az":224,"ss":0,"used":false},{"PRN":3,"el":27,"az":237,"ss":18,"used":true},{"PRN":18,"el":25,"az":76,"ss":28,"used":true},{"PRN":31,"el":19,"az":169,"ss":26,"used":true},{"PRN":21,"el":16,"az":136,"ss":28,"used":true},{"PRN":9,"el":10,"az":39,"ss":27,"used":true}]}
$GPRMC,145309.000,A,3401.9765,N,11744.8275,W,0.01,119.27,030610,,,D*7E
{"class":"TPV","tag":"RMC","mode":3,"time":"2010-06-03T14:53:09.000Z","ept":0.005,"lat":34.032941667,"lon":-117.747125000,"alt":234.800,"epx":2.117,"epy":3.287,"epv":7.590,"track":119.2700,"speed":0.005,"climb":0.000,"eps":6.57}
$GPGGA,145310.000,3401.9765,N,11744.8275,W,2,9,0.91,234.8,M,-33.2,M,0000,0000*68
$GPGSA,A,3,14,09,22,18,19,24,21,03,31,,,,1.61,0.91,1.32*05
$GPGSV,3,1,11,14,86,338,17,22,54,050,32,24,53,134,37,51,48,161,38*7C
$GPGSV,3,2,11,19,36,273,26,06,28,224,,03,27,237,18,18,25,076,28*73
$GPGSV,3,3,11,31,19,169,26,21,16,136,28,09,10,039,27*44
{"class":"SKY","tag":"GSV","xdop":0.56,"ydop":0.88,"vdop":1.32,"tdop":1.17,"hdop":0.91,"gdop":2.26,"pdop":1.61,"satellites":[{"PRN":14,"el":86,"az":338,"ss":17,"used":true},{"PRN":22,"el":54,"az":50,"ss":32,"used":true},{"PRN":24,"el":53,"az":134,"ss":37,"used":true},{"PRN":138,"el":48,"az":161,"ss":38,"used":false},{"PRN":19,"el":36,"az":273,"ss":26,"used":true},{"PRN":6,"el":28,"az":224,"ss":0,"used":false},{"PRN":3,"el":27,"az":237,"ss":18,"used":true},{"PRN":18,"el":25,"az":76,"ss":28,"used":true},{"PRN":31,"el":19,"az":169,"ss":26,"used":true},{"PRN":21,"el":16,"az":136,"ss":28,"used":true},{"PRN":9,"el":10,"az":39,"ss":27,"used":true}]}
$GPRMC,145310.000,A,3401.9765,N,11744.8275,W,0.01,119.27,030610,,,D*76
{"class":"TPV","tag":"RMC","mode":3,"time":"2010-06-03T14:53:10.000Z","ept":0.005,"lat":34.032941667,"lon":-117.747125000,"alt":234.800,"epx":2.117,"epy":3.287,"epv":7.590,"track":119.2700,"speed":0.005,"climb":0.000,"eps":6.57}
