# Name: BT-451
# Chipset: ANTARIS ATR062x
# Submitter: Mindaugas <mindedie@zebra.lt> 
# Date: 2009-12-09
# Location: Lithuania, 55.8N 23.6E
#
# This file is Copyright (c) 2010 by the GPSD project
# BSD terms apply: see the file COPYING in the distribution root for details.
#
# No fix, indoors
$GPTXT,01,01,02,u-blox ag - www.u-blox.com*50
$GPTXT,01,01,02,ANTARIS ATR062x HW 80040001*26
$GPTXT,01,01,02,ROM CORE       5.00    Jan 09 2006 12:00:00*76
$GPTXT,01,01,02,LIC 1EBF-BD07-E83D-6BE1-0F7A*50
$GPTXT,01,01,02,ANTSUPERV=AC SD OD PDoS *0A
$GPTXT,01,01,02,ANTSTATUS=OK*3B
$GPRMC,,V,,,,,,,,,,N*53
$GPVTG,,,,,,,,,N*30
$GPGGA,,,,,,0,00,99.99,,,,,,*48
$GPGSA,A,1,,,,,,,,,,,,,99.99,99.99,99.99*30
$GPGSV,1,1,00*79
$GPGLL,,,,,,V,N*64
$GPZDA,,,,,00,00*48
$GPRMC,,V,,,,,,,,,,N*53
$GPVTG,,,,,,,,,N*30
$GPGGA,,,,,,0,00,99.99,,,,,,*48
$GPGSA,A,1,,,,,,,,,,,,,99.99,99.99,99.99*30
$GPGSV,1,1,00*79
$GPGLL,,,,,,V,N*64
$GPZDA,,,,,00,00*48
$GPRMC,,V,,,,,,,,,,N*53
$GPVTG,,,,,,,,,N*30
$GPGGA,,,,,,0,00,99.99,,,,,,*48
$GPGSA,A,1,,,,,,,,,,,,,99.99,99.99,99.99*30
$GPGSV,1,1,00*79
$GPGLL,,,,,,V,N*64
$GPZDA,,,,,00,00*48
$GPRMC,,V,,,,,,,,,,N*53
$GPVTG,,,,,,,,,N*30
$GPGGA,,,,,,0,00,99.99,,,,,,*48
$GPGSA,A,1,,,,,,,,,,,,,99.99,99.99,99.99*30
$GPGSV,1,1,00*79
$GPGLL,,,,,,V,N*64
$GPZDA,,,,,00,00*48
$GPRMC,,V,,,,,,,,,,N*53
$GPVTG,,,,,,,,,N*30
$GPGGA,,,,,,0,00,99.99,,,,,,*48
$GPGSA,A,1,,,,,,,,,,,,,99.99,99.99,99.99*30
$GPGSV,1,1,00*79
$GPGLL,,,,,,V,N*64
$GPZDA,,,,,00,00*48
$GPRMC,,V,,,,,,,,,,N*53
$GPVTG,,,,,,,,,N*30
$GPGGA,,,,,,0,00,99.99,,,,,,*48
$GPGSA,A,1,,,,,,,,,,,,,99.99,99.99,99.99*30
$GPGSV,1,1,00*79
$GPGLL,,,,,,V,N*64
$GPZDA,,,,,00,00*48
$GPRMC,,V,,,,,,,,,,N*53
$GPVTG,,,,,,,,,N*30
$GPGGA,,,,,,0,00,99.99,,,,,,*48
$GPGSA,A,1,,,,,,,,,,,,,99.99,99.99,99.99*30
$GPGSV,1,1,00*79
$GPGLL,,,,,,V,N*64
$GPZDA,,,,,00,00*48
$GPRMC,,V,,,,,,,,,,N*53
$GPVTG,,,,,,,,,N*30
$GPGGA,,,,,,0,00,99.99,,,,,,*48
$GPGSA,A,1,,,,,,,,,,,,,99.99,99.99,99.99*30
$GPGSV,1,1,00*79
$GPGLL,,,,,,V,N*64
$GPZDA,,,,,00,00*48
$GPRMC,,V,,,,,,,,,,N*53
$GPVTG,,,,,,,,,N*30
$GPGGA,,,,,,0,00,99.99,,,,,,*48
$GPGSA,A,1,,,,,,,,,,,,,99.99,99.99,99.99*30
$GPGSV,1,1,00*79
$GPGLL,,,,,,V,N*64
$GPZDA,,,,,00,00*48
$GPRMC,,V,,,,,,,,,,N*53
$GPVTG,,,,,,,,,N*30
$GPGGA,,,,,,0,00,99.99,,,,,,*48
$GPGSA,A,1,,,,,,,,,,,,,99.99,99.99,99.99*30
$GPGSV,1,1,00*79
$GPGLL,,,,,,V,N*64
$GPZDA,,,,,00,00*48
# Stationary 
$GPGLL,5547.82107,N,02334.14132,E,152504.50,A,A*67
$GPZDA,152504.50,09,12,2009,00,00*65
$GPRMC,152505.00,A,5547.82113,N,02334.14130,E,0.253,,091209,,,A*7A
$GPVTG,,T,,M,0.253,N,0.469,K,A*2C
$GPGGA,152505.00,5547.82113,N,02334.14130,E,1,04,2.72,37.0,M,26.9,M,,*6B
$GPGSA,A,3,26,32,11,14,,,,,,,,,6.25,2.72,5.62*05
$GPGSV,2,1,07,26,34,052,33,19,,,36,32,45,237,42,06,,,34*75
$GPGSV,2,2,07,22,,,40,11,57,277,40,14,51,083,38*7F
$GPGLL,5547.82113,N,02334.14130,E,152505.00,A,A*64
$GPZDA,152505.00,09,12,2009,00,00*61
$GPRMC,152505.50,A,5547.82119,N,02334.14124,E,0.265,,091209,,,A*75
$GPVTG,,T,,M,0.265,N,0.491,K,A*2E
$GPGGA,152505.50,5547.82119,N,02334.14124,E,1,04,2.72,36.7,M,26.9,M,,*67
$GPGSA,A,3,26,32,11,14,,,,,,,,,6.24,2.72,5.62*04
$GPGSV,2,1,07,26,34,052,34,19,,,36,32,45,237,42,06,,,34*72
$GPGSV,2,2,07,22,,,40,11,57,277,41,14,51,083,38*7E
$GPGLL,5547.82119,N,02334.14124,E,152505.50,A,A*6E
$GPZDA,152505.50,09,12,2009,00,00*64
$GPRMC,152506.00,A,5547.82126,N,02334.14117,E,0.340,,091209,,,A*79
$GPVTG,,T,,M,0.340,N,0.631,K,A*20
$GPGGA,152506.00,5547.82126,N,02334.14117,E,1,04,2.72,36.5,M,26.9,M,,*6F
$GPGSA,A,3,26,32,11,14,,,,,,,,,6.25,2.72,5.62*05
$GPGSV,2,1,07,26,34,052,34,19,,,37,32,45,237,42,06,,,34*73
$GPGSV,2,2,07,22,,,40,11,57,277,41,14,51,083,39*7F
$GPGLL,5547.82126,N,02334.14117,E,152506.00,A,A*64
$GPZDA,152506.00,09,12,2009,00,00*62
$GPRMC,152506.50,A,5547.82132,N,02334.14113,E,0.336,,091209,,,A*7C
$GPVTG,,T,,M,0.336,N,0.623,K,A*22
$GPGGA,152506.50,5547.82132,N,02334.14113,E,1,04,2.72,36.2,M,26.9,M,,*6C
$GPGSA,A,3,26,32,11,14,,,,,,,,,6.24,2.72,5.62*04
$GPGSV,2,1,07,26,34,052,35,19,,,37,32,45,237,43,06,,,35*72
$GPGSV,2,2,07,22,,,41,11,57,277,41,14,51,083,39*7E
$GPGLL,5547.82132,N,02334.14113,E,152506.50,A,A*60
$GPZDA,152506.50,09,12,2009,00,00*67
$GPRMC,152507.00,A,5547.82139,N,02334.14105,E,0.371,16.99,091209,,,A*5E
$GPVTG,16.99,T,,M,0.371,N,0.687,K,A*06
$GPGGA,152507.00,5547.82139,N,02334.14105,E,1,04,2.72,36.0,M,26.9,M,,*66
$GPGSA,A,3,26,32,11,14,,,,,,,,,6.24,2.72,5.62*04
$GPGSV,2,1,07,26,34,052,35,19,,,37,32,45,237,42,06,,,35*73
$GPGSV,2,2,07,22,,,40,11,57,277,41,14,51,083,39*7F
$GPGLL,5547.82139,N,02334.14105,E,152507.00,A,A*68
$GPZDA,152507.00,09,12,2009,00,00*63
$GPRMC,152507.50,A,5547.82145,N,02334.14098,E,0.309,,091209,,,A*73
$GPVTG,,T,,M,0.309,N,0.572,K,A*29
$GPGGA,152507.50,5547.82145,N,02334.14098,E,1,04,2.72,35.7,M,26.9,M,,*69
$GPGSA,A,3,26,32,11,14,,,,,,,,,6.24,2.72,5.62*04
$GPGSV,2,1,07,26,34,052,35,19,,,37,32,45,237,42,06,,,34*72
$GPGSV,2,2,07,22,,,40,11,57,277,41,14,51,083,39*7F
$GPGLL,5547.82145,N,02334.14098,E,152507.50,A,A*63
$GPZDA,152507.50,09,12,2009,00,00*66
$GPRMC,152508.00,A,5547.82150,N,02334.14092,E,0.309,,091209,,,A*77
$GPVTG,,T,,M,0.309,N,0.573,K,A*28
$GPGGA,152508.00,5547.82150,N,02334.14092,E,1,04,2.72,35.5,M,26.9,M,,*6F
$GPGSA,A,3,26,32,11,14,,,,,,,,,6.24,2.72,5.62*04
$GPGSV,2,1,07,26,34,052,33,19,,,36,32,45,237,41,06,,,33*71
$GPGSV,2,2,07,22,,,39,11,57,277,40,14,51,083,38*71
$GPGLL,5547.82150,N,02334.14092,E,152508.00,A,A*67
$GPZDA,152508.00,09,12,2009,00,00*6C
$GPRMC,152508.50,A,5547.82156,N,02334.14086,E,0.296,,091209,,,A*76
$GPVTG,,T,,M,0.296,N,0.549,K,A*26
$GPGGA,152508.50,5547.82156,N,02334.14086,E,1,04,2.73,35.3,M,26.9,M,,*6E
$GPGSA,A,3,26,32,11,14,,,,,,,,,6.24,2.73,5.62*05
$GPGSV,3,1,11,26,34,052,32,19,,,34,20,,,29,32,45,237,39*74
$GPGSV,3,2,11,02,,,26,06,,,31,18,,,30,24,,,27*73
$GPGSV,3,3,11,22,,,37,11,57,277,38,14,51,083,36*79
# Moving in car
$GPGGA,143306.00,5546.83315,N,02334.72613,E,1,08,1.28,129.9,M,26.9,M,,*5B
$GPGSA,A,3,09,19,11,14,03,22,06,26,,,,,3.65,1.28,3.41*0A
$GPGSV,3,1,10,32,22,227,34,09,12,038,29,19,58,204,39,11,36,285,35*74
$GPGSV,3,2,10,14,45,118,34,03,31,183,30,28,,,32,22,47,070,42*43
$GPGSV,3,3,10,06,26,174,32,26,44,080,38*7E
$GPGLL,5546.83315,N,02334.72613,E,143306.00,A,A*63
$GPZDA,143306.00,09,12,2009,00,00*64
$GPRMC,143306.50,A,5546.82983,N,02334.72123,E,30.324,221.16,091209,,,A*52
$GPVTG,221.16,T,,M,30.324,N,56.191,K,A*37
$GPGGA,143306.50,5546.82983,N,02334.72123,E,1,09,1.26,128.9,M,26.9,M,,*50
$GPGSA,A,3,32,09,19,11,14,03,22,06,26,,,,3.25,1.26,2.99*05
$GPGSV,3,1,10,32,22,227,35,09,12,038,29,19,58,204,39,11,36,285,36*76
$GPGSV,3,2,10,14,45,118,34,03,31,183,30,28,,,34,22,47,070,42*45
$GPGSV,3,3,10,06,26,174,33,26,44,080,38*7F
$GPGLL,5546.82983,N,02334.72123,E,143306.50,A,A*66
$GPZDA,143306.50,09,12,2009,00,00*61
$GPRMC,143307.00,A,5546.82649,N,02334.71625,E,30.860,221.48,091209,,,A*5D
$GPVTG,221.48,T,,M,30.860,N,57.183,K,A*35
$GPGGA,143307.00,5546.82649,N,02334.71625,E,1,09,1.26,128.1,M,26.9,M,,*57
$GPGSA,A,3,32,09,19,11,14,03,22,06,26,,,,3.25,1.26,3.00*04
$GPGSV,3,1,10,32,22,227,35,09,12,038,29,19,58,204,40,11,36,285,36*78
$GPGSV,3,2,10,14,45,118,34,03,31,183,30,28,,,35,22,47,070,43*45
$GPGSV,3,3,10,06,26,174,33,26,44,080,39*7E
$GPGLL,5546.82649,N,02334.71625,E,143307.00,A,A*69
$GPZDA,143307.00,09,12,2009,00,00*65
$GPRMC,143307.50,A,5546.82314,N,02334.71118,E,31.351,221.51,091209,,,A*5C
$GPVTG,221.51,T,,M,31.351,N,58.092,K,A*3B
$GPGGA,143307.50,5546.82314,N,02334.71118,E,1,09,1.26,127.5,M,26.9,M,,*5D
$GPGSA,A,3,32,09,19,11,14,03,22,06,26,,,,3.25,1.26,3.00*04
$GPGSV,3,1,10,32,22,227,35,09,12,038,29,19,58,204,40,11,36,285,36*78
$GPGSV,3,2,10,14,45,118,34,03,31,183,30,28,,,33,22,47,070,43*43
$GPGSV,3,3,10,06,26,174,34,26,44,080,38*78
$GPGLL,5546.82314,N,02334.71118,E,143307.50,A,A*68
$GPZDA,143307.50,09,12,2009,00,00*60
$GPRMC,143308.00,A,5546.81975,N,02334.70604,E,32.000,221.54,091209,,,A*52
$GPVTG,221.54,T,,M,32.000,N,59.295,K,A*3E
$GPGGA,143308.00,5546.81975,N,02334.70604,E,1,09,1.26,127.1,M,26.9,M,,*56
$GPGSA,A,3,32,09,19,11,14,03,22,06,26,,,,3.25,1.26,3.00*04
$GPGSV,3,1,10,32,22,227,36,09,12,038,29,19,58,204,41,11,36,285,37*7B
$GPGSV,3,2,10,14,45,118,35,03,31,183,29,28,,,33,22,47,070,43*4A
$GPGSV,3,3,10,06,26,174,35,26,44,080,38*79
$GPGLL,5546.81975,N,02334.70604,E,143308.00,A,A*67
$GPZDA,143308.00,09,12,2009,00,00*6A
$GPRMC,143308.50,A,5546.81633,N,02334.70079,E,32.273,221.54,091209,,,A*50
$GPVTG,221.54,T,,M,32.273,N,59.802,K,A*3C
$GPGGA,143308.50,5546.81633,N,02334.70079,E,1,09,1.26,126.8,M,26.9,M,,*5A
$GPGSA,A,3,32,09,19,11,14,03,22,06,26,,,,3.25,1.26,3.00*04
$GPGSV,3,1,10,32,22,227,34,09,12,038,29,19,58,204,40,11,36,285,35*7A
$GPGSV,3,2,10,14,45,118,35,03,31,183,27,28,,,32,22,47,070,42*44
$GPGSV,3,3,10,06,26,174,34,26,44,080,37*77
$GPGLL,5546.81633,N,02334.70079,E,143308.50,A,A*63
$GPZDA,143308.50,09,12,2009,00,00*6F
$GPRMC,143309.00,A,5546.81291,N,02334.69552,E,32.094,221.48,091209,,,A*5A
$GPVTG,221.48,T,,M,32.094,N,59.470,K,A*33
$GPGGA,143309.00,5546.81291,N,02334.69552,E,1,09,1.26,126.4,M,26.9,M,,*5A
$GPGSA,A,3,32,09,19,11,14,03,22,06,26,,,,3.25,1.26,2.99*05
$GPGSV,3,1,10,32,22,227,34,09,12,038,29,19,58,204,39,11,36,285,35*74
$GPGSV,3,2,10,14,45,118,34,03,31,183,27,28,,,32,22,47,070,42*45
$GPGSV,3,3,10,06,26,174,34,26,44,080,38*78
$GPGLL,5546.81291,N,02334.69552,E,143309.00,A,A*6F
$GPZDA,143309.00,09,12,2009,00,00*6B
$GPRMC,143309.50,A,5546.80952,N,02334.69029,E,32.096,221.46,091209,,,A*5F
$GPVTG,221.46,T,,M,32.096,N,59.474,K,A*3B
$GPGGA,143309.50,5546.80952,N,02334.69029,E,1,09,1.26,126.2,M,26.9,M,,*55
$GPGSA,A,3,32,09,19,11,14,03,22,06,26,,,,3.25,1.26,3.00*04
$GPGSV,3,1,10,32,22,227,34,09,12,038,28,19,58,204,40,11,36,285,35*7B
$GPGSV,3,2,10,14,45,118,33,03,31,183,29,28,,,32,22,47,070,42*4C
$GPGSV,3,3,10,06,26,174,33,26,44,080,38*7F
$GPGLL,5546.80952,N,02334.69029,E,143309.50,A,A*66
$GPZDA,143309.50,09,12,2009,00,00*6E
$GPRMC,143310.00,A,5546.80598,N,02334.68514,E,32.192,221.20,091209,,,A*57
$GPVTG,221.20,T,,M,32.192,N,59.652,K,A*38
$GPGGA,143310.00,5546.80598,N,02334.68514,E,1,09,1.26,125.3,M,27.0,M,,*52
$GPGSA,A,3,32,09,19,11,14,03,22,06,26,,,,3.25,1.26,3.00*04
$GPGSV,3,1,10,32,22,227,33,09,12,038,28,19,58,204,40,11,36,285,35*7C
$GPGSV,3,2,10,14,45,118,34,03,31,183,26,28,,,32,22,47,070,42*44
$GPGSV,3,3,10,06,26,174,34,26,44,080,38*78
$GPGLL,5546.80598,N,02334.68514,E,143310.00,A,A*6B
$GPZDA,143310.00,09,12,2009,00,00*63
$GPRMC,143310.50,A,5546.80248,N,02334.67996,E,32.361,221.42,091209,,,A*5B
$GPVTG,221.42,T,,M,32.361,N,59.964,K,A*38
$GPGGA,143310.50,5546.80248,N,02334.67996,E,1,09,1.26,124.7,M,27.0,M,,*51
$GPGSA,A,3,32,09,19,11,14,03,22,06,26,,,,3.25,1.26,3.00*04
$GPGSV,3,1,10,32,22,227,33,09,12,038,28,19,58,204,40,11,36,285,36*7F
$GPGSV,3,2,10,14,45,118,34,03,31,183,26,28,,,32,22,47,070,42*44
$GPGSV,3,3,10,06,26,174,34,26,44,080,38*78
$GPGLL,5546.80248,N,02334.67996,E,143310.50,A,A*6D
$GPZDA,143310.50,09,12,2009,00,00*66
$GPRMC,143311.00,A,5546.79900,N,02334.67471,E,32.559,221.33,091209,,,A*51
$GPVTG,221.33,T,,M,32.559,N,60.331,K,A*33
$GPGGA,143311.00,5546.79900,N,02334.67471,E,1,09,1.26,124.2,M,27.0,M,,*55
$GPGSA,A,3,32,09,19,11,14,03,22,06,26,,,,3.25,1.26,3.00*04
$GPGSV,3,1,10,32,22,227,33,09,12,038,28,19,58,204,40,11,36,285,36*7F
$GPGSV,3,2,10,14,45,118,34,03,31,183,22,28,,,32,22,47,070,42*40
$GPGSV,3,3,10,06,26,174,34,26,44,080,38*78
$GPGLL,5546.79900,N,02334.67471,E,143311.00,A,A*6C
$GPZDA,143311.00,09,12,2009,00,00*62
$GPRMC,143311.50,A,5546.79553,N,02334.66940,E,32.825,221.71,091209,,,A*50
$GPVTG,221.71,T,,M,32.825,N,60.825,K,A*3D
$GPGGA,143311.50,5546.79553,N,02334.66940,E,1,09,1.26,123.8,M,27.0,M,,*59
$GPGSA,A,3,32,09,19,11,14,03,22,06,26,,,,3.25,1.26,3.00*04
$GPGSV,3,1,10,32,22,227,33,09,12,038,28,19,58,204,40,11,36,285,36*7F
$GPGSV,3,2,10,14,45,118,34,03,31,183,23,28,,,32,22,47,070,42*41
$GPGSV,3,3,10,06,26,174,33,26,44,080,39*7E
$GPGLL,5546.79553,N,02334.66940,E,143311.50,A,A*6D
$GPZDA,143311.50,09,12,2009,00,00*67
$GPRMC,143312.00,A,5546.79205,N,02334.66400,E,33.180,221.70,091209,,,A*5D
$GPVTG,221.70,T,,M,33.180,N,61.482,K,A*3B
$GPGGA,143312.00,5546.79205,N,02334.66400,E,1,09,1.26,123.5,M,27.0,M,,*5F
$GPGSA,A,3,32,09,19,11,14,03,22,06,26,,,,3.25,1.26,3.00*04
$GPGSV,3,1,10,32,22,227,33,09,12,038,28,19,58,204,40,11,36,285,36*7F
$GPGSV,3,2,10,14,45,118,35,03,31,183,25,28,,,32,22,47,070,42*46
$GPGSV,3,3,10,06,26,174,33,26,44,080,39*7E
$GPGLL,5546.79205,N,02334.66400,E,143312.00,A,A*66
$GPZDA,143312.00,09,12,2009,00,00*61
$GPRMC,143312.50,A,5546.78854,N,02334.65855,E,33.465,221.75,091209,,,A*53
$GPVTG,221.75,T,,M,33.465,N,62.011,K,A*3D
$GPGGA,143312.50,5546.78854,N,02334.65855,E,1,09,1.26,123.3,M,27.0,M,,*5C
$GPGSA,A,3,32,09,19,11,14,03,22,06,26,,,,3.25,1.26,3.00*04
$GPGSV,3,1,10,32,22,228,34,09,12,038,28,19,58,204,40,11,36,285,36*77
$GPGSV,3,2,10,14,45,118,35,03,31,183,25,28,,,32,22,47,070,42*46
$GPGSV,3,3,10,06,26,174,34,26,44,080,39*79
$GPGLL,5546.78854,N,02334.65855,E,143312.50,A,A*63
$GPZDA,143312.50,09,12,2009,00,00*64
$GPRMC,143313.00,A,5546.78498,N,02334.65304,E,33.998,221.45,091209,,,A*58
$GPVTG,221.45,T,,M,33.998,N,62.999,K,A*38
$GPGGA,143313.00,5546.78498,N,02334.65304,E,1,09,1.26,123.2,M,27.0,M,,*5A
$GPGSA,A,3,32,09,19,11,14,03,22,06,26,,,,3.25,1.26,3.00*04
$GPGSV,3,1,10,32,22,228,34,09,12,038,28,19,58,204,40,11,36,285,36*77
$GPGSV,3,2,10,14,45,118,35,03,31,183,21,28,,,32,22,47,070,42*42
$GPGSV,3,3,10,06,26,174,35,26,44,080,39*78
$GPGLL,5546.78498,N,02334.65304,E,143313.00,A,A*64
$GPZDA,143313.00,09,12,2009,00,00*60
$GPRMC,143313.50,A,5546.78137,N,02334.64747,E,34.471,221.60,091209,,,A*55
$GPVTG,221.60,T,,M,34.471,N,63.875,K,A*30
$GPGGA,143313.50,5546.78137,N,02334.64747,E,1,09,1.26,123.0,M,27.0,M,,*5F
$GPGSA,A,3,32,09,19,11,14,03,22,06,26,,,,3.25,1.26,3.00*04
$GPGSV,3,1,10,32,22,228,34,09,12,038,28,19,58,204,41,11,36,285,37*77
$GPGSV,3,2,10,14,45,118,35,03,31,183,22,28,,,33,22,47,070,42*40
$GPGSV,3,3,10,06,26,174,34,26,44,080,39*79
$GPGLL,5546.78137,N,02334.64747,E,143313.50,A,A*63
$GPZDA,143313.50,09,12,2009,00,00*65
$GPRMC,143314.00,A,5546.77773,N,02334.64182,E,34.916,221.39,091209,,,A*51
$GPVTG,221.39,T,,M,34.916,N,64.699,K,A*3B
$GPGGA,143314.00,5546.77773,N,02334.64182,E,1,09,1.26,122.8,M,27.0,M,,*52
$GPGSA,A,3,32,09,19,11,14,03,22,06,26,,,,3.25,1.26,3.00*04
$GPGSV,3,1,10,32,22,228,34,09,12,038,28,19,58,204,41,11,36,285,37*77
$GPGSV,3,2,10,14,45,118,35,03,31,183,25,28,,,33,22,47,070,43*46
$GPGSV,3,3,10,06,26,174,35,26,44,080,39*78
$GPGLL,5546.77773,N,02334.64182,E,143314.00,A,A*67
$GPZDA,143314.00,09,12,2009,00,00*67
$GPRMC,143314.50,A,5546.77404,N,02334.63610,E,35.259,221.42,091209,,,A*51
$GPVTG,221.42,T,,M,35.259,N,65.335,K,A*34
$GPGGA,143314.50,5546.77404,N,02334.63610,E,1,09,1.26,122.7,M,27.0,M,,*50
$GPGSA,A,3,32,09,19,11,14,03,22,06,26,,,,3.25,1.26,3.00*04
$GPGSV,3,1,10,32,22,228,34,09,12,038,28,19,58,204,40,11,36,285,37*76
$GPGSV,3,2,10,14,45,118,35,03,31,183,25,28,,,33,22,47,070,42*47
$GPGSV,3,3,10,06,26,174,35,26,44,080,39*78
$GPGLL,5546.77404,N,02334.63610,E,143314.50,A,A*6A
$GPZDA,143314.50,09,12,2009,00,00*62
$GPRMC,143315.00,A,5546.77031,N,02334.63033,E,35.613,221.33,091209,,,A*5C
$GPVTG,221.33,T,,M,35.613,N,65.991,K,A*3C
$GPGGA,143315.00,5546.77031,N,02334.63033,E,1,09,1.26,122.5,M,27.0,M,,*53
$GPGSA,A,3,32,09,19,11,14,03,22,06,26,,,,3.25,1.26,3.00*04
$GPGSV,3,1,10,32,22,228,34,09,12,038,28,19,58,204,41,11,36,285,37*77
$GPGSV,3,2,10,14,45,118,35,03,31,183,24,28,,,33,22,47,070,42*46
$GPGSV,3,3,10,06,26,174,35,26,44,080,39*78
$GPGLL,5546.77031,N,02334.63033,E,143315.00,A,A*6B
$GPZDA,143315.00,09,12,2009,00,00*66
$GPRMC,143315.50,A,5546.76656,N,02334.62450,E,35.901,221.55,091209,,,A*53
$GPVTG,221.55,T,,M,35.901,N,66.525,K,A*30
$GPGGA,143315.50,5546.76656,N,02334.62450,E,1,09,1.26,122.4,M,27.0,M,,*51
$GPGSA,A,3,32,09,19,11,14,03,22,06,26,,,,3.25,1.26,3.00*04
$GPGSV,3,1,10,32,22,228,34,09,12,038,28,19,58,204,40,11,36,285,36*77
$GPGSV,3,2,10,14,45,118,35,03,31,183,20,28,,,32,22,47,070,42*43
$GPGSV,3,3,10,06,26,174,35,26,44,080,39*78
$GPGLL,5546.76656,N,02334.62450,E,143315.50,A,A*68
$GPZDA,143315.50,09,12,2009,00,00*63
$GPRMC,143316.00,A,5546.76280,N,02334.61860,E,36.213,221.79,091209,,,A*53
$GPVTG,221.79,T,,M,36.213,N,67.103,K,A*34
$GPGGA,143316.00,5546.76280,N,02334.61860,E,1,09,1.26,122.2,M,27.0,M,,*52
$GPGSA,A,3,32,09,19,11,14,03,22,06,26,,,,3.25,1.26,3.00*04
$GPGSV,3,1,10,32,22,228,34,09,12,038,28,19,58,204,40,11,36,285,36*77
$GPGSV,3,2,10,14,45,118,35,03,31,183,21,28,,,33,22,47,070,42*43
$GPGSV,3,3,10,06,26,174,35,26,44,080,39*78
$GPGLL,5546.76280,N,02334.61860,E,143316.00,A,A*6D
$GPZDA,143316.00,09,12,2009,00,00*65
$GPRMC,143316.50,A,5546.75900,N,02334.61263,E,36.582,221.76,091209,,,A*5F
$GPVTG,221.76,T,,M,36.582,N,67.786,K,A*3F
$GPGGA,143316.50,5546.75900,N,02334.61263,E,1,09,1.26,122.1,M,27.0,M,,*5D
$GPGSA,A,3,32,09,19,11,14,03,22,06,26,,,,3.25,1.26,3.00*04
$GPGSV,3,1,10,32,22,228,33,09,12,038,28,19,58,204,40,11,36,285,37*71
$GPGSV,3,2,10,14,45,118,35,03,31,183,25,28,,,33,22,47,070,42*47
$GPGSV,3,3,10,06,26,174,34,26,44,080,39*79
$GPGLL,5546.75900,N,02334.61263,E,143316.50,A,A*61
$GPZDA,143316.50,09,12,2009,00,00*60
$GPRMC,143317.00,A,5546.75517,N,02334.60661,E,36.882,221.73,091209,,,A*5E
$GPVTG,221.73,T,,M,36.882,N,68.343,K,A*35
$GPGGA,143317.00,5546.75517,N,02334.60661,E,1,09,1.26,122.0,M,27.0,M,,*55
$GPGSA,A,3,32,09,19,11,14,03,22,06,26,,,,3.25,1.26,3.00*04
$GPGSV,3,1,10,32,22,228,33,09,12,038,28,19,58,204,40,11,36,285,37*71
$GPGSV,3,2,10,14,45,118,35,03,31,183,25,28,,,33,22,47,070,42*47
$GPGSV,3,3,10,06,26,174,34,26,44,080,39*79
$GPGLL,5546.75517,N,02334.60661,E,143317.00,A,A*68
$GPZDA,143317.00,09,12,2009,00,00*64
$GPRMC,143317.50,A,5546.75131,N,02334.60056,E,37.099,221.59,091209,,,A*52
$GPVTG,221.59,T,,M,37.099,N,68.744,K,A*3D
$GPGGA,143317.50,5546.75131,N,02334.60056,E,1,09,1.26,122.0,M,27.0,M,,*52
$GPGSA,A,3,32,09,19,11,14,03,22,06,26,,,,3.25,1.26,3.00*04
$GPGSV,3,1,10,32,22,228,32,09,12,038,28,19,58,204,40,11,36,285,36*71
$GPGSV,3,2,10,14,45,118,34,03,31,183,25,28,,,33,22,47,070,42*46
$GPGSV,3,3,10,06,26,174,34,26,44,080,39*79
$GPGLL,5546.75131,N,02334.60056,E,143317.50,A,A*6F
$GPZDA,143317.50,09,12,2009,00,00*61
$GPRMC,143318.00,A,5546.74742,N,02334.59448,E,37.130,221.51,091209,,,A*50
$GPVTG,221.51,T,,M,37.130,N,68.801,K,A*39
$GPGGA,143318.00,5546.74742,N,02334.59448,E,1,09,1.26,121.9,M,27.0,M,,*50
$GPGSA,A,3,32,09,19,11,14,03,22,06,26,,,,3.25,1.26,3.00*04
$GPGSV,3,1,10,32,22,228,33,09,12,038,27,19,58,204,40,11,36,285,35*7C
$GPGSV,3,2,10,14,45,118,34,03,31,183,24,28,,,33,22,47,070,42*47
$GPGSV,3,3,10,06,26,174,35,26,44,080,39*78
$GPGLL,5546.74742,N,02334.59448,E,143318.00,A,A*67
$GPZDA,143318.00,09,12,2009,00,00*6B
$GPRMC,143318.50,A,5546.74354,N,02334.58840,E,37.142,221.66,091209,,,A*52
$GPVTG,221.66,T,,M,37.142,N,68.824,K,A*3F
$GPGGA,143318.50,5546.74354,N,02334.58840,E,1,09,1.26,121.8,M,27.0,M,,*52
$GPGSA,A,3,32,09,19,11,14,03,22,06,26,,,,3.25,1.26,3.00*04
$GPGSV,3,1,10,32,22,228,33,09,12,038,28,19,58,204,40,11,36,285,36*70
$GPGSV,3,2,10,14,45,118,35,03,31,183,22,28,,,33,22,47,070,42*40
$GPGSV,3,3,10,06,26,174,34,26,44,080,39*79
$GPGLL,5546.74354,N,02334.58840,E,143318.50,A,A*64
$GPZDA,143318.50,09,12,2009,00,00*6E
$GPRMC,143319.00,A,5546.73966,N,02334.58232,E,37.148,221.65,091209,,,A*5C
$GPVTG,221.65,T,,M,37.148,N,68.835,K,A*36
$GPGGA,143319.00,5546.73966,N,02334.58232,E,1,09,1.26,121.8,M,27.0,M,,*55
$GPGSA,A,3,32,09,19,11,14,03,22,06,26,,,,3.25,1.26,3.00*04
$GPGSV,3,1,10,32,22,228,33,09,12,038,27,19,58,204,40,11,36,285,36*7F
$GPGSV,3,2,10,14,45,118,34,03,31,183,25,28,,,33,22,47,070,42*46
$GPGSV,3,3,10,06,26,174,34,26,44,080,39*79
$GPGLL,5546.73966,N,02334.58232,E,143319.00,A,A*63
$GPZDA,143319.00,09,12,2009,00,00*6A
$GPRMC,143319.50,A,5546.73578,N,02334.57626,E,37.138,221.35,091209,,,A*56
$GPVTG,221.35,T,,M,37.138,N,68.817,K,A*34
$GPGGA,143319.50,5546.73578,N,02334.57626,E,1,09,1.26,121.8,M,27.0,M,,*5D
$GPGSA,A,3,32,09,19,11,14,03,22,06,26,,,,3.25,1.26,3.00*04
$GPGSV,3,1,10,32,22,228,33,09,12,038,27,19,58,204,40,11,36,285,36*7F
$GPGSV,3,2,10,14,45,118,34,03,31,183,25,28,,,33,22,47,070,42*46
$GPGSV,3,3,10,06,26,174,34,26,44,080,39*79
$GPGLL,5546.73578,N,02334.57626,E,143319.50,A,A*6B
$GPZDA,143319.50,09,12,2009,00,00*6F
$GPRMC,143320.00,A,5546.73191,N,02334.57020,E,37.095,221.51,091209,,,A*5E
$GPVTG,221.51,T,,M,37.095,N,68.737,K,A*3D
$GPGGA,143320.00,5546.73191,N,02334.57020,E,1,09,1.26,121.7,M,27.0,M,,*5E
$GPGSA,A,3,32,09,19,11,14,03,22,06,26,,,,3.25,1.26,3.00*04
$GPGSV,3,1,10,32,22,228,33,09,12,038,27,19,58,204,41,11,36,285,36*7E
$GPGSV,3,2,10,14,45,118,34,03,31,183,24,28,,,33,22,47,070,42*47
$GPGSV,3,3,10,06,26,174,35,26,44,080,39*78
$GPGLL,5546.73191,N,02334.57020,E,143320.00,A,A*67
$GPZDA,143320.00,09,12,2009,00,00*60
$GPRMC,143320.50,A,5546.72805,N,02334.56415,E,36.982,221.56,091209,,,A*54
$GPVTG,221.56,T,,M,36.982,N,68.528,K,A*38
$GPGGA,143320.50,5546.72805,N,02334.56415,E,1,09,1.26,121.7,M,27.0,M,,*5D
$GPGSA,A,3,32,09,19,11,14,03,22,06,26,,,,3.25,1.26,3.00*04
$GPGSV,3,1,10,32,22,228,32,09,12,038,27,19,58,204,40,11,36,285,35*7D
$GPGSV,3,2,10,14,45,118,34,03,31,183,22,28,,,32,22,47,070,42*40
$GPGSV,3,3,10,06,26,174,34,26,44,080,39*79
$GPGLL,5546.72805,N,02334.56415,E,143320.50,A,A*64
$GPZDA,143320.50,09,12,2009,00,00*65
$GPRMC,143321.00,A,5546.72423,N,02334.55813,E,36.738,221.85,091209,,,A*50
$GPVTG,221.85,T,,M,36.738,N,68.076,K,A*37
$GPGGA,143321.00,5546.72423,N,02334.55813,E,1,09,1.26,121.7,M,27.0,M,,*58
$GPGSA,A,3,32,09,19,11,14,03,22,06,26,,,,3.25,1.26,3.00*04
$GPGSV,3,1,10,32,22,228,33,09,12,038,27,19,58,204,40,11,36,285,36*7F
$GPGSV,3,2,10,14,45,118,34,03,31,183,23,28,,,33,22,47,070,42*40
$GPGSV,3,3,10,06,26,174,34,26,44,080,39*79
$GPGLL,5546.72423,N,02334.55813,E,143321.00,A,A*61
$GPZDA,143321.00,09,12,2009,00,00*61
$GPRMC,143321.50,A,5546.72043,N,02334.55216,E,36.548,221.51,091209,,,A*54
$GPVTG,221.51,T,,M,36.548,N,67.724,K,A*34
$GPGGA,143321.50,5546.72043,N,02334.55216,E,1,09,1.26,121.7,M,27.0,M,,*50
$GPGSA,A,3,32,09,19,11,14,03,22,06,26,,,,3.25,1.26,3.00*04
$GPGSV,3,1,10,32,22,228,32,09,12,038,27,19,58,204,40,11,36,285,36*7E
$GPGSV,3,2,10,14,45,118,35,03,31,183,24,28,,,34,22,47,070,42*41
$GPGSV,3,3,10,06,26,174,34,26,44,080,39*79
$GPGLL,5546.72043,N,02334.55216,E,143321.50,A,A*69
$GPZDA,143321.50,09,12,2009,00,00*64
$GPRMC,143322.00,A,5546.71665,N,02334.54623,E,36.296,221.61,091209,,,A*57
$GPVTG,221.61,T,,M,36.296,N,67.257,K,A*32
$GPGGA,143322.00,5546.71665,N,02334.54623,E,1,09,1.26,121.7,M,27.0,M,,*54
$GPGSA,A,3,32,09,19,11,14,03,22,06,26,,,,3.25,1.26,3.00*04
$GPGSV,3,1,10,32,22,228,31,09,12,038,27,19,58,204,38,11,36,285,34*70
$GPGSV,3,2,10,14,45,118,33,03,31,183,21,28,,,32,22,47,070,40*46
$GPGSV,3,3,10,06,26,174,31,26,44,080,37*72
$GPGLL,5546.71665,N,02334.54623,E,143322.00,A,A*6D
$GPZDA,143322.00,09,12,2009,00,00*62
$GPRMC,143322.50,A,5546.71291,N,02334.54032,E,36.068,222.02,091209,,,A*5E
$GPVTG,222.02,T,,M,36.068,N,66.834,K,A*39
$GPGGA,143322.50,5546.71291,N,02334.54032,E,1,09,1.26,121.7,M,27.0,M,,*58
$GPGSA,A,3,32,09,19,11,14,03,22,06,26,,,,3.25,1.26,3.00*04
$GPGSV,3,1,10,32,22,228,30,09,12,038,27,19,58,204,38,11,36,285,34*71
$GPGSV,3,2,10,14,45,118,32,03,31,183,22,28,,,31,22,47,070,40*47
$GPGSV,3,3,10,06,26,174,32,26,44,080,36*70
$GPGLL,5546.71291,N,02334.54032,E,143322.50,A,A*61
$GPZDA,143322.50,09,12,2009,00,00*67
$GPRMC,143323.00,A,5546.70920,N,02334.53442,E,35.897,221.92,091209,,,A*5F
$GPVTG,221.92,T,,M,35.897,N,66.516,K,A*35
$GPGGA,143323.00,5546.70920,N,02334.53442,E,1,09,1.26,121.7,M,27.0,M,,*58
$GPGSA,A,3,32,09,19,11,14,03,22,06,26,,,,3.25,1.26,3.00*04
$GPGSV,3,1,10,32,22,228,31,09,12,038,27,19,58,204,39,11,36,285,35*70
$GPGSV,3,2,10,14,45,118,34,03,31,183,24,28,,,32,22,47,070,41*45
$GPGSV,3,3,10,06,26,174,34,26,44,080,38*78
$GPGLL,5546.70920,N,02334.53442,E,143323.00,A,A*61
$GPZDA,143323.00,09,12,2009,00,00*63
$GPRMC,143323.50,A,5546.70550,N,02334.52854,E,35.802,222.24,091209,,,A*59
$GPVTG,222.24,T,,M,35.802,N,66.342,K,A*30
$GPGGA,143323.50,5546.70550,N,02334.52854,E,1,09,1.26,121.5,M,27.0,M,,*5E
$GPGSA,A,3,32,09,19,11,14,03,22,06,26,,,,3.25,1.26,3.00*04
$GPGSV,3,1,10,32,22,228,32,09,12,038,28,19,58,204,40,11,36,285,36*71
$GPGSV,3,2,10,14,45,118,35,03,31,183,30,28,,,34,22,47,070,42*44
$GPGSV,3,3,10,06,26,174,34,26,44,080,39*79
$GPGLL,5546.70550,N,02334.52854,E,143323.50,A,A*65
$GPZDA,143323.50,09,12,2009,00,00*66
$GPRMC,143324.00,A,5546.70183,N,02334.52263,E,35.829,222.00,091209,,,A*50
$GPVTG,222.00,T,,M,35.829,N,66.391,K,A*31
$GPGGA,143324.00,5546.70183,N,02334.52263,E,1,09,1.26,121.6,M,27.0,M,,*5B
$GPGSA,A,3,32,09,19,11,14,03,22,06,26,,,,3.25,1.26,3.00*04
$GPGSV,3,1,10,32,22,228,33,09,12,038,30,19,58,204,40,11,36,285,36*79
$GPGSV,3,2,10,14,45,118,35,03,31,183,27,28,,,33,22,47,070,41*46
$GPGSV,3,3,10,06,26,174,34,26,44,080,39*79
$GPGLL,5546.70183,N,02334.52263,E,143324.00,A,A*63
$GPZDA,143324.00,09,12,2009,00,00*64
$GPRMC,143324.50,A,5546.69812,N,02334.51673,E,35.962,222.09,091209,,,A*5D
$GPVTG,222.09,T,,M,35.962,N,66.638,K,A*30
$GPGGA,143324.50,5546.69812,N,02334.51673,E,1,09,1.26,121.6,M,27.0,M,,*51
$GPGSA,A,3,32,09,19,11,14,03,22,06,26,,,,3.25,1.26,3.00*04
$GPGSV,3,1,10,32,22,228,33,09,12,038,30,19,58,204,40,11,36,285,35*7A
$GPGSV,3,2,10,14,45,118,35,03,31,183,27,28,,,32,22,47,070,42*44
$GPGSV,3,3,10,06,26,174,34,26,44,080,39*79
$GPGLL,5546.69812,N,02334.51673,E,143324.50,A,A*69
$GPZDA,143324.50,09,12,2009,00,00*61
$GPRMC,143325.00,A,5546.69439,N,02334.51078,E,36.290,222.04,091209,,,A*59
$GPVTG,222.04,T,,M,36.290,N,67.245,K,A*37
$GPGGA,143325.00,5546.69439,N,02334.51078,E,1,09,1.26,121.5,M,27.0,M,,*5E
$GPGSA,A,3,32,09,19,11,14,03,22,06,26,,,,3.25,1.26,3.00*04
$GPGSV,3,1,10,32,22,228,33,09,12,038,29,19,58,204,40,11,36,285,35*72
$GPGSV,3,2,10,14,45,118,35,03,31,183,26,28,,,32,22,47,070,41*46
$GPGSV,3,3,10,06,26,174,35,26,44,080,39*78
$GPGLL,5546.69439,N,02334.51078,E,143325.00,A,A*65
$GPZDA,143325.00,09,12,2009,00,00*65
$GPRMC,143325.50,A,5546.69063,N,02334.50478,E,36.575,221.93,091209,,,A*53
$GPVTG,221.93,T,,M,36.575,N,67.774,K,A*31
$GPGGA,143325.50,5546.69063,N,02334.50478,E,1,09,1.26,121.5,M,27.0,M,,*55
$GPGSA,A,3,32,09,19,11,14,03,22,06,26,,,,3.25,1.26,3.00*04
$GPGSV,3,1,10,32,22,228,33,09,12,038,29,19,58,204,40,11,36,285,36*71
$GPGSV,3,2,10,14,45,118,35,03,31,183,26,28,,,33,22,47,070,42*44
$GPGSV,3,3,10,06,26,174,34,26,44,080,39*79
$GPGLL,5546.69063,N,02334.50478,E,143325.50,A,A*6E
$GPZDA,143325.50,09,12,2009,00,00*60
$GPRMC,143326.00,A,5546.68683,N,02334.49875,E,36.874,221.81,091209,,,A*5A
$GPVTG,221.81,T,,M,36.874,N,68.328,K,A*3C
$GPGGA,143326.00,5546.68683,N,02334.49875,E,1,09,1.26,121.5,M,27.0,M,,*53
$GPGSA,A,3,32,09,19,11,14,03,22,06,26,,,,3.26,1.26,3.00*07
$GPGSV,3,1,10,32,22,228,33,09,12,038,29,19,58,204,40,11,36,285,36*71
$GPGSV,3,2,10,14,45,118,35,03,31,183,26,28,,,33,22,47,070,42*44
$GPGSV,3,3,10,06,26,174,34,26,44,080,39*79
$GPGLL,5546.68683,N,02334.49875,E,143326.00,A,A*68
$GPZDA,143326.00,09,12,2009,00,00*66
$GPRMC,143326.50,A,5546.68299,N,02334.49268,E,37.174,221.56,091209,,,A*54
$GPVTG,221.56,T,,M,37.174,N,68.883,K,A*34
$GPGGA,143326.50,5546.68299,N,02334.49268,E,1,09,1.26,121.5,M,27.0,M,,*5F
$GPGSA,A,3,32,09,19,11,14,03,22,06,26,,,,3.25,1.26,3.00*04
$GPGSV,3,1,10,32,22,228,32,09,12,037,27,19,58,204,40,11,36,285,36*71
$GPGSV,3,2,10,14,45,118,34,03,31,183,26,28,,,33,22,47,070,42*45
$GPGSV,3,3,10,06,26,174,33,26,44,080,38*7F
$GPGLL,5546.68299,N,02334.49268,E,143326.50,A,A*64
$GPZDA,143326.50,09,12,2009,00,00*63
$GPRMC,143327.00,A,5546.67914,N,02334.48657,E,37.433,221.51,091209,,,A*59
$GPVTG,221.51,T,,M,37.433,N,69.363,K,A*31
$GPGGA,143327.00,5546.67914,N,02334.48657,E,1,09,1.47,121.6,M,27.0,M,,*57
$GPGSA,A,3,32,09,19,11,14,03,22,06,26,,,,3.66,1.47,3.35*02
$GPGSV,3,1,12,32,22,228,31,27,,,31,09,12,037,26,19,58,204,38*46
$GPGSV,3,2,12,11,36,285,34,14,45,118,32,03,31,183,19,28,,,31*40
$GPGSV,3,3,12,22,47,070,40,15,,,22,06,26,174,31,26,44,080,36*45
$GPGLL,5546.67914,N,02334.48657,E,143327.00,A,A*68
$GPZDA,143327.00,09,12,2009,00,00*67
$GPRMC,143327.50,A,5546.67528,N,02334.48042,E,37.526,221.60,091209,,,A*5A
$GPVTG,221.60,T,,M,37.526,N,69.535,K,A*33
$GPGGA,143327.50,5546.67528,N,02334.48042,E,1,09,1.48,121.7,M,27.0,M,,*5D
$GPGSA,A,3,32,09,19,11,14,03,22,06,26,,,,3.66,1.48,3.35*0D
$GPGSV,4,1,14,32,22,228,30,27,,,30,09,12,037,25,12,,,33*7F
$GPGSV,4,2,14,19,58,204,37,11,36,285,33,14,45,118,32,03,31,183,18*78
$GPGSV,4,3,14,28,,,30,22,47,070,39,15,,,24,06,26,174,30*7D
$GPGSV,4,4,14,26,44,080,36,17,,,34*44
$GPGLL,5546.67528,N,02334.48042,E,143327.50,A,A*6C
$GPZDA,143327.50,09,12,2009,00,00*62
$GPRMC,143328.00,A,5546.67138,N,02334.47421,E,37.918,221.73,091209,,,A*58
$GPVTG,221.73,T,,M,37.918,N,70.262,K,A*3D
$GPGGA,143328.00,5546.67138,N,02334.47421,E,1,09,1.19,121.7,M,27.0,M,,*58
$GPGSA,A,3,32,09,19,11,14,03,22,06,26,,,,3.23,1.19,3.00*0E
$GPGSV,4,1,14,32,22,228,29,27,,,29,09,12,037,25,12,,,32*7E
$GPGSV,4,2,14,19,58,204,37,11,36,285,33,14,45,118,32,03,31,183,19*79
$GPGSV,4,3,14,28,,,29,22,47,070,38,15,,,24,06,26,174,29*7C
$GPGSV,4,4,14,26,44,080,36,17,,,33*43
$GPGLL,5546.67138,N,02334.47421,E,143328.00,A,A*6D
$GPZDA,143328.00,09,12,2009,00,00*68
$GPRMC,143328.50,A,5546.66742,N,02334.46793,E,38.036,221.73,091209,,,A*56
$GPVTG,221.73,T,,M,38.036,N,70.482,K,A*3F
$GPGGA,143328.50,5546.66742,N,02334.46793,E,1,09,1.19,121.8,M,27.0,M,,*53
$GPGSA,A,3,32,09,19,11,14,03,22,06,26,,,,3.23,1.19,3.00*0E
$GPGSV,3,1,10,32,22,228,30,09,12,037,25,19,58,204,38,11,36,285,34*7C
$GPGSV,3,2,10,14,45,118,33,03,31,183,23,28,,,30,22,47,070,40*46
$GPGSV,3,3,10,06,26,174,30,26,44,080,37*73
$GPGLL,5546.66742,N,02334.46793,E,143328.50,A,A*69
$GPZDA,143328.50,09,12,2009,00,00*6D
$GPRMC,143329.00,A,5546.66350,N,02334.46164,E,38.567,221.88,091209,,,A*5E
$GPVTG,221.88,T,,M,38.567,N,71.465,K,A*32
$GPGGA,143329.00,5546.66350,N,02334.46164,E,1,09,1.19,121.8,M,27.0,M,,*5E
$GPGSA,A,3,32,09,19,11,14,03,22,06,26,,,,3.23,1.19,3.00*0E
$GPGSV,3,1,10,32,22,228,30,09,12,037,26,19,58,204,39,11,36,285,35*7F
$GPGSV,3,2,10,14,45,118,33,03,31,183,25,28,,,30,22,47,070,41*41
$GPGSV,3,3,10,06,26,174,32,26,44,080,37*71
$GPGLL,5546.66350,N,02334.46164,E,143329.00,A,A*64
$GPZDA,143329.00,09,12,2009,00,00*69
$GPRMC,143329.50,A,5546.65952,N,02334.45524,E,38.642,222.07,091209,,,A*53
$GPVTG,222.07,T,,M,38.642,N,71.604,K,A*37
$GPGGA,143329.50,5546.65952,N,02334.45524,E,1,09,1.28,121.9,M,27.0,M,,*50
$GPGSA,A,3,32,09,19,11,14,03,22,06,26,,,,3.65,1.28,3.41*0B
$GPGSV,3,1,10,32,22,228,30,09,12,037,26,19,58,204,39,11,36,285,34*7E
$GPGSV,3,2,10,14,45,118,33,03,31,183,28,28,,,30,22,47,070,41*4C
$GPGSV,3,3,10,06,26,174,32,26,44,080,38*7E
$GPGLL,5546.65952,N,02334.45524,E,143329.50,A,A*69
$GPZDA,143329.50,09,12,2009,00,00*6C
$GPRMC,143330.00,A,5546.65551,N,02334.44882,E,38.917,221.88,091209,,,A*5A
$GPVTG,221.88,T,,M,38.917,N,72.112,K,A*3F
$GPGGA,143330.00,5546.65551,N,02334.44882,E,1,09,1.28,121.9,M,27.0,M,,*52
$GPGSA,A,3,32,09,19,11,14,03,22,06,26,,,,3.64,1.28,3.41*0A
$GPGSV,3,1,10,32,22,228,31,09,12,037,26,19,58,204,39,11,36,285,35*7E
$GPGSV,3,2,10,14,45,118,33,03,31,183,24,28,,,31,22,47,070,41*41
$GPGSV,3,3,10,06,26,174,32,26,44,080,38*7E
$GPGLL,5546.65551,N,02334.44882,E,143330.00,A,A*6B
$GPZDA,143330.00,09,12,2009,00,00*61
$GPRMC,143330.50,A,5546.65146,N,02334.44238,E,39.222,221.56,091209,,,A*59
$GPVTG,221.56,T,,M,39.222,N,72.679,K,A*3A
$GPGGA,143330.50,5546.65146,N,02334.44238,E,1,09,1.28,122.0,M,27.0,M,,*54
$GPGSA,A,3,32,09,19,11,14,03,22,06,26,,,,3.64,1.28,3.41*0A
$GPGSV,3,1,10,32,22,228,33,09,12,037,26,19,58,204,39,11,36,285,35*7C
$GPGSV,3,2,10,14,45,118,33,03,31,183,20,28,,,31,22,47,070,41*45
$GPGSV,3,3,10,06,26,174,32,26,44,080,38*7E
$GPGLL,5546.65146,N,02334.44238,E,143330.50,A,A*67
$GPZDA,143330.50,09,12,2009,00,00*64
$GPRMC,143331.00,A,5546.64738,N,02334.43592,E,39.384,221.52,091209,,,A*5A
$GPVTG,221.52,T,,M,39.384,N,72.979,K,A*3C
$GPGGA,143331.00,5546.64738,N,02334.43592,E,1,09,1.26,122.1,M,27.0,M,,*51
$GPGSA,A,3,32,09,19,11,14,03,22,06,26,,,,3.26,1.26,3.01*06
$GPGSV,3,1,10,32,22,228,33,09,12,037,26,19,58,204,39,11,36,285,34*7D
$GPGSV,3,2,10,14,45,118,34,03,31,183,20,28,,,31,22,47,070,41*42
$GPGSV,3,3,10,06,26,174,32,26,44,080,38*7E
$GPGLL,5546.64738,N,02334.43592,E,143331.00,A,A*6D
$GPZDA,143331.00,09,12,2009,00,00*60
$GPRMC,143331.50,A,5546.64328,N,02334.42943,E,39.571,221.47,091209,,,A*53
$GPVTG,221.47,T,,M,39.571,N,73.325,K,A*36
$GPGGA,143331.50,5546.64328,N,02334.42943,E,1,09,1.26,122.2,M,27.0,M,,*53
$GPGSA,A,3,32,09,19,11,14,03,22,06,26,,,,3.26,1.26,3.00*07
$GPGSV,3,1,10,32,22,228,32,09,12,037,26,19,58,203,39,11,36,285,35*7A
$GPGSV,3,2,10,14,45,118,33,03,31,183,19,28,,,31,22,47,070,41*4F
$GPGSV,3,3,10,06,26,174,31,26,44,080,37*72
$GPGLL,5546.64328,N,02334.42943,E,143331.50,A,A*6C
$GPZDA,143331.50,09,12,2009,00,00*65
$GPRMC,143332.00,A,5546.63918,N,02334.42294,E,39.806,221.51,091209,,,A*50
$GPVTG,221.51,T,,M,39.806,N,73.761,K,A*38
$GPGGA,143332.00,5546.63918,N,02334.42294,E,1,09,1.26,122.3,M,27.0,M,,*5B
$GPGSA,A,3,32,09,19,11,14,03,22,06,26,,,,3.26,1.26,3.00*07
$GPGSV,3,1,10,32,22,228,32,09,12,037,26,19,58,203,38,11,36,285,33*7D
$GPGSV,3,2,10,14,45,118,33,03,31,183,19,28,,,30,22,47,070,40*4F
$GPGSV,3,3,10,06,26,174,31,26,44,080,37*72
$GPGLL,5546.63918,N,02334.42294,E,143332.00,A,A*65
$GPZDA,143332.00,09,12,2009,00,00*63
$GPRMC,143332.50,A,5546.63505,N,02334.41641,E,39.985,221.44,091209,,,A*54
$GPVTG,221.44,T,,M,39.985,N,74.092,K,A*3A
$GPGGA,143332.50,5546.63505,N,02334.41641,E,1,09,1.26,122.4,M,27.0,M,,*56
$GPGSA,A,3,32,09,19,11,14,03,22,06,26,,,,3.26,1.26,3.01*06
$GPGSV,3,1,10,32,22,228,32,09,12,037,26,19,58,203,38,11,36,285,32*7C
$GPGSV,3,2,10,14,45,118,32,03,31,183,19,28,,,30,22,47,070,40*4E
$GPGSV,3,3,10,06,26,174,31,26,44,080,36*73
$GPGLL,5546.63505,N,02334.41641,E,143332.50,A,A*6F
$GPZDA,143332.50,09,12,2009,00,00*66
$GPRMC,143333.00,A,5546.63089,N,02334.40987,E,40.143,221.52,091209,,,A*5E
$GPVTG,221.52,T,,M,40.143,N,74.385,K,A*34
$GPGGA,143333.00,5546.63089,N,02334.40987,E,1,09,1.26,122.6,M,27.0,M,,*55
$GPGSA,A,3,32,09,19,11,14,03,22,06,26,,,,3.26,1.26,3.00*07
$GPGSV,3,1,10,32,22,228,31,09,12,037,26,19,58,203,38,11,36,285,32*7F
$GPGSV,3,2,10,14,45,118,32,03,31,183,19,28,,,30,22,47,070,40*4E
$GPGSV,3,3,10,06,26,174,31,26,44,080,36*73
$GPGLL,5546.63089,N,02334.40987,E,143333.00,A,A*6E
$GPZDA,143333.00,09,12,2009,00,00*62
$GPRMC,143333.50,A,5546.62673,N,02334.40329,E,40.300,221.56,091209,,,A*56
$GPVTG,221.56,T,,M,40.300,N,74.676,K,A*3C
$GPGGA,143333.50,5546.62673,N,02334.40329,E,1,09,1.26,122.7,M,27.0,M,,*5D
$GPGSA,A,3,32,09,19,11,14,03,22,06,26,,,,3.26,1.26,3.01*06
$GPGSV,3,1,10,32,22,228,33,09,12,037,27,19,58,203,40,11,36,285,34*75
$GPGSV,3,2,10,14,45,118,34,03,31,183,19,28,,,31,22,47,070,42*4B
$GPGSV,3,3,10,06,26,174,32,26,44,080,38*7E
$GPGLL,5546.62673,N,02334.40329,E,143333.50,A,A*67
$GPZDA,143333.50,09,12,2009,00,00*67
$GPRMC,143334.00,A,5546.62247,N,02334.39671,E,40.502,221.59,091209,,,A*5A
$GPVTG,221.59,T,,M,40.502,N,75.050,K,A*34
$GPGGA,143334.00,5546.62247,N,02334.39671,E,1,09,1.26,122.5,M,27.0,M,,*58
$GPGSA,A,3,32,09,19,11,14,03,22,06,26,,,,3.26,1.26,3.01*06
$GPGSV,3,1,10,32,22,228,33,09,12,037,27,19,58,203,40,11,36,285,35*74
$GPGSV,3,2,10,14,45,118,35,03,31,183,20,28,,,31,22,47,070,42*40
$GPGSV,3,3,10,06,26,174,33,26,44,080,38*7F
$GPGLL,5546.62247,N,02334.39671,E,143334.00,A,A*60
$GPZDA,143334.00,09,12,2009,00,00*65
$GPRMC,143334.50,A,5546.61820,N,02334.39009,E,40.736,221.63,091209,,,A*52
$GPVTG,221.63,T,,M,40.736,N,75.483,K,A*32
$GPGGA,143334.50,5546.61820,N,02334.39009,E,1,09,1.26,122.4,M,27.0,M,,*5D
$GPGSA,A,3,32,09,19,11,14,03,22,06,26,,,,3.26,1.26,3.01*06
$GPGSV,3,1,10,32,22,228,33,09,12,037,27,19,58,203,40,11,36,285,35*74
$GPGSV,3,2,10,14,45,118,34,03,31,183,20,28,,,31,22,47,070,42*41
$GPGSV,3,3,10,06,26,174,33,26,44,080,39*7E
$GPGLL,5546.61820,N,02334.39009,E,143334.50,A,A*64
$GPZDA,143334.50,09,12,2009,00,00*60
$GPRMC,143335.00,A,5546.61392,N,02334.38340,E,40.981,221.79,091209,,,A*52
$GPVTG,221.79,T,,M,40.981,N,75.938,K,A*36
$GPGGA,143335.00,5546.61392,N,02334.38340,E,1,09,1.26,122.3,M,27.0,M,,*53
$GPGSA,A,3,32,09,19,11,14,03,22,06,26,,,,3.26,1.26,3.01*06
$GPGSV,3,1,10,32,22,228,32,09,12,037,27,19,58,203,40,11,36,285,35*75
$GPGSV,3,2,10,14,45,118,34,03,31,183,24,28,,,32,22,47,070,42*46
$GPGSV,3,3,10,06,26,174,33,26,44,080,39*7E
$GPGLL,5546.61392,N,02334.38340,E,143335.00,A,A*6D
$GPZDA,143335.00,09,12,2009,00,00*64
$GPRMC,143335.50,A,5546.60964,N,02334.37668,E,41.196,221.79,091209,,,A*5A
$GPVTG,221.79,T,,M,41.196,N,76.336,K,A*3E
$GPGGA,143335.50,5546.60964,N,02334.37668,E,1,09,1.26,122.3,M,27.0,M,,*54
$GPGSA,A,3,32,09,19,11,14,03,22,06,26,,,,3.26,1.26,3.01*06
$GPGSV,3,1,10,32,22,228,33,09,12,037,28,19,58,203,40,11,36,285,36*78
$GPGSV,3,2,10,14,45,118,35,03,31,183,24,28,,,33,22,47,070,42*46
$GPGSV,3,3,10,06,26,174,33,26,44,080,39*7E
$GPGLL,5546.60964,N,02334.37668,E,143335.50,A,A*6A
$GPZDA,143335.50,09,12,2009,00,00*61
$GPRMC,143336.00,A,5546.60535,N,02334.36991,E,41.361,221.94,091209,,,A*55
$GPVTG,221.94,T,,M,41.361,N,76.642,K,A*31
$GPGGA,143336.00,5546.60535,N,02334.36991,E,1,09,1.26,122.3,M,27.0,M,,*52
$GPGSA,A,3,32,09,19,11,14,03,22,06,26,,,,3.26,1.26,3.00*07
$GPGSV,3,1,10,32,22,228,33,09,12,037,28,19,58,203,40,11,36,285,35*7B
$GPGSV,3,2,10,14,45,118,34,03,31,183,25,28,,,34,22,47,070,42*41
$GPGSV,3,3,10,06,26,174,33,26,44,080,39*7E
$GPGLL,5546.60535,N,02334.36991,E,143336.00,A,A*6C
$GPZDA,143336.00,09,12,2009,00,00*67
$GPRMC,143336.50,A,5546.60106,N,02334.36309,E,41.477,221.87,091209,,,A*5D
$GPVTG,221.87,T,,M,41.477,N,76.857,K,A*39
$GPGGA,143336.50,5546.60106,N,02334.36309,E,1,10,1.01,122.3,M,27.0,M,,*55
$GPGSA,A,3,32,09,19,11,14,03,28,22,06,26,,,2.66,1.01,2.46*0E
$GPGSV,3,1,10,32,22,228,32,09,12,037,28,19,58,203,40,11,36,285,36*79
$GPGSV,3,2,10,14,45,118,34,03,31,183,27,28,19,317,34,22,47,070,42*7E
$GPGSV,3,3,10,06,26,174,33,26,44,080,39*7E
$GPGLL,5546.60106,N,02334.36309,E,143336.50,A,A*66
$GPZDA,143336.50,09,12,2009,00,00*62
$GPRMC,143337.00,A,5546.59676,N,02334.35625,E,41.577,221.77,091209,,,A*55
$GPVTG,221.77,T,,M,41.577,N,77.043,K,A*3B
$GPGGA,143337.00,5546.59676,N,02334.35625,E,1,10,1.01,122.3,M,27.0,M,,*53
$GPGSA,A,3,32,09,19,11,14,03,28,22,06,26,,,2.66,1.01,2.46*0E
$GPGSV,3,1,10,32,22,228,32,09,12,037,28,19,58,203,40,11,36,285,35*7A
$GPGSV,3,2,10,14,45,118,35,03,31,183,27,28,19,317,33,22,47,070,42*78
$GPGSV,3,3,10,06,26,174,33,26,44,080,39*7E
$GPGLL,5546.59676,N,02334.35625,E,143337.00,A,A*60
$GPZDA,143337.00,09,12,2009,00,00*66
$GPRMC,143337.50,A,5546.59244,N,02334.34942,E,41.633,221.86,091209,,,A*57
$GPVTG,221.86,T,,M,41.633,N,77.146,K,A*32
$GPGGA,143337.50,5546.59244,N,02334.34942,E,1,10,1.01,122.3,M,27.0,M,,*5C
$GPGSA,A,3,32,09,19,11,14,03,28,22,06,26,,,2.66,1.01,2.46*0E
$GPGSV,3,1,10,32,22,228,32,09,12,037,28,19,58,203,39,11,36,285,35*74
$GPGSV,3,2,10,14,45,118,34,03,31,183,24,28,19,317,32,22,47,070,41*78
$GPGSV,3,3,10,06,26,174,32,26,44,080,38*7E
$GPGLL,5546.59244,N,02334.34942,E,143337.50,A,A*6F
$GPZDA,143337.50,09,12,2009,00,00*63
$GPRMC,143338.00,A,5546.58812,N,02334.34258,E,41.700,221.99,091209,,,A*5A
$GPVTG,221.99,T,,M,41.700,N,77.270,K,A*3B
$GPGGA,143338.00,5546.58812,N,02334.34258,E,1,10,1.01,122.3,M,27.0,M,,*5E
$GPGSA,A,3,32,09,19,11,14,03,28,22,06,26,,,2.66,1.01,2.46*0E
$GPGSV,3,1,10,32,22,228,31,09,12,037,28,19,58,203,39,11,36,285,35*77
$GPGSV,3,2,10,14,45,118,34,03,31,183,27,28,19,317,34,22,47,070,41*7D
$GPGSV,3,3,10,06,26,174,32,26,44,080,38*7E
$GPGLL,5546.58812,N,02334.34258,E,143338.00,A,A*6D
$GPZDA,143338.00,09,12,2009,00,00*69
$GPRMC,143338.50,A,5546.58377,N,02334.33571,E,41.763,222.02,091209,,,A*58
$GPVTG,222.02,T,,M,41.763,N,77.387,K,A*36
$GPGGA,143338.50,5546.58377,N,02334.33571,E,1,10,1.01,122.2,M,27.0,M,,*59
$GPGSA,A,3,32,09,19,11,14,03,28,22,06,26,,,2.66,1.01,2.46*0E
$GPGSV,3,1,10,32,22,228,32,09,12,037,28,19,58,203,39,11,36,285,36*77
$GPGSV,3,2,10,14,45,118,34,03,31,183,27,28,19,317,34,22,47,070,42*7E
$GPGSV,3,3,10,06,26,174,33,26,44,080,39*7E
$GPGLL,5546.58377,N,02334.33571,E,143338.50,A,A*6B
$GPZDA,143338.50,09,12,2009,00,00*6C
$GPRMC,143339.00,A,5546.57941,N,02334.32886,E,41.810,221.70,091209,,,A*55
$GPVTG,221.70,T,,M,41.810,N,77.474,K,A*30
$GPGGA,143339.00,5546.57941,N,02334.32886,E,1,10,1.01,122.2,M,27.0,M,,*59
$GPGSA,A,3,32,09,19,11,14,03,28,22,06,26,,,2.66,1.01,2.46*0E
$GPGSV,3,1,10,32,22,228,32,09,12,037,28,19,58,203,39,11,36,285,36*77
$GPGSV,3,2,10,14,45,118,34,03,31,183,27,28,19,317,34,22,47,070,42*7E
$GPGSV,3,3,10,06,26,174,33,26,44,080,39*7E
$GPGLL,5546.57941,N,02334.32886,E,143339.00,A,A*6B
$GPZDA,143339.00,09,12,2009,00,00*68
$GPRMC,143339.50,A,5546.57509,N,02334.32202,E,41.805,221.61,091209,,,A*52
$GPVTG,221.61,T,,M,41.805,N,77.464,K,A*35
$GPGGA,143339.50,5546.57509,N,02334.32202,E,1,10,1.22,122.4,M,27.0,M,,*5D
$GPGSA,A,3,32,09,19,11,14,03,28,22,06,26,,,3.23,1.22,2.99*0D
$GPGSV,3,1,10,32,22,228,32,09,12,037,28,19,58,203,40,11,36,285,36*79
$GPGSV,3,2,10,14,45,118,35,03,31,183,24,28,19,317,34,22,47,070,42*7C
$GPGSV,3,3,10,06,26,174,33,26,44,080,38*7F
$GPGLL,5546.57509,N,02334.32202,E,143339.50,A,A*68
$GPZDA,143339.50,09,12,2009,00,00*6D
$GPRMC,143340.00,A,5546.57072,N,02334.31519,E,41.831,221.43,091209,,,A*59
$GPVTG,221.43,T,,M,41.831,N,77.512,K,A*32
$GPGGA,143340.00,5546.57072,N,02334.31519,E,1,10,1.01,122.4,M,27.0,M,,*50
$GPGSA,A,3,32,09,19,11,14,03,28,22,06,26,,,2.66,1.01,2.46*0E
$GPGSV,3,1,10,32,22,228,32,09,12,037,27,19,58,203,40,11,36,285,35*75
$GPGSV,3,2,10,14,45,118,35,03,31,183,24,28,19,317,32,22,47,070,42*7A
$GPGSV,3,3,10,06,26,174,34,26,44,080,38*78
$GPGLL,5546.57072,N,02334.31519,E,143340.00,A,A*64
$GPZDA,143340.00,09,12,2009,00,00*66
$GPRMC,143340.50,A,5546.56636,N,02334.30835,E,41.860,221.62,091209,,,A*5E
$GPVTG,221.62,T,,M,41.860,N,77.566,K,A*36
$GPGGA,143340.50,5546.56636,N,02334.30835,E,1,10,1.01,122.3,M,27.0,M,,*57
$GPGSA,A,3,32,09,19,11,14,03,28,22,06,26,,,2.66,1.01,2.46*0E
$GPGSV,3,1,10,32,22,228,33,09,12,037,27,19,58,203,39,11,36,285,35*7A
$GPGSV,3,2,10,14,45,118,34,03,31,183,23,28,19,317,32,22,47,070,41*7F
$GPGSV,3,3,10,06,26,174,33,26,44,080,38*7F
$GPGLL,5546.56636,N,02334.30835,E,143340.50,A,A*64
$GPZDA,143340.50,09,12,2009,00,00*63
$GPRMC,143341.00,A,5546.56202,N,02334.30147,E,41.947,221.64,091209,,,A*57
$GPVTG,221.64,T,,M,41.947,N,77.727,K,A*33
$GPGGA,143341.00,5546.56202,N,02334.30147,E,1,10,1.01,122.4,M,27.0,M,,*5B
$GPGSA,A,3,32,09,19,11,14,03,28,22,06,26,,,2.66,1.01,2.46*0E
$GPGSV,3,1,10,32,22,228,33,09,12,037,27,19,58,203,40,11,36,285,35*74
$GPGSV,3,2,10,14,45,118,34,03,31,183,24,28,19,317,33,22,47,070,41*79
$GPGSV,3,3,10,06,26,174,33,26,44,080,38*7F
$GPGLL,5546.56202,N,02334.30147,E,143341.00,A,A*6F
$GPZDA,143341.00,09,12,2009,00,00*67
$GPRMC,143341.50,A,5546.55766,N,02334.29457,E,41.998,221.76,091209,,,A*5B
$GPVTG,221.76,T,,M,41.998,N,77.822,K,A*38
$GPGGA,143341.50,5546.55766,N,02334.29457,E,1,10,1.01,122.3,M,27.0,M,,*51
$GPGSA,A,3,32,09,19,11,14,03,28,22,06,26,,,2.66,1.01,2.46*0E
$GPGSV,3,1,10,32,22,228,33,09,12,037,27,19,58,203,40,11,36,285,35*74
$GPGSV,3,2,10,14,45,118,34,03,31,183,24,28,19,317,35,22,47,070,42*7C
$GPGSV,3,3,10,06,26,174,33,26,44,080,39*7E
$GPGLL,5546.55766,N,02334.29457,E,143341.50,A,A*62
$GPZDA,143341.50,09,12,2009,00,00*62
$GPRMC,143342.00,A,5546.55331,N,02334.28765,E,42.085,221.64,091209,,,A*5D
$GPVTG,221.64,T,,M,42.085,N,77.984,K,A*30
$GPGGA,143342.00,5546.55331,N,02334.28765,E,1,10,1.01,122.4,M,27.0,M,,*55
$GPGSA,A,3,32,09,19,11,14,03,28,22,06,26,,,2.66,1.01,2.46*0E
$GPGSV,3,1,10,32,22,228,34,09,12,037,27,19,58,203,40,11,36,285,35*73
$GPGSV,3,2,10,14,45,118,35,03,31,183,24,28,19,317,34,22,47,070,42*7C
$GPGSV,3,3,10,06,26,174,33,26,44,080,39*7E
$GPGLL,5546.55331,N,02334.28765,E,143342.00,A,A*61
$GPZDA,143342.00,09,12,2009,00,00*64
$GPRMC,143342.50,A,5546.54894,N,02334.28072,E,42.096,221.79,091209,,,A*52
$GPVTG,221.79,T,,M,42.096,N,78.004,K,A*30
$GPGGA,143342.50,5546.54894,N,02334.28072,E,1,10,1.01,122.4,M,27.0,M,,*54
$GPGSA,A,3,32,09,19,11,14,03,28,22,06,26,,,2.66,1.01,2.46*0E
$GPGSV,3,1,10,32,22,228,34,09,12,037,27,19,58,203,39,11,36,285,35*7D
$GPGSV,3,2,10,14,45,118,34,03,31,183,26,28,19,317,33,22,47,070,41*7B
$GPGSV,3,3,10,06,26,174,32,26,44,080,38*7E
$GPGLL,5546.54894,N,02334.28072,E,143342.50,A,A*60
$GPZDA,143342.50,09,12,2009,00,00*61
$GPRMC,143343.00,A,5546.54457,N,02334.27380,E,42.128,221.81,091209,,,A*57
$GPVTG,221.81,T,,M,42.128,N,78.064,K,A*35
$GPGGA,143343.00,5546.54457,N,02334.27380,E,1,10,1.01,122.4,M,27.0,M,,*52
$GPGSA,A,3,32,09,19,11,14,03,28,22,06,26,,,2.66,1.01,2.46*0E
$GPGSV,3,1,10,32,22,228,34,09,12,037,27,19,58,203,39,11,36,285,35*7D
$GPGSV,3,2,10,14,45,118,34,03,31,183,26,28,19,317,32,22,47,070,41*7A
$GPGSV,3,3,10,06,26,174,32,26,44,080,38*7E
$GPGLL,5546.54457,N,02334.27380,E,143343.00,A,A*66
$GPZDA,143343.00,09,12,2009,00,00*65
$GPRMC,143343.50,A,5546.54019,N,02334.26687,E,42.223,221.67,091209,,,A*5F
$GPVTG,221.67,T,,M,42.223,N,78.240,K,A*31
$GPGGA,143343.50,5546.54019,N,02334.26687,E,1,10,1.26,122.5,M,27.0,M,,*5E
$GPGSA,A,3,32,09,19,11,14,03,28,22,06,26,,,3.26,1.26,3.01*0C
$GPGSV,3,1,10,32,22,228,34,09,12,037,27,19,58,203,39,11,36,285,35*7D
$GPGSV,3,2,10,14,45,118,34,03,31,183,23,28,19,317,31,22,47,070,41*7C
$GPGSV,3,3,10,06,26,174,32,26,44,080,38*7E
$GPGLL,5546.54019,N,02334.26687,E,143343.50,A,A*6E
$GPZDA,143343.50,09,12,2009,00,00*60
$GPRMC,143344.00,A,5546.53579,N,02334.25993,E,42.261,221.65,091209,,,A*54
$GPVTG,221.65,T,,M,42.261,N,78.309,K,A*39
$GPGGA,143344.00,5546.53579,N,02334.25993,E,1,10,1.01,122.4,M,27.0,M,,*55
$GPGSA,A,3,32,09,19,11,14,03,28,22,06,26,,,2.66,1.01,2.46*0E
$GPGSV,3,1,10,32,22,228,33,09,12,037,27,19,58,203,39,11,36,285,34*7B
$GPGSV,3,2,10,14,45,118,34,03,31,183,24,28,19,317,32,22,47,070,41*78
$GPGSV,3,3,10,06,26,174,32,26,44,080,38*7E
$GPGLL,5546.53579,N,02334.25993,E,143344.00,A,A*61
$GPZDA,143344.00,09,12,2009,00,00*62
$GPRMC,143344.50,A,5546.53138,N,02334.25301,E,42.303,221.61,091209,,,A*50
$GPVTG,221.61,T,,M,42.303,N,78.388,K,A*31
$GPGGA,143344.50,5546.53138,N,02334.25301,E,1,10,1.01,122.3,M,27.0,M,,*57
$GPGSA,A,3,32,09,19,11,14,03,28,22,06,26,,,2.66,1.01,2.46*0E
$GPGSV,3,1,10,32,22,228,33,09,12,037,27,19,58,203,39,11,36,285,34*7B
$GPGSV,3,2,10,14,45,118,34,03,31,183,28,28,19,317,32,22,47,070,41*74
$GPGSV,3,3,10,06,26,174,32,26,44,080,38*7E
$GPGLL,5546.53138,N,02334.25301,E,143344.50,A,A*64
$GPZDA,143344.50,09,12,2009,00,00*67
$GPRMC,143345.00,A,5546.52698,N,02334.24607,E,42.393,221.82,091209,,,A*5E
$GPVTG,221.82,T,,M,42.393,N,78.553,K,A*35
$GPGGA,143345.00,5546.52698,N,02334.24607,E,1,10,1.01,122.2,M,27.0,M,,*5C
$GPGSA,A,3,32,09,19,11,14,03,28,22,06,26,,,2.66,1.01,2.46*0E
$GPGSV,3,1,10,32,22,228,32,09,12,037,28,19,58,203,39,11,36,285,33*72
$GPGSV,3,2,10,14,45,118,34,03,31,183,28,28,19,317,31,22,47,070,41*77
$GPGSV,3,3,10,06,26,174,32,26,44,080,38*7E
$GPGLL,5546.52698,N,02334.24607,E,143345.00,A,A*6E
$GPZDA,143345.00,09,12,2009,00,00*63
$GPRMC,143345.50,A,5546.52259,N,02334.23909,E,42.434,221.88,091209,,,A*54
$GPVTG,221.88,T,,M,42.434,N,78.630,K,A*33
$GPGGA,143345.50,5546.52259,N,02334.23909,E,1,10,1.01,122.1,M,27.0,M,,*55
$GPGSA,A,3,32,09,19,11,14,03,28,22,06,26,,,2.66,1.01,2.46*0E
$GPGSV,3,1,10,32,22,228,32,09,12,037,27,19,58,203,39,11,36,285,32*7C
$GPGSV,3,2,10,14,45,118,33,03,31,183,28,28,19,317,31,22,47,070,41*70
$GPGSV,3,3,10,06,26,174,32,26,44,080,37*71
$GPGLL,5546.52259,N,02334.23909,E,143345.50,A,A*64
$GPZDA,143345.50,09,12,2009,00,00*66
$GPRMC,143346.00,A,5546.51820,N,02334.23212,E,42.324,221.82,091209,,,A*58
$GPVTG,221.82,T,,M,42.324,N,78.426,K,A*3A
$GPGGA,143346.00,5546.51820,N,02334.23212,E,1,10,1.26,122.2,M,27.0,M,,*53
$GPGSA,A,3,32,09,19,11,14,03,28,22,06,26,,,3.26,1.26,3.01*0C
$GPGSV,3,1,10,32,22,228,31,09,12,037,27,19,58,203,38,11,36,285,32*7E
$GPGSV,3,2,10,14,45,118,33,03,31,183,28,28,19,317,30,22,47,070,40*70
$GPGSV,3,3,10,06,26,174,32,26,44,080,37*71
$GPGLL,5546.51820,N,02334.23212,E,143346.00,A,A*64
$GPZDA,143346.00,09,12,2009,00,00*60
$GPRMC,143346.50,A,5546.51382,N,02334.22519,E,42.016,221.97,091209,,,A*55
$GPVTG,221.97,T,,M,42.016,N,77.855,K,A*3B
$GPGGA,143346.50,5546.51382,N,02334.22519,E,1,10,1.26,122.2,M,27.0,M,,*58
$GPGSA,A,3,32,09,19,11,14,03,28,22,06,26,,,3.26,1.26,3.01*0C
$GPGSV,3,1,10,32,22,228,30,09,12,037,28,19,58,203,39,11,36,285,33*70
$GPGSV,3,2,10,14,45,118,33,03,31,183,28,28,19,317,30,22,47,070,40*70
$GPGSV,3,3,10,06,26,174,32,26,44,080,38*7E
$GPGLL,5546.51382,N,02334.22519,E,143346.50,A,A*6F
$GPZDA,143346.50,09,12,2009,00,00*65
$GPRMC,143347.00,A,5546.50947,N,02334.21831,E,41.750,221.78,091209,,,A*50
$GPVTG,221.78,T,,M,41.750,N,77.363,K,A*32
$GPGGA,143347.00,5546.50947,N,02334.21831,E,1,10,1.26,122.2,M,27.0,M,,*5A
$GPGSA,A,3,32,09,19,11,14,03,28,22,06,26,,,3.26,1.26,3.01*0C
$GPGSV,3,1,10,32,22,228,31,09,12,037,28,19,58,203,39,11,36,285,33*71
$GPGSV,3,2,10,14,45,118,33,03,31,183,28,28,19,317,30,22,47,070,41*71
$GPGSV,3,3,10,06,26,174,32,26,44,080,38*7E
$GPGLL,5546.50947,N,02334.21831,E,143347.00,A,A*6D
$GPZDA,143347.00,09,12,2009,00,00*61
$GPRMC,143347.50,A,5546.50515,N,02334.21149,E,41.450,221.70,091209,,,A*53
$GPVTG,221.70,T,,M,41.450,N,76.806,K,A*30
$GPGGA,143347.50,5546.50515,N,02334.21149,E,1,10,1.90,122.2,M,27.0,M,,*5F
$GPGSA,A,3,32,09,19,11,14,03,28,22,06,26,,,3.58,1.90,3.04*0D
$GPGSV,3,1,10,32,22,228,31,09,12,037,28,19,58,203,39,11,36,285,33*71
$GPGSV,3,2,10,14,45,118,33,03,31,183,28,28,19,317,30,22,47,070,40*70
$GPGSV,3,3,10,06,26,174,32,26,44,080,38*7E
$GPGLL,5546.50515,N,02334.21149,E,143347.50,A,A*65
$GPZDA,143347.50,09,12,2009,00,00*64
$GPRMC,143348.00,A,5546.50086,N,02334.20472,E,41.139,221.46,091209,,,A*55
$GPVTG,221.46,T,,M,41.139,N,76.231,K,A*31
$GPGGA,143348.00,5546.50086,N,02334.20472,E,1,10,1.26,122.2,M,27.0,M,,*5B
$GPGSA,A,3,32,09,19,11,14,03,28,22,06,26,,,3.26,1.26,3.01*0C
$GPGSV,3,1,10,32,22,228,30,09,12,037,27,19,58,203,38,11,36,285,33*7E
$GPGSV,3,2,10,14,45,118,33,03,31,183,27,28,19,317,30,22,47,070,41*7E
$GPGSV,3,3,10,06,26,174,32,26,44,080,38*7E
$GPGLL,5546.50086,N,02334.20472,E,143348.00,A,A*6C
$GPZDA,143348.00,09,12,2009,00,00*6E
$GPRMC,143348.50,A,5546.49657,N,02334.19806,E,40.840,221.86,091209,,,A*5D
$GPVTG,221.86,T,,M,40.840,N,75.676,K,A*3F
$GPGGA,143348.50,5546.49657,N,02334.19806,E,1,10,1.26,122.2,M,27.0,M,,*59
$GPGSA,A,3,32,09,19,11,14,03,28,22,06,26,,,3.26,1.26,3.01*0C
$GPGSV,3,1,10,32,22,228,31,09,12,037,28,19,58,203,38,11,36,285,33*70
$GPGSV,3,2,10,14,45,118,33,03,31,183,27,28,19,317,30,22,47,070,40*7F
$GPGSV,3,3,10,06,26,174,32,26,44,080,37*71
$GPGLL,5546.49657,N,02334.19806,E,143348.50,A,A*6E
$GPZDA,143348.50,09,12,2009,00,00*6B
$GPRMC,143349.00,A,5546.49236,N,02334.19138,E,40.570,221.54,091209,,,A*5F
$GPVTG,221.54,T,,M,40.570,N,75.176,K,A*39
$GPGGA,143349.00,5546.49236,N,02334.19138,E,1,10,1.26,122.3,M,27.0,M,,*5B
$GPGSA,A,3,32,09,19,11,14,03,28,22,06,26,,,3.26,1.26,3.01*0C
$GPGSV,3,1,10,32,22,228,31,09,12,037,28,19,58,203,39,11,36,285,34*76
$GPGSV,3,2,10,14,45,118,32,03,31,183,28,28,19,317,30,22,47,070,41*70
$GPGSV,3,3,10,06,26,174,32,26,44,080,38*7E
$GPGLL,5546.49236,N,02334.19138,E,143349.00,A,A*6D
$GPZDA,143349.00,09,12,2009,00,00*6F
$GPRMC,143349.50,A,5546.48814,N,02334.18482,E,40.283,221.44,091209,,,A*5E
$GPVTG,221.44,T,,M,40.283,N,74.645,K,A*35
$GPGGA,143349.50,5546.48814,N,02334.18482,E,1,10,1.26,122.3,M,27.0,M,,*50
$GPGSA,A,3,32,09,19,11,14,03,28,22,06,26,,,3.26,1.26,3.01*0C
$GPGSV,3,1,10,32,22,228,31,09,12,037,27,19,58,203,39,11,36,285,34*79
$GPGSV,3,2,10,14,45,118,33,03,31,183,28,28,19,317,30,22,47,070,41*71
$GPGSV,3,3,10,06,26,174,32,26,44,080,38*7E
$GPGLL,5546.48814,N,02334.18482,E,143349.50,A,A*66
$GPZDA,143349.50,09,12,2009,00,00*6A
$GPRMC,143350.00,A,5546.48395,N,02334.17830,E,39.946,221.60,091209,,,A*51
$GPVTG,221.60,T,,M,39.946,N,74.020,K,A*3A
$GPGGA,143350.00,5546.48395,N,02334.17830,E,1,10,1.26,122.3,M,27.0,M,,*55
$GPGSA,A,3,32,09,19,11,14,03,28,22,06,26,,,3.26,1.26,3.01*0C
$GPGSV,3,1,10,32,22,228,31,09,12,037,27,19,58,203,39,11,36,285,34*79
$GPGSV,3,2,10,14,45,118,32,03,31,183,27,28,19,317,30,22,47,070,41*7F
$GPGSV,3,3,10,06,26,174,32,26,44,080,38*7E
$GPGLL,5546.48395,N,02334.17830,E,143350.00,A,A*63
$GPZDA,143350.00,09,12,2009,00,00*67
$GPRMC,143350.50,A,5546.47981,N,02334.17183,E,39.607,221.50,091209,,,A*5C
$GPVTG,221.50,T,,M,39.607,N,73.391,K,A*3D
$GPGGA,143350.50,5546.47981,N,02334.17183,E,1,10,1.26,122.4,M,27.0,M,,*56
$GPGSA,A,3,32,09,19,11,14,03,28,22,06,26,,,3.26,1.26,3.01*0C
$GPGSV,3,1,10,32,22,228,31,09,12,037,27,19,58,203,38,11,36,285,33*7F
$GPGSV,3,2,10,14,45,118,32,03,31,183,28,28,19,317,29,22,47,070,40*79
$GPGSV,3,3,10,06,25,174,32,26,44,080,38*7D
$GPGLL,5546.47981,N,02334.17183,E,143350.50,A,A*67
$GPZDA,143350.50,09,12,2009,00,00*62
$GPRMC,143351.00,A,5546.47570,N,02334.16543,E,39.198,221.80,091209,,,A*5F
$GPVTG,221.80,T,,M,39.198,N,72.634,K,A*3A
$GPGGA,143351.00,5546.47570,N,02334.16543,E,1,10,1.26,122.5,M,27.0,M,,*58
$GPGSA,A,3,32,09,19,11,14,03,28,22,06,26,,,3.26,1.26,3.01*0C
$GPGSV,3,1,10,32,22,228,32,09,12,037,27,19,58,203,38,11,36,285,33*7C
$GPGSV,3,2,10,14,45,118,32,03,31,183,27,28,19,317,29,22,47,070,40*76
$GPGSV,3,3,10,06,25,174,33,26,44,080,38*7C
$GPGLL,5546.47570,N,02334.16543,E,143351.00,A,A*68
$GPZDA,143351.00,09,12,2009,00,00*66
$GPRMC,143351.50,A,5546.47167,N,02334.15908,E,38.658,221.91,091209,,,A*52
$GPVTG,221.91,T,,M,38.658,N,71.633,K,A*34
$GPGGA,143351.50,5546.47167,N,02334.15908,E,1,10,1.26,122.6,M,27.0,M,,*5C
$GPGSA,A,3,32,09,19,11,14,03,28,22,06,26,,,3.26,1.26,3.01*0C
$GPGSV,3,1,10,32,22,228,32,09,12,037,28,19,58,203,38,11,36,285,33*73
$GPGSV,3,2,10,14,45,118,33,03,31,183,28,28,19,317,29,22,47,070,40*78
$GPGSV,3,3,10,06,25,174,33,26,44,080,38*7C
$GPGLL,5546.47167,N,02334.15908,E,143351.50,A,A*6F
$GPZDA,143351.50,09,12,2009,00,00*63
$GPRMC,143352.00,A,5546.46768,N,02334.15280,E,38.178,222.25,091209,,,A*5E
$GPVTG,222.25,T,,M,38.178,N,70.744,K,A*3D
$GPGGA,143352.00,5546.46768,N,02334.15280,E,1,10,1.25,122.7,M,27.0,M,,*5B
$GPGSA,A,3,32,09,19,11,14,03,28,22,06,26,,,3.26,1.25,3.01*0F
$GPGSV,3,1,10,32,22,228,32,09,12,037,28,19,58,203,38,11,36,285,34*74
$GPGSV,3,2,10,14,45,118,32,03,31,183,28,28,19,317,29,22,47,070,40*79
$GPGSV,3,3,10,06,25,174,33,26,44,080,38*7C
$GPGLL,5546.46768,N,02334.15280,E,143352.00,A,A*6A
$GPZDA,143352.00,09,12,2009,00,00*65
$GPRMC,143352.50,A,5546.46376,N,02334.14654,E,37.932,221.95,091209,,,A*5D
$GPVTG,221.95,T,,M,37.932,N,70.288,K,A*39
$GPGGA,143352.50,5546.46376,N,02334.14654,E,1,10,1.26,122.8,M,27.0,M,,*55
$GPGSA,A,3,32,09,19,11,14,03,28,22,06,26,,,3.26,1.26,3.01*0C
$GPGSV,3,1,10,32,22,228,30,09,12,037,28,19,58,203,38,11,36,285,34*76
$GPGSV,3,2,10,14,45,118,32,03,31,183,28,28,19,317,29,22,47,070,40*79
$GPGSV,3,3,10,06,25,174,33,26,44,080,38*7C
$GPGLL,5546.46376,N,02334.14654,E,143352.50,A,A*68
$GPZDA,143352.50,09,12,2009,00,00*60
$GPRMC,143353.00,A,5546.45986,N,02334.14036,E,37.561,221.99,091209,,,A*5B
$GPVTG,221.99,T,,M,37.561,N,69.601,K,A*32
$GPGGA,143353.00,5546.45986,N,02334.14036,E,1,10,1.26,123.0,M,27.0,M,,*5C
$GPGSA,A,3,32,09,19,11,14,03,28,22,06,26,,,3.26,1.26,3.01*0C
$GPGSV,3,1,10,32,22,228,31,09,12,037,28,19,58,203,38,11,36,285,33*70
$GPGSV,3,2,10,14,45,118,32,03,31,183,29,28,19,317,29,22,47,070,40*78
$GPGSV,3,3,10,06,25,174,33,26,44,080,38*7C
$GPGLL,5546.45986,N,02334.14036,E,143353.00,A,A*68
$GPZDA,143353.00,09,12,2009,00,00*64
$GPRMC,143353.50,A,5546.45601,N,02334.13425,E,36.999,221.72,091209,,,A*50
$GPVTG,221.72,T,,M,36.999,N,68.559,K,A*32
$GPGGA,143353.50,5546.45601,N,02334.13425,E,1,10,1.26,123.1,M,27.0,M,,*59
$GPGSA,A,3,32,09,19,11,14,03,28,22,06,26,,,3.26,1.26,3.01*0C
$GPGSV,3,1,10,32,22,228,32,09,12,037,28,19,58,203,38,11,36,285,33*73
$GPGSV,3,2,10,14,45,118,33,03,31,183,28,28,19,317,29,22,47,070,40*78
$GPGSV,3,3,10,06,25,174,32,26,44,080,38*7D
$GPGLL,5546.45601,N,02334.13425,E,143353.50,A,A*6C
$GPZDA,143353.50,09,12,2009,00,00*61
$GPRMC,143354.00,A,5546.45220,N,02334.12827,E,36.320,221.89,091209,,,A*56
$GPVTG,221.89,T,,M,36.320,N,67.300,K,A*3B
$GPGGA,143354.00,5546.45220,N,02334.12827,E,1,10,1.26,123.3,M,27.0,M,,*51
$GPGSA,A,3,32,09,19,11,14,03,28,22,06,26,,,3.26,1.26,3.01*0C
$GPGSV,3,1,10,32,22,228,31,09,12,037,28,19,58,203,38,11,36,285,33*70
$GPGSV,3,2,10,14,45,118,32,03,31,183,28,28,19,317,29,22,47,070,40*79
$GPGSV,3,3,10,06,25,174,32,26,44,080,38*7D
$GPGLL,5546.45220,N,02334.12827,E,143354.00,A,A*66
$GPZDA,143354.00,09,12,2009,00,00*63
$GPRMC,143354.50,A,5546.44845,N,02334.12240,E,35.710,221.48,091209,,,A*59
$GPVTG,221.48,T,,M,35.710,N,66.170,K,A*36
$GPGGA,143354.50,5546.44845,N,02334.12240,E,1,10,1.26,123.5,M,27.0,M,,*51
$GPGSA,A,3,32,09,19,11,14,03,28,22,06,26,,,3.26,1.26,3.01*0C
$GPGSV,3,1,10,32,22,228,31,09,12,037,28,19,58,203,38,11,36,285,34*77
$GPGSV,3,2,10,14,45,118,33,03,31,183,28,28,19,317,29,22,47,070,40*78
$GPGSV,3,3,10,06,25,174,32,26,44,080,37*72
$GPGLL,5546.44845,N,02334.12240,E,143354.50,A,A*60
$GPZDA,143354.50,09,12,2009,00,00*66
$GPRMC,143355.00,A,5546.44478,N,02334.11667,E,34.871,221.47,091209,,,A*5B
$GPVTG,221.47,T,,M,34.871,N,64.615,K,A*36
$GPGGA,143355.00,5546.44478,N,02334.11667,E,1,10,1.25,123.5,M,27.0,M,,*56
$GPGSA,A,3,32,09,19,11,14,03,28,22,06,26,,,3.26,1.25,3.01*0F
$GPGSV,3,1,10,32,22,228,32,09,12,037,28,19,58,203,38,11,36,285,34*74
$GPGSV,3,2,10,14,45,118,33,03,31,183,28,28,19,317,29,22,47,070,40*78
$GPGSV,3,3,10,06,25,174,32,26,44,080,38*7D
$GPGLL,5546.44478,N,02334.11667,E,143355.00,A,A*64
$GPZDA,143355.00,09,12,2009,00,00*62
