$GPGSV,2,1,07,10,45,196,10,29,67,310,42,28,59,108,40,26,51,304,44*70
$GPGSV,2,2,07,08,44,058,43,27,16,066,37,21,10,301,00*4A
{"class":"SKY","tag":"MID4","time":"2005-06-19T16:12:25.890Z","satellites":[{"PRN":10,"el":45,"az":196,"ss":10,"used":false},{"PRN":29,"el":67,"az":310,"ss":42,"used":false},{"PRN":28,"el":59,"az":108,"ss":40,"used":false},{"PRN":26,"el":51,"az":304,"ss":44,"used":false},{"PRN":8,"el":44,"az":58,"ss":43,"used":false},{"PRN":27,"el":16,"az":66,"ss":37,"used":false},{"PRN":21,"el":10,"az":301,"ss":0,"used":false}]}
$GPZDA,161225.89,19,06,2005,00,00*6D
$GPGGA,161225,4629.8923,N,00734.0837,E,1,05,3.20,1327.69,M,48.183,M,,*7E
$GPRMC,161225,A,4629.8923,N,00734.0837,E,0.1673,180.000,190605,,*2A
$GPGSA,A,3,29,28,26,08,27,,,,,,,,0.0,3.2,0.0*3B
{"class":"TPV","tag":"MID2","mode":3,"time":"2005-06-19T16:12:25.890Z","ept":0.005,"lat":46.498204497,"lon":7.568061439,"alt":1327.689,"track":180.0000,"speed":0.086,"climb":-0.091}
$GPGSV,2,1,07,10,45,196,08,29,67,310,41,28,59,108,40,26,51,304,43*7D
$GPGSV,2,2,07,08,44,058,42,27,16,066,36,21,10,301,00*4A
{"class":"SKY","tag":"MID4","time":"2005-06-19T16:12:26.890Z","xdop":1.02,"ydop":1.14,"vdop":5.41,"tdop":4.30,"hdop":3.20,"gdop":7.08,"pdop":5.62,"satellites":[{"PRN":10,"el":45,"az":196,"ss":8,"used":false},{"PRN":29,"el":67,"az":310,"ss":41,"used":true},{"PRN":28,"el":59,"az":108,"ss":40,"used":true},{"PRN":26,"el":51,"az":304,"ss":43,"used":true},{"PRN":8,"el":44,"az":58,"ss":42,"used":true},{"PRN":27,"el":16,"az":66,"ss":36,"used":true},{"PRN":21,"el":10,"az":301,"ss":0,"used":false}]}
$GPZDA,161226.89,19,06,2005,00,00*6E
$GPGGA,161226,4629.8923,N,00734.0837,E,1,05,3.20,1327.69,M,48.183,M,,*7D
$GPRMC,161226,A,4629.8923,N,00734.0837,E,0.1776,10.380,190605,,*1E
$GPGSA,A,3,29,28,26,08,27,,,,,,,,5.6,3.2,5.4*39
{"class":"TPV","tag":"MID2","mode":3,"time":"2005-06-19T16:12:26.890Z","ept":0.005,"lat":46.498204497,"lon":7.568061439,"alt":1327.689,"epx":15.319,"epy":17.054,"epv":124.484,"track":10.3797,"speed":0.091,"climb":-0.085,"eps":34.11}
$GPGSV,2,1,07,10,45,196,33,29,67,310,42,28,59,108,42,26,51,304,43*74
$GPGSV,2,2,07,08,44,058,44,27,16,066,36,21,10,301,00*4C
{"class":"SKY","tag":"MID4","time":"2005-06-19T16:12:27.890Z","xdop":1.02,"ydop":1.14,"vdop":5.41,"tdop":4.30,"hdop":3.20,"gdop":7.08,"pdop":5.62,"satellites":[{"PRN":10,"el":45,"az":196,"ss":33,"used":false},{"PRN":29,"el":67,"az":310,"ss":42,"used":true},{"PRN":28,"el":59,"az":108,"ss":42,"used":true},{"PRN":26,"el":51,"az":304,"ss":43,"used":true},{"PRN":8,"el":44,"az":58,"ss":44,"used":true},{"PRN":27,"el":16,"az":66,"ss":36,"used":true},{"PRN":21,"el":10,"az":301,"ss":0,"used":false}]}
$GPZDA,161227.89,19,06,2005,00,00*6F
$GPGGA,161227,4629.8923,N,00734.0837,E,1,06,1.40,1327.69,M,48.183,M,,*7B
$GPRMC,161227,A,4629.8923,N,00734.0837,E,0.1673,180.000,190605,,*28
$GPGSA,A,3,10,29,28,26,08,27,,,,,,,5.6,1.4,5.4*3C
{"class":"TPV","tag":"MID2","mode":3,"time":"2005-06-19T16:12:27.890Z","ept":0.005,"lat":46.498204497,"lon":7.568061439,"alt":1327.689,"epx":15.319,"epy":17.054,"epv":124.484,"track":180.0000,"speed":0.086,"climb":-0.091,"eps":34.11}
$GPGSV,2,1,07,10,45,196,31,29,67,310,43,28,59,108,42,26,51,304,45*71
$GPGSV,2,2,07,08,44,058,46,27,16,066,42,21,10,301,00*4D
{"class":"SKY","tag":"MID4","time":"2005-06-19T16:12:28.890Z","xdop":1.02,"ydop":1.14,"vdop":5.41,"tdop":4.30,"hdop":1.40,"gdop":7.08,"pdop":5.62,"satellites":[{"PRN":10,"el":45,"az":196,"ss":31,"used":true},{"PRN":29,"el":67,"az":310,"ss":43,"used":true},{"PRN":28,"el":59,"az":108,"ss":42,"used":true},{"PRN":26,"el":51,"az":304,"ss":45,"used":true},{"PRN":8,"el":44,"az":58,"ss":46,"used":true},{"PRN":27,"el":16,"az":66,"ss":42,"used":true},{"PRN":21,"el":10,"az":301,"ss":0,"used":false}]}
$GPZDA,161228.89,19,06,2005,00,00*60
$GPGGA,161228,4629.8923,N,00734.0837,E,1,06,1.40,1327.69,M,48.183,M,,*74
$GPRMC,161228,A,4629.8923,N,00734.0837,E,0.0000,0.000,190605,,*2D
$GPGSA,A,3,10,29,28,26,08,27,,,,,,,5.6,1.4,5.4*3C
{"class":"TPV","tag":"MID2","mode":3,"time":"2005-06-19T16:12:28.890Z","ept":0.005,"lat":46.498204497,"lon":7.568061439,"alt":1327.689,"epx":15.319,"epy":17.054,"epv":124.484,"track":0.0000,"speed":0.000,"climb":0.000,"eps":34.11}
$GPGSV,2,1,07,10,45,196,33,29,67,310,40,28,59,108,41,26,51,304,43*75
$GPGSV,2,2,07,08,44,058,44,27,16,066,40,21,10,301,00*4D
{"class":"SKY","tag":"MID4","time":"2005-06-19T16:12:29.890Z","xdop":1.02,"ydop":1.14,"vdop":5.41,"tdop":4.30,"hdop":1.40,"gdop":7.08,"pdop":5.62,"satellites":[{"PRN":10,"el":45,"az":196,"ss":33,"used":true},{"PRN":29,"el":67,"az":310,"ss":40,"used":true},{"PRN":28,"el":59,"az":108,"ss":41,"used":true},{"PRN":26,"el":51,"az":304,"ss":43,"used":true},{"PRN":8,"el":44,"az":58,"ss":44,"used":true},{"PRN":27,"el":16,"az":66,"ss":40,"used":true},{"PRN":21,"el":10,"az":301,"ss":0,"used":false}]}
$GPZDA,161229.89,19,06,2005,00,00*61
$GPGGA,161229,4629.8919,N,00734.0837,E,1,06,1.40,1326.96,M,48.183,M,,*7D
$GPRMC,161229,A,4629.8919,N,00734.0837,E,0.1673,180.000,190605,,*2F
$GPGSA,A,3,10,29,28,26,08,27,,,,,,,5.6,1.4,5.4*3C
{"class":"TPV","tag":"MID2","mode":3,"time":"2005-06-19T16:12:29.890Z","ept":0.005,"lat":46.498198306,"lon":7.568061439,"alt":1326.964,"epx":15.319,"epy":17.054,"epv":124.484,"track":180.0000,"speed":0.086,"climb":-0.091,"eps":34.11}
$GPGSV,2,1,07,10,45,196,34,29,67,310,40,28,59,108,43,26,51,304,43*70
$GPGSV,2,2,07,08,44,058,42,27,16,066,39,21,10,301,00*45
{"class":"SKY","tag":"MID4","time":"2005-06-19T16:12:30.890Z","xdop":1.02,"ydop":1.14,"vdop":5.41,"tdop":4.30,"hdop":1.40,"gdop":7.08,"pdop":5.62,"satellites":[{"PRN":10,"el":45,"az":196,"ss":34,"used":true},{"PRN":29,"el":67,"az":310,"ss":40,"used":true},{"PRN":28,"el":59,"az":108,"ss":43,"used":true},{"PRN":26,"el":51,"az":304,"ss":43,"used":true},{"PRN":8,"el":44,"az":58,"ss":42,"used":true},{"PRN":27,"el":16,"az":66,"ss":39,"used":true},{"PRN":21,"el":10,"az":301,"ss":0,"used":false}]}
$GPZDA,161230.89,19,06,2005,00,00*69
$GPGGA,161230,4629.8919,N,00734.0837,E,1,06,1.40,1326.96,M,48.183,M,,*75
$GPRMC,161230,A,4629.8919,N,00734.0837,E,0.0000,0.000,190605,,*2D
$GPGSA,A,3,10,29,28,26,08,27,,,,,,,5.6,1.4,5.4*3C
{"class":"TPV","tag":"MID2","mode":3,"time":"2005-06-19T16:12:30.890Z","ept":0.005,"lat":46.498198306,"lon":7.568061439,"alt":1326.964,"epx":15.319,"epy":17.054,"epv":124.484,"track":0.0000,"speed":0.000,"climb":0.000,"eps":34.11}
$GPGSV,2,1,07,10,45,196,35,29,67,310,39,28,59,108,43,26,51,304,43*7F
$GPGSV,2,2,07,08,44,058,42,27,16,066,38,21,10,301,00*44
{"class":"SKY","tag":"MID4","time":"2005-06-19T16:12:31.890Z","xdop":1.02,"ydop":1.14,"vdop":5.41,"tdop":4.30,"hdop":1.40,"gdop":7.08,"pdop":5.62,"satellites":[{"PRN":10,"el":45,"az":196,"ss":35,"used":true},{"PRN":29,"el":67,"az":310,"ss":39,"used":true},{"PRN":28,"el":59,"az":108,"ss":43,"used":true},{"PRN":26,"el":51,"az":304,"ss":43,"used":true},{"PRN":8,"el":44,"az":58,"ss":42,"used":true},{"PRN":27,"el":16,"az":66,"ss":38,"used":true},{"PRN":21,"el":10,"az":301,"ss":0,"used":false}]}
$GPZDA,161231.89,19,06,2005,00,00*68
$GPGGA,161231,4629.8919,N,00734.0837,E,1,06,1.40,1326.96,M,48.183,M,,*74
$GPRMC,161231,A,4629.8919,N,00734.0837,E,0.0000,0.000,190605,,*2C
$GPGSA,A,3,10,29,28,26,08,27,,,,,,,5.6,1.4,5.4*3C
{"class":"TPV","tag":"MID2","mode":3,"time":"2005-06-19T16:12:31.890Z","ept":0.005,"lat":46.498198306,"lon":7.568061439,"alt":1326.964,"epx":15.319,"epy":17.054,"epv":124.484,"track":0.0000,"speed":0.000,"climb":0.000,"eps":34.11}
$GPGSV,2,1,07,10,45,196,37,29,67,310,40,28,59,108,45,26,51,304,42*74
$GPGSV,2,2,07,08,44,058,42,27,16,066,38,21,10,301,00*44
{"class":"SKY","tag":"MID4","time":"2005-06-19T16:12:32.890Z","xdop":1.02,"ydop":1.14,"vdop":5.41,"tdop":4.30,"hdop":1.40,"gdop":7.08,"pdop":5.62,"satellites":[{"PRN":10,"el":45,"az":196,"ss":37,"used":true},{"PRN":29,"el":67,"az":310,"ss":40,"used":true},{"PRN":28,"el":59,"az":108,"ss":45,"used":true},{"PRN":26,"el":51,"az":304,"ss":42,"used":true},{"PRN":8,"el":44,"az":58,"ss":42,"used":true},{"PRN":27,"el":16,"az":66,"ss":38,"used":true},{"PRN":21,"el":10,"az":301,"ss":0,"used":false}]}
$GPZDA,161232.89,19,06,2005,00,00*6B
$GPGGA,161232,4629.8919,N,00734.0837,E,1,06,1.40,1326.96,M,48.183,M,,*77
$GPRMC,161232,A,4629.8919,N,00734.0837,E,0.0000,0.000,190605,,*2F
$GPGSA,A,3,10,29,28,26,08,27,,,,,,,5.6,1.4,5.4*3C
{"class":"TPV","tag":"MID2","mode":3,"time":"2005-06-19T16:12:32.890Z","ept":0.005,"lat":46.498198306,"lon":7.568061439,"alt":1326.964,"epx":15.319,"epy":17.054,"epv":124.484,"track":0.0000,"speed":0.000,"climb":0.000,"eps":34.11}
$GPGSV,2,1,07,10,45,196,37,29,67,310,41,28,59,108,44,26,51,304,43*75
$GPGSV,2,2,07,08,44,058,42,27,16,066,38,21,10,301,00*44
{"class":"SKY","tag":"MID4","time":"2005-06-19T16:12:33.890Z","xdop":1.02,"ydop":1.14,"vdop":5.41,"tdop":4.30,"hdop":1.40,"gdop":7.08,"pdop":5.62,"satellites":[{"PRN":10,"el":45,"az":196,"ss":37,"used":true},{"PRN":29,"el":67,"az":310,"ss":41,"used":true},{"PRN":28,"el":59,"az":108,"ss":44,"used":true},{"PRN":26,"el":51,"az":304,"ss":43,"used":true},{"PRN":8,"el":44,"az":58,"ss":42,"used":true},{"PRN":27,"el":16,"az":66,"ss":38,"used":true},{"PRN":21,"el":10,"az":301,"ss":0,"used":false}]}
$GPZDA,161233.89,19,06,2005,00,00*6A
$GPGGA,161233,4629.8918,N,00734.0845,E,1,06,1.40,1327.05,M,48.183,M,,*79
$GPRMC,161233,A,4629.8918,N,00734.0845,E,0.0000,0.000,190605,,*2A
$GPGSA,A,3,10,29,28,26,08,27,,,,,,,5.6,1.4,5.4*3C
{"class":"TPV","tag":"MID2","mode":3,"time":"2005-06-19T16:12:33.890Z","ept":0.005,"lat":46.498197446,"lon":7.568074350,"alt":1327.054,"epx":15.319,"epy":17.054,"epv":124.484,"track":0.0000,"speed":0.000,"climb":0.000,"eps":34.11}
$GPGSV,2,1,07,10,45,196,36,29,67,310,40,28,59,108,43,26,51,304,42*73
$GPGSV,2,2,07,08,44,058,42,27,16,066,38,21,10,301,00*44
{"class":"SKY","tag":"MID4","time":"2005-06-19T16:12:34.890Z","xdop":1.02,"ydop":1.14,"vdop":5.41,"tdop":4.30,"hdop":1.40,"gdop":7.08,"pdop":5.62,"satellites":[{"PRN":10,"el":45,"az":196,"ss":36,"used":true},{"PRN":29,"el":67,"az":310,"ss":40,"used":true},{"PRN":28,"el":59,"az":108,"ss":43,"used":true},{"PRN":26,"el":51,"az":304,"ss":42,"used":true},{"PRN":8,"el":44,"az":58,"ss":42,"used":true},{"PRN":27,"el":16,"az":66,"ss":38,"used":true},{"PRN":21,"el":10,"az":301,"ss":0,"used":false}]}
$GPZDA,161234.89,19,06,2005,00,00*6D
$GPGGA,161234,4629.8918,N,00734.0845,E,1,06,1.40,1327.05,M,48.183,M,,*7E
$GPRMC,161234,A,4629.8918,N,00734.0845,E,0.0000,0.000,190605,,*2D
$GPGSA,A,3,10,29,28,26,08,27,,,,,,,5.6,1.4,5.4*3C
{"class":"TPV","tag":"MID2","mode":3,"time":"2005-06-19T16:12:34.890Z","ept":0.005,"lat":46.498197446,"lon":7.568074350,"alt":1327.054,"epx":15.319,"epy":17.054,"epv":124.484,"track":0.0000,"speed":0.000,"climb":0.000,"eps":34.11}
$GPGSV,2,1,07,10,45,196,35,29,67,310,40,28,59,108,43,26,51,304,41*73
$GPGSV,2,2,07,08,44,058,41,27,16,066,39,21,10,301,00*46
{"class":"SKY","tag":"MID4","time":"2005-06-19T16:12:35.890Z","xdop":1.02,"ydop":1.14,"vdop":5.41,"tdop":4.30,"hdop":1.40,"gdop":7.08,"pdop":5.62,"satellites":[{"PRN":10,"el":45,"az":196,"ss":35,"used":true},{"PRN":29,"el":67,"az":310,"ss":40,"used":true},{"PRN":28,"el":59,"az":108,"ss":43,"used":true},{"PRN":26,"el":51,"az":304,"ss":41,"used":true},{"PRN":8,"el":44,"az":58,"ss":41,"used":true},{"PRN":27,"el":16,"az":66,"ss":39,"used":true},{"PRN":21,"el":10,"az":301,"ss":0,"used":false}]}
$GPZDA,161235.89,19,06,2005,00,00*6C
$GPGGA,161235,4629.8918,N,00734.0845,E,1,06,1.40,1327.05,M,48.183,M,,*7F
$GPRMC,161235,A,4629.8918,N,00734.0845,E,0.0000,0.000,190605,,*2C
$GPGSA,A,3,10,29,28,26,08,27,,,,,,,5.6,1.4,5.4*3C
{"class":"TPV","tag":"MID2","mode":3,"time":"2005-06-19T16:12:35.890Z","ept":0.005,"lat":46.498197446,"lon":7.568074350,"alt":1327.054,"epx":15.319,"epy":17.054,"epv":124.484,"track":0.0000,"speed":0.000,"climb":0.000,"eps":34.11}
$GPGSV,2,1,07,10,45,196,34,29,67,310,40,28,59,108,43,26,51,304,42*71
$GPGSV,2,2,07,08,44,058,41,27,16,066,39,21,10,301,00*46
{"class":"SKY","tag":"MID4","time":"2005-06-19T16:12:36.890Z","xdop":1.02,"ydop":1.14,"vdop":5.41,"tdop":4.30,"hdop":1.40,"gdop":7.08,"pdop":5.62,"satellites":[{"PRN":10,"el":45,"az":196,"ss":34,"used":true},{"PRN":29,"el":67,"az":310,"ss":40,"used":true},{"PRN":28,"el":59,"az":108,"ss":43,"used":true},{"PRN":26,"el":51,"az":304,"ss":42,"used":true},{"PRN":8,"el":44,"az":58,"ss":41,"used":true},{"PRN":27,"el":16,"az":66,"ss":39,"used":true},{"PRN":21,"el":10,"az":301,"ss":0,"used":false}]}
$GPZDA,161236.89,19,06,2005,00,00*6F
$GPGGA,161236,4629.8918,N,00734.0845,E,1,06,1.40,1327.05,M,48.183,M,,*7C
$GPRMC,161236,A,4629.8918,N,00734.0845,E,0.0000,0.000,190605,,*2F
$GPGSA,A,3,10,29,28,26,08,27,,,,,,,5.6,1.4,5.4*3C
{"class":"TPV","tag":"MID2","mode":3,"time":"2005-06-19T16:12:36.890Z","ept":0.005,"lat":46.498197446,"lon":7.568074350,"alt":1327.054,"epx":15.319,"epy":17.054,"epv":124.484,"track":0.0000,"speed":0.000,"climb":0.000,"eps":34.11}
$GPGSV,2,1,07,10,45,196,33,29,67,310,40,28,59,108,44,26,51,304,42*71
$GPGSV,2,2,07,08,44,058,41,27,16,066,38,21,10,301,00*47
{"class":"SKY","tag":"MID4","time":"2005-06-19T16:12:37.890Z","xdop":1.02,"ydop":1.14,"vdop":5.41,"tdop":4.30,"hdop":1.40,"gdop":7.08,"pdop":5.62,"satellites":[{"PRN":10,"el":45,"az":196,"ss":33,"used":true},{"PRN":29,"el":67,"az":310,"ss":40,"used":true},{"PRN":28,"el":59,"az":108,"ss":44,"used":true},{"PRN":26,"el":51,"az":304,"ss":42,"used":true},{"PRN":8,"el":44,"az":58,"ss":41,"used":true},{"PRN":27,"el":16,"az":66,"ss":38,"used":true},{"PRN":21,"el":10,"az":301,"ss":0,"used":false}]}
$GPZDA,161237.89,19,06,2005,00,00*6E
$GPGGA,161237,4629.8922,N,00734.0845,E,1,06,1.40,1327.78,M,48.183,M,,*7E
$GPRMC,161237,A,4629.8922,N,00734.0845,E,0.0000,0.000,190605,,*27
$GPGSA,A,3,10,29,28,26,08,27,,,,,,,5.6,1.4,5.4*3C
{"class":"TPV","tag":"MID2","mode":3,"time":"2005-06-19T16:12:37.890Z","ept":0.005,"lat":46.498203638,"lon":7.568074350,"alt":1327.780,"epx":15.319,"epy":17.054,"epv":124.484,"track":0.0000,"speed":0.000,"climb":0.000,"eps":34.11}
$GPGSV,2,1,07,10,45,196,34,29,67,310,40,28,59,108,43,26,51,304,43*70
$GPGSV,2,2,07,08,44,058,41,27,16,066,40,21,10,301,00*48
{"class":"SKY","tag":"MID4","time":"2005-06-19T16:12:38.890Z","xdop":1.02,"ydop":1.14,"vdop":5.41,"tdop":4.30,"hdop":1.40,"gdop":7.08,"pdop":5.62,"satellites":[{"PRN":10,"el":45,"az":196,"ss":34,"used":true},{"PRN":29,"el":67,"az":310,"ss":40,"used":true},{"PRN":28,"el":59,"az":108,"ss":43,"used":true},{"PRN":26,"el":51,"az":304,"ss":43,"used":true},{"PRN":8,"el":44,"az":58,"ss":41,"used":true},{"PRN":27,"el":16,"az":66,"ss":40,"used":true},{"PRN":21,"el":10,"az":301,"ss":0,"used":false}]}
$GPZDA,161238.89,19,06,2005,00,00*61
$GPGGA,161238,4629.8922,N,00734.0845,E,1,06,1.40,1327.78,M,48.183,M,,*71
$GPRMC,161238,A,4629.8922,N,00734.0845,E,0.0000,0.000,190605,,*28
$GPGSA,A,3,10,29,28,26,08,27,,,,,,,5.6,1.4,5.4*3C
{"class":"TPV","tag":"MID2","mode":3,"time":"2005-06-19T16:12:38.890Z","ept":0.005,"lat":46.498203638,"lon":7.568074350,"alt":1327.780,"epx":15.319,"epy":17.054,"epv":124.484,"track":0.0000,"speed":0.000,"climb":0.000,"eps":34.11}
$GPGSV,2,1,07,10,45,196,34,29,67,310,40,28,59,108,43,26,51,304,44*77
$GPGSV,2,2,07,08,44,058,41,27,16,066,40,21,10,301,00*48
{"class":"SKY","tag":"MID4","time":"2005-06-19T16:12:39.890Z","xdop":1.02,"ydop":1.14,"vdop":5.41,"tdop":4.30,"hdop":1.40,"gdop":7.08,"pdop":5.62,"satellites":[{"PRN":10,"el":45,"az":196,"ss":34,"used":true},{"PRN":29,"el":67,"az":310,"ss":40,"used":true},{"PRN":28,"el":59,"az":108,"ss":43,"used":true},{"PRN":26,"el":51,"az":304,"ss":44,"used":true},{"PRN":8,"el":44,"az":58,"ss":41,"used":true},{"PRN":27,"el":16,"az":66,"ss":40,"used":true},{"PRN":21,"el":10,"az":301,"ss":0,"used":false}]}
$GPZDA,161239.89,19,06,2005,00,00*60
$GPGGA,161239,4629.8922,N,00734.0845,E,1,06,1.40,1327.78,M,48.183,M,,*70
$GPRMC,161239,A,4629.8922,N,00734.0845,E,0.0000,0.000,190605,,*29
$GPGSA,A,3,10,29,28,26,08,27,,,,,,,5.6,1.4,5.4*3C
{"class":"TPV","tag":"MID2","mode":3,"time":"2005-06-19T16:12:39.890Z","ept":0.005,"lat":46.498203638,"lon":7.568074350,"alt":1327.780,"epx":15.319,"epy":17.054,"epv":124.484,"track":0.0000,"speed":0.000,"climb":0.000,"eps":34.11}
$GPGSV,2,1,07,10,45,196,34,29,67,310,40,28,59,108,43,26,51,304,44*77
$GPGSV,2,2,07,08,44,058,42,27,16,066,40,21,10,301,00*4B
{"class":"SKY","tag":"MID4","time":"2005-06-19T16:12:40.890Z","xdop":1.02,"ydop":1.14,"vdop":5.41,"tdop":4.30,"hdop":1.40,"gdop":7.08,"pdop":5.62,"satellites":[{"PRN":10,"el":45,"az":196,"ss":34,"used":true},{"PRN":29,"el":67,"az":310,"ss":40,"used":true},{"PRN":28,"el":59,"az":108,"ss":43,"used":true},{"PRN":26,"el":51,"az":304,"ss":44,"used":true},{"PRN":8,"el":44,"az":58,"ss":42,"used":true},{"PRN":27,"el":16,"az":66,"ss":40,"used":true},{"PRN":21,"el":10,"az":301,"ss":0,"used":false}]}
$GPZDA,161240.89,19,06,2005,00,00*6E
$GPGGA,161240,4629.8925,N,00734.0852,E,1,06,1.40,1328.60,M,48.183,M,,*79
$GPRMC,161240,A,4629.8925,N,00734.0852,E,0.0000,0.000,190605,,*26
$GPGSA,A,3,10,29,28,26,08,27,,,,,,,5.6,1.4,5.4*3C
{"class":"TPV","tag":"MID2","mode":3,"time":"2005-06-19T16:12:40.890Z","ept":0.005,"lat":46.498208970,"lon":7.568087260,"alt":1328.596,"epx":15.319,"epy":17.054,"epv":124.484,"track":0.0000,"speed":0.000,"climb":0.000,"eps":34.11}
$GPGSV,2,1,07,10,45,196,31,29,67,310,37,28,59,108,38,26,51,304,41*7B
$GPGSV,2,2,07,08,44,058,39,27,16,066,37,21,10,301,00*47
{"class":"SKY","tag":"MID4","time":"2005-06-19T16:12:41.890Z","xdop":1.02,"ydop":1.14,"vdop":5.41,"tdop":4.30,"hdop":1.40,"gdop":7.08,"pdop":5.62,"satellites":[{"PRN":10,"el":45,"az":196,"ss":31,"used":true},{"PRN":29,"el":67,"az":310,"ss":37,"used":true},{"PRN":28,"el":59,"az":108,"ss":38,"used":true},{"PRN":26,"el":51,"az":304,"ss":41,"used":true},{"PRN":8,"el":44,"az":58,"ss":39,"used":true},{"PRN":27,"el":16,"az":66,"ss":37,"used":true},{"PRN":21,"el":10,"az":301,"ss":0,"used":false}]}
$GPZDA,161241.89,19,06,2005,00,00*6F
$GPGGA,161241,4629.8925,N,00734.0852,E,1,06,1.40,1328.60,M,48.183,M,,*78
$GPRMC,161241,A,4629.8925,N,00734.0852,E,0.1776,190.380,190605,,*23
$GPGSA,A,3,10,29,28,26,08,27,,,,,,,5.6,1.4,5.4*3C
{"class":"TPV","tag":"MID2","mode":3,"time":"2005-06-19T16:12:41.890Z","ept":0.005,"lat":46.498208970,"lon":7.568087260,"alt":1328.596,"epx":15.319,"epy":17.054,"epv":124.484,"track":190.3797,"speed":0.091,"climb":0.085,"eps":34.11}
$GPGSV,2,1,07,10,45,196,41,29,67,310,43,28,59,108,39,26,51,304,44*7B
$GPGSV,2,2,07,08,44,058,39,27,16,066,21,21,10,301,00*40
{"class":"SKY","tag":"MID4","time":"2005-06-19T16:12:42.890Z","xdop":1.02,"ydop":1.14,"vdop":5.41,"tdop":4.30,"hdop":1.40,"gdop":7.08,"pdop":5.62,"satellites":[{"PRN":10,"el":45,"az":196,"ss":41,"used":true},{"PRN":29,"el":67,"az":310,"ss":43,"used":true},{"PRN":28,"el":59,"az":108,"ss":39,"used":true},{"PRN":26,"el":51,"az":304,"ss":44,"used":true},{"PRN":8,"el":44,"az":58,"ss":39,"used":true},{"PRN":27,"el":16,"az":66,"ss":21,"used":true},{"PRN":21,"el":10,"az":301,"ss":0,"used":false}]}
$GPZDA,161242.89,19,06,2005,00,00*6C
$GPGGA,161242,4629.8929,N,00734.0852,E,1,06,1.40,1329.32,M,48.183,M,,*71
$GPRMC,161242,A,4629.8929,N,00734.0852,E,0.1673,0.000,190605,,*2B
$GPGSA,A,3,10,29,28,26,08,27,,,,,,,5.6,1.4,5.4*3C
{"class":"TPV","tag":"MID2","mode":3,"time":"2005-06-19T16:12:42.890Z","ept":0.005,"lat":46.498215161,"lon":7.568087260,"alt":1329.321,"epx":15.319,"epy":17.054,"epv":124.484,"track":0.0000,"speed":0.086,"climb":0.091,"eps":34.11}
$GPGSV,2,1,07,10,45,196,44,29,67,310,44,28,59,108,44,26,51,304,42*75
$GPGSV,2,2,07,08,44,058,42,27,16,066,36,21,10,301,00*4A
{"class":"SKY","tag":"MID4","time":"2005-06-19T16:12:43.890Z","xdop":1.02,"ydop":1.14,"vdop":5.41,"tdop":4.30,"hdop":1.40,"gdop":7.08,"pdop":5.62,"satellites":[{"PRN":10,"el":45,"az":196,"ss":44,"used":true},{"PRN":29,"el":67,"az":310,"ss":44,"used":true},{"PRN":28,"el":59,"az":108,"ss":44,"used":true},{"PRN":26,"el":51,"az":304,"ss":42,"used":true},{"PRN":8,"el":44,"az":58,"ss":42,"used":true},{"PRN":27,"el":16,"az":66,"ss":36,"used":true},{"PRN":21,"el":10,"az":301,"ss":0,"used":false}]}
$GPZDA,161243.89,19,06,2005,00,00*6D
$GPGGA,161243,4629.8933,N,00734.0853,E,1,06,1.40,1328.64,M,48.183,M,,*78
$GPRMC,161243,A,4629.8933,N,00734.0853,E,0.1673,0.000,190605,,*20
$GPGSA,A,3,10,29,28,26,08,27,,,,,,,5.6,1.4,5.4*3C
{"class":"TPV","tag":"MID2","mode":3,"time":"2005-06-19T16:12:43.890Z","ept":0.005,"lat":46.498221628,"lon":7.568088976,"alt":1328.639,"epx":15.319,"epy":17.054,"epv":124.484,"track":0.0000,"speed":0.086,"climb":0.091,"eps":34.11}
$GPGSV,2,1,07,10,45,196,44,29,67,310,44,28,59,108,45,26,51,304,43*75
$GPGSV,2,2,07,08,44,058,42,27,16,066,39,21,10,301,00*45
{"class":"SKY","tag":"MID4","time":"2005-06-19T16:12:44.890Z","xdop":1.02,"ydop":1.14,"vdop":5.41,"tdop":4.30,"hdop":1.40,"gdop":7.08,"pdop":5.62,"satellites":[{"PRN":10,"el":45,"az":196,"ss":44,"used":true},{"PRN":29,"el":67,"az":310,"ss":44,"used":true},{"PRN":28,"el":59,"az":108,"ss":45,"used":true},{"PRN":26,"el":51,"az":304,"ss":43,"used":true},{"PRN":8,"el":44,"az":58,"ss":42,"used":true},{"PRN":27,"el":16,"az":66,"ss":39,"used":true},{"PRN":21,"el":10,"az":301,"ss":0,"used":false}]}
$GPZDA,161244.89,19,06,2005,00,00*6A
$GPGGA,161244,4629.8933,N,00734.0853,E,1,06,1.40,1328.64,M,48.183,M,,*7F
$GPRMC,161244,A,4629.8933,N,00734.0853,E,0.2420,95.505,190605,,*1C
$GPGSA,A,3,10,29,28,26,08,27,,,,,,,5.6,1.4,5.4*3C
{"class":"TPV","tag":"MID2","mode":3,"time":"2005-06-19T16:12:44.890Z","ept":0.005,"lat":46.498221628,"lon":7.568088976,"alt":1328.639,"epx":15.319,"epy":17.054,"epv":124.484,"track":95.5047,"speed":0.124,"climb":0.011,"eps":34.11}
$GPGSV,2,1,07,10,45,196,43,29,67,312,46,28,59,108,45,26,51,304,43*72
$GPGSV,2,2,07,08,44,058,45,27,16,066,39,21,10,301,00*42
{"class":"SKY","tag":"MID4","time":"2005-06-19T16:12:45.890Z","xdop":1.02,"ydop":1.14,"vdop":5.41,"tdop":4.30,"hdop":1.40,"gdop":7.08,"pdop":5.62,"satellites":[{"PRN":10,"el":45,"az":196,"ss":43,"used":true},{"PRN":29,"el":67,"az":312,"ss":46,"used":true},{"PRN":28,"el":59,"az":108,"ss":45,"used":true},{"PRN":26,"el":51,"az":304,"ss":43,"used":true},{"PRN":8,"el":44,"az":58,"ss":45,"used":true},{"PRN":27,"el":16,"az":66,"ss":39,"used":true},{"PRN":21,"el":10,"az":301,"ss":0,"used":false}]}
$GPZDA,161245.89,19,06,2005,00,00*6B
$GPGGA,161245,4629.8933,N,00734.0853,E,1,06,1.40,1328.64,M,48.183,M,,*7E
$GPRMC,161245,A,4629.8933,N,00734.0853,E,0.1776,190.380,190605,,*21
$GPGSA,A,3,10,29,28,26,08,27,,,,,,,5.6,1.4,5.4*3C
{"class":"TPV","tag":"MID2","mode":3,"time":"2005-06-19T16:12:45.890Z","ept":0.005,"lat":46.498221628,"lon":7.568088976,"alt":1328.639,"epx":15.319,"epy":17.054,"epv":124.484,"track":190.3797,"speed":0.091,"climb":0.085,"eps":34.11}
$GPGSV,2,1,07,10,45,196,44,29,67,312,47,28,59,108,45,26,51,304,41*76
$GPGSV,2,2,07,08,44,058,46,27,16,066,40,21,10,301,00*4F
{"class":"SKY","tag":"MID4","time":"2005-06-19T16:12:46.890Z","xdop":1.02,"ydop":1.14,"vdop":5.41,"tdop":4.30,"hdop":1.40,"gdop":7.08,"pdop":5.62,"satellites":[{"PRN":10,"el":45,"az":196,"ss":44,"used":true},{"PRN":29,"el":67,"az":312,"ss":47,"used":true},{"PRN":28,"el":59,"az":108,"ss":45,"used":true},{"PRN":26,"el":51,"az":304,"ss":41,"used":true},{"PRN":8,"el":44,"az":58,"ss":46,"used":true},{"PRN":27,"el":16,"az":66,"ss":40,"used":true},{"PRN":21,"el":10,"az":301,"ss":0,"used":false}]}
$GPZDA,161246.89,19,06,2005,00,00*68
$GPGGA,161246,4629.8929,N,00734.0852,E,1,06,1.40,1329.32,M,48.183,M,,*75
$GPRMC,161246,A,4629.8929,N,00734.0852,E,0.1776,190.380,190605,,*28
$GPGSA,A,3,10,29,28,26,08,27,,,,,,,5.6,1.4,5.4*3C
{"class":"TPV","tag":"MID2","mode":3,"time":"2005-06-19T16:12:46.890Z","ept":0.005,"lat":46.498215161,"lon":7.568087260,"alt":1329.321,"epx":15.319,"epy":17.054,"epv":124.484,"track":190.3797,"speed":0.091,"climb":0.085,"eps":34.11}
$GPGSV,2,1,07,10,45,196,45,29,67,312,47,28,59,108,45,26,51,304,40*76
$GPGSV,2,2,07,08,44,058,46,27,16,066,38,21,10,301,00*40
{"class":"SKY","tag":"MID4","time":"2005-06-19T16:12:47.890Z","xdop":1.02,"ydop":1.14,"vdop":5.41,"tdop":4.30,"hdop":1.40,"gdop":7.08,"pdop":5.62,"satellites":[{"PRN":10,"el":45,"az":196,"ss":45,"used":true},{"PRN":29,"el":67,"az":312,"ss":47,"used":true},{"PRN":28,"el":59,"az":108,"ss":45,"used":true},{"PRN":26,"el":51,"az":304,"ss":40,"used":true},{"PRN":8,"el":44,"az":58,"ss":46,"used":true},{"PRN":27,"el":16,"az":66,"ss":38,"used":true},{"PRN":21,"el":10,"az":301,"ss":0,"used":false}]}
$GPZDA,161247.89,19,06,2005,00,00*69
$GPGGA,161247,4629.8929,N,00734.0852,E,1,06,1.40,1329.32,M,48.183,M,,*74
$GPRMC,161247,A,4629.8929,N,00734.0852,E,0.1776,190.380,190605,,*29
$GPGSA,A,3,10,29,28,26,08,27,,,,,,,5.6,1.4,5.4*3C
{"class":"TPV","tag":"MID2","mode":3,"time":"2005-06-19T16:12:47.890Z","ept":0.005,"lat":46.498215161,"lon":7.568087260,"alt":1329.321,"epx":15.319,"epy":17.054,"epv":124.484,"track":190.3797,"speed":0.091,"climb":0.085,"eps":34.11}
$GPGSV,2,1,07,10,45,196,45,29,67,312,47,28,59,108,43,26,51,304,41*71
$GPGSV,2,2,07,08,44,058,46,27,16,066,39,21,10,301,00*41
{"class":"SKY","tag":"MID4","time":"2005-06-19T16:12:48.890Z","xdop":1.02,"ydop":1.14,"vdop":5.41,"tdop":4.30,"hdop":1.40,"gdop":7.08,"pdop":5.62,"satellites":[{"PRN":10,"el":45,"az":196,"ss":45,"used":true},{"PRN":29,"el":67,"az":312,"ss":47,"used":true},{"PRN":28,"el":59,"az":108,"ss":43,"used":true},{"PRN":26,"el":51,"az":304,"ss":41,"used":true},{"PRN":8,"el":44,"az":58,"ss":46,"used":true},{"PRN":27,"el":16,"az":66,"ss":39,"used":true},{"PRN":21,"el":10,"az":301,"ss":0,"used":false}]}
$GPZDA,161248.89,19,06,2005,00,00*66
$GPGGA,161248,4629.8933,N,00734.0852,E,1,06,1.40,1330.05,M,48.183,M,,*7C
$GPRMC,161248,A,4629.8933,N,00734.0852,E,0.1776,190.380,190605,,*2D
$GPGSA,A,3,10,29,28,26,08,27,,,,,,,5.6,1.4,5.4*3C
{"class":"TPV","tag":"MID2","mode":3,"time":"2005-06-19T16:12:48.890Z","ept":0.005,"lat":46.498221352,"lon":7.568087260,"alt":1330.046,"epx":15.319,"epy":17.054,"epv":124.484,"track":190.3797,"speed":0.091,"climb":0.085,"eps":34.11}
$GPGSV,2,1,07,10,45,196,43,29,67,312,46,28,59,108,43,26,51,304,42*75
$GPGSV,2,2,07,08,44,058,46,27,16,066,40,21,10,301,00*4F
{"class":"SKY","tag":"MID4","time":"2005-06-19T16:12:49.890Z","xdop":1.02,"ydop":1.14,"vdop":5.41,"tdop":4.30,"hdop":1.40,"gdop":7.08,"pdop":5.62,"satellites":[{"PRN":10,"el":45,"az":196,"ss":43,"used":true},{"PRN":29,"el":67,"az":312,"ss":46,"used":true},{"PRN":28,"el":59,"az":108,"ss":43,"used":true},{"PRN":26,"el":51,"az":304,"ss":42,"used":true},{"PRN":8,"el":44,"az":58,"ss":46,"used":true},{"PRN":27,"el":16,"az":66,"ss":40,"used":true},{"PRN":21,"el":10,"az":301,"ss":0,"used":false}]}
$GPZDA,161249.89,19,06,2005,00,00*67
$GPGGA,161249,4629.8929,N,00734.0851,E,1,06,1.40,1330.73,M,48.183,M,,*74
$GPRMC,161249,A,4629.8929,N,00734.0851,E,0.1776,190.380,190605,,*24
$GPGSA,A,3,10,29,28,26,08,27,,,,,,,5.6,1.4,5.4*3C
{"class":"TPV","tag":"MID2","mode":3,"time":"2005-06-19T16:12:49.890Z","ept":0.005,"lat":46.498214885,"lon":7.568085545,"alt":1330.729,"epx":15.319,"epy":17.054,"epv":124.484,"track":190.3797,"speed":0.091,"climb":0.085,"eps":34.11}
$GPGSV,2,1,07,10,45,196,44,29,67,312,46,28,59,108,46,26,51,304,46*73
$GPGSV,2,2,07,08,44,058,47,27,16,066,38,21,10,301,00*41
{"class":"SKY","tag":"MID4","time":"2005-06-19T16:12:50.890Z","xdop":1.02,"ydop":1.14,"vdop":5.41,"tdop":4.30,"hdop":1.40,"gdop":7.08,"pdop":5.62,"satellites":[{"PRN":10,"el":45,"az":196,"ss":44,"used":true},{"PRN":29,"el":67,"az":312,"ss":46,"used":true},{"PRN":28,"el":59,"az":108,"ss":46,"used":true},{"PRN":26,"el":51,"az":304,"ss":46,"used":true},{"PRN":8,"el":44,"az":58,"ss":47,"used":true},{"PRN":27,"el":16,"az":66,"ss":38,"used":true},{"PRN":21,"el":10,"az":301,"ss":0,"used":false}]}
$GPZDA,161250.89,19,06,2005,00,00*6F
$GPGGA,161250,4629.8929,N,00734.0851,E,1,06,1.40,1330.73,M,48.183,M,,*7C
$GPRMC,161250,A,4629.8929,N,00734.0851,E,0.2420,275.505,190605,,*2C
$GPGSA,A,3,10,29,28,26,08,27,,,,,,,5.6,1.4,5.4*3C
{"class":"TPV","tag":"MID2","mode":3,"time":"2005-06-19T16:12:50.890Z","ept":0.005,"lat":46.498214885,"lon":7.568085545,"alt":1330.729,"epx":15.319,"epy":17.054,"epv":124.484,"track":275.5047,"speed":0.124,"climb":-0.011,"eps":34.11}
$GPGSV,2,1,07,10,45,196,45,29,67,312,47,28,59,108,44,26,51,304,46*71
$GPGSV,2,2,07,08,44,058,45,27,16,066,39,21,10,301,00*42
{"class":"SKY","tag":"MID4","time":"2005-06-19T16:12:51.890Z","xdop":1.02,"ydop":1.14,"vdop":5.41,"tdop":4.30,"hdop":1.40,"gdop":7.08,"pdop":5.62,"satellites":[{"PRN":10,"el":45,"az":196,"ss":45,"used":true},{"PRN":29,"el":67,"az":312,"ss":47,"used":true},{"PRN":28,"el":59,"az":108,"ss":44,"used":true},{"PRN":26,"el":51,"az":304,"ss":46,"used":true},{"PRN":8,"el":44,"az":58,"ss":45,"used":true},{"PRN":27,"el":16,"az":66,"ss":39,"used":true},{"PRN":21,"el":10,"az":301,"ss":0,"used":false}]}
$GPZDA,161251.89,19,06,2005,00,00*6E
$GPGGA,161251,4629.8929,N,00734.0844,E,1,06,1.40,1330.64,M,48.183,M,,*7F
$GPRMC,161251,A,4629.8929,N,00734.0844,E,1.4953,310.306,190605,,*20
$GPGSA,A,3,10,29,28,26,08,27,,,,,,,5.6,1.4,5.4*3C
{"class":"TPV","tag":"MID2","mode":3,"time":"2005-06-19T16:12:51.890Z","ept":0.005,"lat":46.498215744,"lon":7.568072634,"alt":1330.638,"epx":15.319,"epy":17.054,"epv":124.484,"track":310.3062,"speed":0.769,"climb":0.045,"eps":34.11}
$GPGSV,2,1,07,10,45,196,45,29,67,312,46,28,59,108,45,26,51,304,44*73
$GPGSV,2,2,07,08,44,058,44,27,16,066,37,21,10,301,00*4D
{"class":"SKY","tag":"MID4","time":"2005-06-19T16:12:52.890Z","xdop":1.02,"ydop":1.14,"vdop":5.41,"tdop":4.30,"hdop":1.40,"gdop":7.08,"pdop":5.62,"satellites":[{"PRN":10,"el":45,"az":196,"ss":45,"used":true},{"PRN":29,"el":67,"az":312,"ss":46,"used":true},{"PRN":28,"el":59,"az":108,"ss":45,"used":true},{"PRN":26,"el":51,"az":304,"ss":44,"used":true},{"PRN":8,"el":44,"az":58,"ss":44,"used":true},{"PRN":27,"el":16,"az":66,"ss":37,"used":true},{"PRN":21,"el":10,"az":301,"ss":0,"used":false}]}
$GPZDA,161252.89,19,06,2005,00,00*6D
$GPGGA,161252,4629.8934,N,00734.0836,E,1,06,1.40,1331.27,M,48.183,M,,*73
$GPRMC,161252,A,4629.8934,N,00734.0836,E,2.2921,306.984,190605,,*2D
$GPGSA,A,3,10,29,28,26,08,27,,,,,,,5.6,1.4,5.4*3C
{"class":"TPV","tag":"MID2","mode":3,"time":"2005-06-19T16:12:52.890Z","ept":0.005,"lat":46.498222795,"lon":7.568059724,"alt":1331.273,"epx":15.319,"epy":17.054,"epv":124.484,"track":306.9839,"speed":1.179,"climb":0.016,"eps":34.11}
$GPGSV,2,1,07,10,45,196,45,29,67,312,44,28,59,108,45,26,51,304,44*71
$GPGSV,2,2,07,08,44,058,42,27,16,066,41,21,10,301,00*4A
{"class":"SKY","tag":"MID4","time":"2005-06-19T16:12:53.890Z","xdop":1.02,"ydop":1.14,"vdop":5.41,"tdop":4.30,"hdop":1.40,"gdop":7.08,"pdop":5.62,"satellites":[{"PRN":10,"el":45,"az":196,"ss":45,"used":true},{"PRN":29,"el":67,"az":312,"ss":44,"used":true},{"PRN":28,"el":59,"az":108,"ss":45,"used":true},{"PRN":26,"el":51,"az":304,"ss":44,"used":true},{"PRN":8,"el":44,"az":58,"ss":42,"used":true},{"PRN":27,"el":16,"az":66,"ss":41,"used":true},{"PRN":21,"el":10,"az":301,"ss":0,"used":false}]}
