$GPGSV,2,1,08,23,07,084,00,28,07,160,00,08,65,189,45,29,13,273,00*77
$GPGSV,2,2,08,10,50,304,37,04,16,199,36,02,34,241,43,27,71,076,43*71
{"class":"SKY","tag":"MID4","time":"2005-06-09T14:34:14.280Z","satellites":[{"PRN":23,"el":7,"az":84,"ss":0,"used":false},{"PRN":28,"el":7,"az":160,"ss":0,"used":false},{"PRN":8,"el":65,"az":189,"ss":45,"used":false},{"PRN":29,"el":13,"az":273,"ss":0,"used":false},{"PRN":10,"el":50,"az":304,"ss":37,"used":false},{"PRN":4,"el":16,"az":199,"ss":36,"used":false},{"PRN":2,"el":34,"az":241,"ss":43,"used":false},{"PRN":27,"el":71,"az":76,"ss":43,"used":false}]}
$GPZDA,143414.28,09,06,2005,00,00*63
$GPGGA,143414,4629.8901,N,00734.0471,E,1,05,2.40,1349.51,M,48.183,M,,*70
$GPRMC,143414,A,4629.8901,N,00734.0471,E,0.1776,10.379,090605,,*10
$GPGSA,A,3,08,10,04,02,27,,,,,,,,0.0,2.4,0.0*3E
{"class":"TPV","tag":"MID2","mode":3,"time":"2005-06-09T14:34:14.280Z","ept":0.005,"lat":46.498167579,"lon":7.567452213,"alt":1349.507,"track":10.3789,"speed":0.091,"climb":-0.085}
$GPGSV,2,1,08,23,06,084,00,28,07,160,00,08,65,189,43,29,13,273,00*70
$GPGSV,2,2,08,10,50,304,36,04,16,199,36,02,34,241,44,27,71,076,43*77
{"class":"SKY","tag":"MID4","time":"2005-06-09T14:34:15.280Z","xdop":0.73,"ydop":1.03,"vdop":1.42,"tdop":0.78,"hdop":2.40,"gdop":2.06,"pdop":1.90,"satellites":[{"PRN":23,"el":6,"az":84,"ss":0,"used":false},{"PRN":28,"el":7,"az":160,"ss":0,"used":false},{"PRN":8,"el":65,"az":189,"ss":43,"used":true},{"PRN":29,"el":13,"az":273,"ss":0,"used":false},{"PRN":10,"el":50,"az":304,"ss":36,"used":true},{"PRN":4,"el":16,"az":199,"ss":36,"used":true},{"PRN":2,"el":34,"az":241,"ss":44,"used":true},{"PRN":27,"el":71,"az":76,"ss":43,"used":true}]}
$GPZDA,143415.28,09,06,2005,00,00*62
$GPGGA,143415,4629.8905,N,00734.0473,E,1,05,2.40,1347.42,M,48.183,M,,*7B
$GPRMC,143415,A,4629.8905,N,00734.0473,E,0.1776,10.379,090605,,*17
$GPGSA,A,3,08,10,04,02,27,,,,,,,,1.9,2.4,1.4*33
{"class":"TPV","tag":"MID2","mode":3,"time":"2005-06-09T14:34:15.280Z","ept":0.005,"lat":46.498174322,"lon":7.567455643,"alt":1347.417,"epx":10.980,"epy":15.454,"epv":32.724,"track":10.3789,"speed":0.091,"climb":-0.085,"eps":30.91}
$GPGSV,2,1,08,23,06,084,00,28,07,160,00,08,65,189,44,29,13,273,00*77
$GPGSV,2,2,08,10,50,304,38,04,16,199,35,02,34,241,44,27,71,076,42*7B
{"class":"SKY","tag":"MID4","time":"2005-06-09T14:34:16.280Z","xdop":0.73,"ydop":1.03,"vdop":1.42,"tdop":0.78,"hdop":2.40,"gdop":2.06,"pdop":1.90,"satellites":[{"PRN":23,"el":6,"az":84,"ss":0,"used":false},{"PRN":28,"el":7,"az":160,"ss":0,"used":false},{"PRN":8,"el":65,"az":189,"ss":44,"used":true},{"PRN":29,"el":13,"az":273,"ss":0,"used":false},{"PRN":10,"el":50,"az":304,"ss":38,"used":true},{"PRN":4,"el":16,"az":199,"ss":35,"used":true},{"PRN":2,"el":34,"az":241,"ss":44,"used":true},{"PRN":27,"el":71,"az":76,"ss":42,"used":true}]}
$GPZDA,143416.28,09,06,2005,00,00*61
$GPGGA,143416,4629.8908,N,00734.0474,E,1,05,2.40,1346.73,M,48.183,M,,*71
$GPRMC,143416,A,4629.8908,N,00734.0474,E,0.0000,0.000,090605,,*25
$GPGSA,A,3,08,10,04,02,27,,,,,,,,1.9,2.4,1.4*33
{"class":"TPV","tag":"MID2","mode":3,"time":"2005-06-09T14:34:16.280Z","ept":0.005,"lat":46.498180789,"lon":7.567457358,"alt":1346.734,"epx":10.980,"epy":15.454,"epv":32.724,"track":0.0000,"speed":0.000,"climb":0.000,"eps":30.91}
$GPGSV,2,1,08,23,06,084,00,28,07,160,00,08,65,189,45,29,13,273,00*76
$GPGSV,2,2,08,10,50,304,38,04,16,199,35,02,34,241,43,27,71,076,43*7D
{"class":"SKY","tag":"MID4","time":"2005-06-09T14:34:17.280Z","xdop":0.73,"ydop":1.03,"vdop":1.42,"tdop":0.78,"hdop":2.40,"gdop":2.06,"pdop":1.90,"satellites":[{"PRN":23,"el":6,"az":84,"ss":0,"used":false},{"PRN":28,"el":7,"az":160,"ss":0,"used":false},{"PRN":8,"el":65,"az":189,"ss":45,"used":true},{"PRN":29,"el":13,"az":273,"ss":0,"used":false},{"PRN":10,"el":50,"az":304,"ss":38,"used":true},{"PRN":4,"el":16,"az":199,"ss":35,"used":true},{"PRN":2,"el":34,"az":241,"ss":43,"used":true},{"PRN":27,"el":71,"az":76,"ss":43,"used":true}]}
$GPZDA,143417.28,09,06,2005,00,00*60
$GPGGA,143417,4629.8912,N,00734.0475,E,1,05,2.40,1346.05,M,48.183,M,,*7B
$GPRMC,143417,A,4629.8912,N,00734.0475,E,0.1776,10.379,090605,,*15
$GPGSA,A,3,08,10,04,02,27,,,,,,,,1.9,2.4,1.4*33
{"class":"TPV","tag":"MID2","mode":3,"time":"2005-06-09T14:34:17.280Z","ept":0.005,"lat":46.498187256,"lon":7.567459073,"alt":1346.052,"epx":10.980,"epy":15.454,"epv":32.724,"track":10.3789,"speed":0.091,"climb":-0.085,"eps":30.91}
$GPGSV,2,1,08,23,06,084,00,28,07,160,00,08,65,189,44,29,13,273,00*77
$GPGSV,2,2,08,10,50,304,36,04,16,199,32,02,34,241,39,27,71,076,41*7B
{"class":"SKY","tag":"MID4","time":"2005-06-09T14:34:18.280Z","xdop":0.73,"ydop":1.03,"vdop":1.42,"tdop":0.78,"hdop":2.40,"gdop":2.06,"pdop":1.90,"satellites":[{"PRN":23,"el":6,"az":84,"ss":0,"used":false},{"PRN":28,"el":7,"az":160,"ss":0,"used":false},{"PRN":8,"el":65,"az":189,"ss":44,"used":true},{"PRN":29,"el":13,"az":273,"ss":0,"used":false},{"PRN":10,"el":50,"az":304,"ss":36,"used":true},{"PRN":4,"el":16,"az":199,"ss":32,"used":true},{"PRN":2,"el":34,"az":241,"ss":39,"used":true},{"PRN":27,"el":71,"az":76,"ss":41,"used":true}]}
$GPZDA,143418.28,09,06,2005,00,00*6F
$GPGGA,143418,4629.8909,N,00734.0475,E,1,05,2.40,1345.33,M,48.183,M,,*78
$GPRMC,143418,A,4629.8909,N,00734.0475,E,0.1776,10.379,090605,,*10
$GPGSA,A,3,08,10,04,02,27,,,,,,,,1.9,2.4,1.4*33
{"class":"TPV","tag":"MID2","mode":3,"time":"2005-06-09T14:34:18.280Z","ept":0.005,"lat":46.498181065,"lon":7.567459073,"alt":1345.327,"epx":10.980,"epy":15.454,"epv":32.724,"track":10.3789,"speed":0.091,"climb":-0.085,"eps":30.91}
$GPGSV,2,1,08,23,06,084,00,28,07,160,00,08,65,189,46,29,13,273,00*75
$GPGSV,2,2,08,10,50,304,38,04,16,199,34,02,34,241,41,27,71,076,41*7C
{"class":"SKY","tag":"MID4","time":"2005-06-09T14:34:19.280Z","xdop":0.73,"ydop":1.03,"vdop":1.42,"tdop":0.78,"hdop":2.40,"gdop":2.06,"pdop":1.90,"satellites":[{"PRN":23,"el":6,"az":84,"ss":0,"used":false},{"PRN":28,"el":7,"az":160,"ss":0,"used":false},{"PRN":8,"el":65,"az":189,"ss":46,"used":true},{"PRN":29,"el":13,"az":273,"ss":0,"used":false},{"PRN":10,"el":50,"az":304,"ss":38,"used":true},{"PRN":4,"el":16,"az":199,"ss":34,"used":true},{"PRN":2,"el":34,"az":241,"ss":41,"used":true},{"PRN":27,"el":71,"az":76,"ss":41,"used":true}]}
$GPZDA,143419.28,09,06,2005,00,00*6E
$GPGGA,143419,4629.8913,N,00734.0476,E,1,05,2.40,1344.64,M,48.183,M,,*72
$GPRMC,143419,A,4629.8913,N,00734.0476,E,0.1673,180.000,090605,,*28
$GPGSA,A,3,08,10,04,02,27,,,,,,,,1.9,2.4,1.4*33
{"class":"TPV","tag":"MID2","mode":3,"time":"2005-06-09T14:34:19.280Z","ept":0.005,"lat":46.498187532,"lon":7.567460788,"alt":1344.644,"epx":10.980,"epy":15.454,"epv":32.724,"track":180.0000,"speed":0.086,"climb":-0.091,"eps":30.91}
$GPGSV,2,1,08,23,06,084,00,28,07,160,00,08,65,189,46,29,13,273,00*75
$GPGSV,2,2,08,10,50,304,37,04,16,199,36,02,34,241,43,27,71,076,41*73
{"class":"SKY","tag":"MID4","time":"2005-06-09T14:34:20.280Z","xdop":0.73,"ydop":1.03,"vdop":1.42,"tdop":0.78,"hdop":2.40,"gdop":2.06,"pdop":1.90,"satellites":[{"PRN":23,"el":6,"az":84,"ss":0,"used":false},{"PRN":28,"el":7,"az":160,"ss":0,"used":false},{"PRN":8,"el":65,"az":189,"ss":46,"used":true},{"PRN":29,"el":13,"az":273,"ss":0,"used":false},{"PRN":10,"el":50,"az":304,"ss":37,"used":true},{"PRN":4,"el":16,"az":199,"ss":36,"used":true},{"PRN":2,"el":34,"az":241,"ss":43,"used":true},{"PRN":27,"el":71,"az":76,"ss":41,"used":true}]}
$GPZDA,143420.28,09,06,2005,00,00*64
$GPGGA,143420,4629.8916,N,00734.0478,E,1,05,2.40,1343.96,M,48.183,M,,*79
$GPRMC,143420,A,4629.8916,N,00734.0478,E,0.1776,10.379,090605,,*18
$GPGSA,A,3,08,10,04,02,27,,,,,,,,1.9,2.4,1.4*33
{"class":"TPV","tag":"MID2","mode":3,"time":"2005-06-09T14:34:20.280Z","ept":0.005,"lat":46.498193999,"lon":7.567462504,"alt":1343.962,"epx":10.980,"epy":15.454,"epv":32.724,"track":10.3789,"speed":0.091,"climb":-0.085,"eps":30.91}
$GPGSV,2,1,08,23,06,084,00,28,07,160,00,08,65,189,45,29,13,273,00*76
$GPGSV,2,2,08,10,50,304,38,04,16,199,36,02,34,241,42,27,71,076,42*7E
{"class":"SKY","tag":"MID4","time":"2005-06-09T14:34:21.280Z","xdop":0.73,"ydop":1.03,"vdop":1.42,"tdop":0.78,"hdop":2.40,"gdop":2.06,"pdop":1.90,"satellites":[{"PRN":23,"el":6,"az":84,"ss":0,"used":false},{"PRN":28,"el":7,"az":160,"ss":0,"used":false},{"PRN":8,"el":65,"az":189,"ss":45,"used":true},{"PRN":29,"el":13,"az":273,"ss":0,"used":false},{"PRN":10,"el":50,"az":304,"ss":38,"used":true},{"PRN":4,"el":16,"az":199,"ss":36,"used":true},{"PRN":2,"el":34,"az":241,"ss":42,"used":true},{"PRN":27,"el":71,"az":76,"ss":42,"used":true}]}
$GPZDA,143421.28,09,06,2005,00,00*65
$GPGGA,143421,4629.8916,N,00734.0478,E,1,05,2.40,1343.96,M,48.183,M,,*78
$GPRMC,143421,A,4629.8916,N,00734.0478,E,0.0000,0.000,090605,,*22
$GPGSA,A,3,08,10,04,02,27,,,,,,,,1.9,2.4,1.4*33
{"class":"TPV","tag":"MID2","mode":3,"time":"2005-06-09T14:34:21.280Z","ept":0.005,"lat":46.498193999,"lon":7.567462504,"alt":1343.962,"epx":10.980,"epy":15.454,"epv":32.724,"track":0.0000,"speed":0.000,"climb":0.000,"eps":30.91}
$GPGSV,2,1,08,23,06,084,00,28,07,160,00,08,65,189,45,29,13,273,00*76
$GPGSV,2,2,08,10,50,304,37,04,16,199,36,02,34,241,42,27,71,076,43*70
{"class":"SKY","tag":"MID4","time":"2005-06-09T14:34:22.280Z","xdop":0.73,"ydop":1.03,"vdop":1.42,"tdop":0.78,"hdop":2.40,"gdop":2.06,"pdop":1.90,"satellites":[{"PRN":23,"el":6,"az":84,"ss":0,"used":false},{"PRN":28,"el":7,"az":160,"ss":0,"used":false},{"PRN":8,"el":65,"az":189,"ss":45,"used":true},{"PRN":29,"el":13,"az":273,"ss":0,"used":false},{"PRN":10,"el":50,"az":304,"ss":37,"used":true},{"PRN":4,"el":16,"az":199,"ss":36,"used":true},{"PRN":2,"el":34,"az":241,"ss":42,"used":true},{"PRN":27,"el":71,"az":76,"ss":43,"used":true}]}
$GPZDA,143422.28,09,06,2005,00,00*66
$GPGGA,143422,4629.8917,N,00734.0470,E,1,05,2.40,1343.87,M,48.183,M,,*72
$GPRMC,143422,A,4629.8917,N,00734.0470,E,0.0000,0.000,090605,,*28
$GPGSA,A,3,08,10,04,02,27,,,,,,,,1.9,2.4,1.4*33
{"class":"TPV","tag":"MID2","mode":3,"time":"2005-06-09T14:34:22.280Z","ept":0.005,"lat":46.498194858,"lon":7.567449593,"alt":1343.871,"epx":10.980,"epy":15.454,"epv":32.724,"track":0.0000,"speed":0.000,"climb":0.000,"eps":30.91}
$GPGSV,2,1,08,23,06,084,00,28,07,160,00,08,65,189,46,29,13,273,00*75
$GPGSV,2,2,08,10,50,304,36,04,16,199,36,02,34,241,42,27,71,076,42*70
{"class":"SKY","tag":"MID4","time":"2005-06-09T14:34:23.280Z","xdop":0.73,"ydop":1.03,"vdop":1.42,"tdop":0.78,"hdop":2.40,"gdop":2.06,"pdop":1.90,"satellites":[{"PRN":23,"el":6,"az":84,"ss":0,"used":false},{"PRN":28,"el":7,"az":160,"ss":0,"used":false},{"PRN":8,"el":65,"az":189,"ss":46,"used":true},{"PRN":29,"el":13,"az":273,"ss":0,"used":false},{"PRN":10,"el":50,"az":304,"ss":36,"used":true},{"PRN":4,"el":16,"az":199,"ss":36,"used":true},{"PRN":2,"el":34,"az":241,"ss":42,"used":true},{"PRN":27,"el":71,"az":76,"ss":42,"used":true}]}
$GPZDA,143423.28,09,06,2005,00,00*67
$GPGGA,143423,4629.8921,N,00734.0471,E,1,05,2.40,1343.19,M,48.183,M,,*70
$GPRMC,143423,A,4629.8921,N,00734.0471,E,0.1776,10.379,090605,,*16
$GPGSA,A,3,08,10,04,02,27,,,,,,,,1.9,2.4,1.4*33
{"class":"TPV","tag":"MID2","mode":3,"time":"2005-06-09T14:34:23.280Z","ept":0.005,"lat":46.498201325,"lon":7.567451308,"alt":1343.189,"epx":10.980,"epy":15.454,"epv":32.724,"track":10.3788,"speed":0.091,"climb":-0.085,"eps":30.91}
$GPGSV,2,1,08,23,06,084,00,28,07,160,00,08,65,189,46,29,13,273,00*75
$GPGSV,2,2,08,10,50,304,36,04,16,199,37,02,34,241,42,27,71,076,42*71
{"class":"SKY","tag":"MID4","time":"2005-06-09T14:34:24.280Z","xdop":0.73,"ydop":1.03,"vdop":1.42,"tdop":0.78,"hdop":2.40,"gdop":2.06,"pdop":1.90,"satellites":[{"PRN":23,"el":6,"az":84,"ss":0,"used":false},{"PRN":28,"el":7,"az":160,"ss":0,"used":false},{"PRN":8,"el":65,"az":189,"ss":46,"used":true},{"PRN":29,"el":13,"az":273,"ss":0,"used":false},{"PRN":10,"el":50,"az":304,"ss":36,"used":true},{"PRN":4,"el":16,"az":199,"ss":37,"used":true},{"PRN":2,"el":34,"az":241,"ss":42,"used":true},{"PRN":27,"el":71,"az":76,"ss":42,"used":true}]}
$GPZDA,143424.28,09,06,2005,00,00*60
$GPGGA,143424,4629.8921,N,00734.0471,E,1,05,2.40,1343.19,M,48.183,M,,*77
$GPRMC,143424,A,4629.8921,N,00734.0471,E,0.1776,10.379,090605,,*11
$GPGSA,A,3,08,10,04,02,27,,,,,,,,1.9,2.4,1.4*33
{"class":"TPV","tag":"MID2","mode":3,"time":"2005-06-09T14:34:24.280Z","ept":0.005,"lat":46.498201325,"lon":7.567451308,"alt":1343.189,"epx":10.980,"epy":15.454,"epv":32.724,"track":10.3788,"speed":0.091,"climb":-0.085,"eps":30.91}
