$GPGGA,123433.000,5356.21442,N,02734.85952,E,1,04,07.2,251.9,M,26.0,M,,*67
{"class":"TPV","tag":"GGA","mode":3,"lat":53.936907000,"lon":27.580992000,"alt":251.900}
$GPRMC,123434.000,A,5356.21440,N,02734.85946,E,00.00,252.7,290508,,,A*6B
$PORZD,A,022.8*34
$GPGSA,A,3,23,13,07,25,,,,,,,,,,,,,,,,,,,,,09.2,07.2,05.7*0D
$GPGGA,123434.000,5356.21444,N,02734.85947,E,1,04,07.2,251.9,M,26.0,M,,*62
{"class":"TPV","tag":"GGA","mode":3,"time":"2008-05-29T12:34:34.000Z","ept":0.005,"lat":53.936907333,"lon":27.580991167,"alt":251.900,"epv":0.000,"track":252.7000,"speed":0.000,"climb":0.000}
$GPRMC,123435.000,A,5356.21440,N,02734.85945,E,00.00,252.7,290508,,,A*69
$PORZD,A,022.8*34
$GPGSA,A,3,23,13,07,25,,,,,,,,,,,,,,,,,,,,,09.2,07.2,05.7*0D
$GPGGA,123435.000,5356.21444,N,02734.85946,E,1,04,07.2,251.9,M,26.0,M,,*62
{"class":"TPV","tag":"GGA","mode":3,"time":"2008-05-29T12:34:35.000Z","ept":0.005,"lat":53.936907333,"lon":27.580991000,"alt":251.900,"epv":0.000,"track":252.7000,"speed":0.000,"climb":0.000}
$GPRMC,123436.000,A,5356.21439,N,02734.85943,E,00.00,252.7,290508,,,A*62
$PORZD,A,022.9*35
$GPGSA,A,3,23,13,07,25,,,,,,,,,,,,,,,,,,,,,09.2,07.2,05.7*0D
$GPGGA,123436.000,5356.21444,N,02734.85946,E,1,04,07.2,251.9,M,26.0,M,,*61
{"class":"TPV","tag":"GGA","mode":3,"time":"2008-05-29T12:34:36.000Z","ept":0.005,"lat":53.936907333,"lon":27.580991000,"alt":251.900,"epv":0.000,"track":252.7000,"speed":0.000,"climb":0.000}
$GPRMC,123437.000,A,5356.21443,N,02734.85944,E,00.00,252.7,290508,,,A*69
$PORZD,A,022.9*35
$GPGSA,A,3,23,13,07,25,,,,,,,,,,,,,,,,,,,,,09.2,07.2,05.7*0D
$GPGGA,123437.000,5356.21447,N,02734.85947,E,1,04,07.2,251.8,M,26.0,M,,*63
{"class":"TPV","tag":"GGA","mode":3,"time":"2008-05-29T12:34:37.000Z","ept":0.005,"lat":53.936907833,"lon":27.580991167,"alt":251.800,"epv":0.000,"track":252.7000,"speed":0.000,"climb":0.000}
$GPRMC,123438.000,A,5356.21444,N,02734.85943,E,00.00,252.7,290508,,,A*66
$PORZD,A,022.9*35
$GPGSV,3,1,11,02,13,248,,03,11,066,,07,76,087,36,13,48,101,50*71
$GPGSV,3,2,11,23,12,106,46,25,56,069,39,27,84,110,31,33,17,229,*7A
$GPGSV,3,3,11,37,28,187,,39,28,183,,44,20,137,*44
{"class":"SKY","tag":"GSV","xdop":1.53,"ydop":3.75,"vdop":0.00,"tdop":0.96,"hdop":0.00,"gdop":4.55,"pdop":0.00,"satellites":[{"PRN":2,"el":13,"az":248,"ss":0,"used":false},{"PRN":3,"el":11,"az":66,"ss":0,"used":false},{"PRN":7,"el":76,"az":87,"ss":36,"used":true},{"PRN":13,"el":48,"az":101,"ss":50,"used":true},{"PRN":23,"el":12,"az":106,"ss":46,"used":true},{"PRN":25,"el":56,"az":69,"ss":39,"used":true},{"PRN":27,"el":84,"az":110,"ss":31,"used":false},{"PRN":120,"el":17,"az":229,"ss":0,"used":false},{"PRN":124,"el":28,"az":187,"ss":0,"used":false},{"PRN":126,"el":28,"az":183,"ss":0,"used":false},{"PRN":131,"el":20,"az":137,"ss":0,"used":false}]}
$GPGSA,A,3,23,13,07,25,,,,,,,,,,,,,,,,,,,,,09.2,07.2,05.7*0D
$GPGGA,123438.000,5356.21448,N,02734.85946,E,1,04,07.2,251.8,M,26.0,M,,*62
{"class":"TPV","tag":"GGA","mode":3,"time":"2008-05-29T12:34:38.000Z","ept":0.005,"lat":53.936908000,"lon":27.580991000,"alt":251.800,"epx":23.004,"epy":56.196,"epv":0.000,"track":252.7000,"speed":0.000,"climb":0.000}
$GPRMC,123439.000,A,5356.21445,N,02734.85942,E,00.00,252.7,290508,,,A*67
$PORZD,A,022.9*35
$GPGSA,A,3,23,13,07,25,,,,,,,,,,,,,,,,,,,,,09.2,07.2,05.7*0D
$GPGGA,123439.000,5356.21450,N,02734.85946,E,1,04,07.2,251.8,M,26.0,M,,*6A
{"class":"TPV","tag":"GGA","mode":3,"time":"2008-05-29T12:34:39.000Z","ept":0.005,"lat":53.936908333,"lon":27.580991000,"alt":251.800,"epx":23.004,"epy":56.196,"epv":0.000,"track":252.7000,"speed":0.000,"climb":0.000,"eps":112.39}
$GPRMC,123440.000,A,5356.21447,N,02734.85944,E,00.00,252.7,290508,,,A*6D
$PORZD,A,022.8*34
$GPGSA,A,3,23,13,07,25,,,,,,,,,,,,,,,,,,,,,09.2,07.2,05.7*0D
$GPGGA,123440.000,5356.21449,N,02734.85945,E,1,04,07.2,251.8,M,26.0,M,,*6F
{"class":"TPV","tag":"GGA","mode":3,"time":"2008-05-29T12:34:40.000Z","ept":0.005,"lat":53.936908167,"lon":27.580990833,"alt":251.800,"epx":23.004,"epy":56.196,"epv":0.000,"track":252.7000,"speed":0.000,"climb":0.000,"eps":112.39}
$GPRMC,123441.000,A,5356.21446,N,02734.85940,E,00.00,252.7,290508,,,A*69
$PORZD,A,022.9*35
$GPGSA,A,3,23,13,07,25,,,,,,,,,,,,,,,,,,,,,09.2,07.2,05.7*0D
$GPGGA,123441.000,5356.21449,N,02734.85942,E,1,04,07.2,251.8,M,26.0,M,,*69
{"class":"TPV","tag":"GGA","mode":3,"time":"2008-05-29T12:34:41.000Z","ept":0.005,"lat":53.936908167,"lon":27.580990333,"alt":251.800,"epx":23.004,"epy":56.196,"epv":0.000,"track":252.7000,"speed":0.000,"climb":0.000,"eps":112.39}
$GPRMC,123442.000,A,5356.21445,N,02734.85940,E,00.00,252.7,290508,,,A*69
$PORZD,A,022.9*35
$GPGSA,A,3,23,13,07,25,,,,,,,,,,,,,,,,,,,,,09.2,07.2,05.7*0D
$GPGGA,123442.000,5356.21447,N,02734.85942,E,1,04,07.2,251.8,M,26.0,M,,*64
{"class":"TPV","tag":"GGA","mode":3,"time":"2008-05-29T12:34:42.000Z","ept":0.005,"lat":53.936907833,"lon":27.580990333,"alt":251.800,"epx":23.004,"epy":56.196,"epv":0.000,"track":252.7000,"speed":0.000,"climb":0.000,"eps":112.39}
$GPRMC,123443.000,A,5356.21444,N,02734.85939,E,00.00,252.7,290508,,,A*67
$PORZD,A,022.9*35
$GPGSA,A,3,23,13,07,25,,,,,,,,,,,,,,,,,,,,,09.2,07.2,05.7*0D
$GPGGA,123443.000,5356.21448,N,02734.85942,E,1,04,07.2,251.8,M,26.0,M,,*6A
{"class":"TPV","tag":"GGA","mode":3,"time":"2008-05-29T12:34:43.000Z","ept":0.005,"lat":53.936908000,"lon":27.580990333,"alt":251.800,"epx":23.004,"epy":56.196,"epv":0.000,"track":252.7000,"speed":0.000,"climb":0.000,"eps":112.39}
$GPRMC,123444.000,A,5356.21446,N,02734.85940,E,00.00,252.7,290508,,,A*6C
$PORZD,A,022.8*34
$GPGSV,3,1,11,02,13,248,,03,11,066,,07,76,087,35,13,48,101,50*72
$GPGSV,3,2,11,23,12,106,47,25,56,069,38,27,84,110,31,33,17,229,*7A
$GPGSV,3,3,11,37,28,187,,39,28,183,,44,20,137,*44
{"class":"SKY","tag":"GSV","xdop":1.53,"ydop":3.75,"vdop":0.00,"tdop":0.96,"hdop":0.00,"gdop":4.55,"pdop":0.00,"satellites":[{"PRN":2,"el":13,"az":248,"ss":0,"used":false},{"PRN":3,"el":11,"az":66,"ss":0,"used":false},{"PRN":7,"el":76,"az":87,"ss":35,"used":true},{"PRN":13,"el":48,"az":101,"ss":50,"used":true},{"PRN":23,"el":12,"az":106,"ss":47,"used":true},{"PRN":25,"el":56,"az":69,"ss":38,"used":true},{"PRN":27,"el":84,"az":110,"ss":31,"used":false},{"PRN":120,"el":17,"az":229,"ss":0,"used":false},{"PRN":124,"el":28,"az":187,"ss":0,"used":false},{"PRN":126,"el":28,"az":183,"ss":0,"used":false},{"PRN":131,"el":20,"az":137,"ss":0,"used":false}]}
$GPGSA,A,3,23,13,07,25,,,,,,,,,,,,,,,,,,,,,09.2,07.2,05.7*0D
$GPGGA,123444.000,5356.21450,N,02734.85942,E,1,04,07.2,251.8,M,26.0,M,,*64
{"class":"TPV","tag":"GGA","mode":3,"time":"2008-05-29T12:34:44.000Z","ept":0.005,"lat":53.936908333,"lon":27.580990333,"alt":251.800,"epx":23.004,"epy":56.196,"epv":0.000,"track":252.7000,"speed":0.000,"climb":0.000,"eps":112.39}
$GPRMC,123445.000,A,5356.21446,N,02734.85938,E,00.00,252.7,290508,,,A*62
$PORZD,A,022.8*34
$GPGSA,A,3,23,13,07,25,,,,,,,,,,,,,,,,,,,,,09.2,07.2,05.7*0D
$GPGGA,123445.000,5356.21450,N,02734.85941,E,1,04,07.2,251.8,M,26.0,M,,*66
{"class":"TPV","tag":"GGA","mode":3,"time":"2008-05-29T12:34:45.000Z","ept":0.005,"lat":53.936908333,"lon":27.580990167,"alt":251.800,"epx":23.004,"epy":56.196,"epv":0.000,"track":252.7000,"speed":0.000,"climb":0.000,"eps":112.39}
$GPRMC,123446.000,A,5356.21447,N,02734.85936,E,00.00,252.7,290508,,,A*6E
$PORZD,A,022.8*34
$GPGSA,A,3,23,13,07,25,,,,,,,,,,,,,,,,,,,,,09.2,07.2,05.7*0D
$GPGGA,123446.000,5356.21451,N,02734.85943,E,1,04,07.2,251.9,M,26.0,M,,*67
{"class":"TPV","tag":"GGA","mode":3,"time":"2008-05-29T12:34:46.000Z","ept":0.005,"lat":53.936908500,"lon":27.580990500,"alt":251.900,"epx":23.004,"epy":56.196,"epv":0.000,"track":252.7000,"speed":0.000,"climb":0.000,"eps":112.39}
$GPRMC,123447.000,A,5356.21448,N,02734.85938,E,00.00,252.7,290508,,,A*6E
$PORZD,A,022.8*34
$GPGSA,A,3,23,13,07,25,,,,,,,,,,,,,,,,,,,,,09.2,07.2,05.7*0D
$GPGGA,123447.000,5356.21452,N,02734.85942,E,1,04,07.2,251.9,M,26.0,M,,*64
{"class":"TPV","tag":"GGA","mode":3,"time":"2008-05-29T12:34:47.000Z","ept":0.005,"lat":53.936908667,"lon":27.580990333,"alt":251.900,"epx":23.004,"epy":56.196,"epv":0.000,"track":252.7000,"speed":0.000,"climb":0.000,"eps":112.39}
$GPRMC,123448.000,A,5356.21449,N,02734.85942,E,00.00,252.7,290508,,,A*6D
$PORZD,A,022.9*35
$GPGSA,A,3,23,13,07,25,,,,,,,,,,,,,,,,,,,,,09.1,07.2,05.7*0E
$GPGGA,123448.000,5356.21453,N,02734.85943,E,1,04,07.2,251.9,M,26.0,M,,*6B
{"class":"TPV","tag":"GGA","mode":3,"time":"2008-05-29T12:34:48.000Z","ept":0.005,"lat":53.936908833,"lon":27.580990500,"alt":251.900,"epx":23.004,"epy":56.196,"epv":0.000,"track":252.7000,"speed":0.000,"climb":0.000,"eps":112.39}
$GPRMC,123449.000,A,5356.21448,N,02734.85937,E,00.00,252.7,290508,,,A*6F
$PORZD,A,022.9*35
$GPGSA,A,3,23,13,07,25,,,,,,,,,,,,,,,,,,,,,09.1,07.2,05.7*0E
$GPGGA,123449.000,5356.21453,N,02734.85941,E,1,04,07.2,251.9,M,26.0,M,,*68
{"class":"TPV","tag":"GGA","mode":3,"time":"2008-05-29T12:34:49.000Z","ept":0.005,"lat":53.936908833,"lon":27.580990167,"alt":251.900,"epx":23.004,"epy":56.196,"epv":0.000,"track":252.7000,"speed":0.000,"climb":0.000,"eps":112.39}
$GPRMC,123450.000,A,5356.21449,N,02734.85935,E,00.00,252.7,290508,,,A*64
$PORZD,A,022.9*35
$GPGSV,3,1,11,02,13,248,,03,11,066,,07,76,087,35,13,48,101,51*73
$GPGSV,3,2,11,23,12,106,45,25,56,069,38,27,84,110,31,33,17,229,*78
$GPGSV,3,3,11,37,28,187,,39,28,183,,44,20,137,*44
{"class":"SKY","tag":"GSV","xdop":1.53,"ydop":3.75,"vdop":0.00,"tdop":0.96,"hdop":0.00,"gdop":4.55,"pdop":0.00,"satellites":[{"PRN":2,"el":13,"az":248,"ss":0,"used":false},{"PRN":3,"el":11,"az":66,"ss":0,"used":false},{"PRN":7,"el":76,"az":87,"ss":35,"used":true},{"PRN":13,"el":48,"az":101,"ss":51,"used":true},{"PRN":23,"el":12,"az":106,"ss":45,"used":true},{"PRN":25,"el":56,"az":69,"ss":38,"used":true},{"PRN":27,"el":84,"az":110,"ss":31,"used":false},{"PRN":120,"el":17,"az":229,"ss":0,"used":false},{"PRN":124,"el":28,"az":187,"ss":0,"used":false},{"PRN":126,"el":28,"az":183,"ss":0,"used":false},{"PRN":131,"el":20,"az":137,"ss":0,"used":false}]}
$GPGSA,A,3,23,13,07,25,,,,,,,,,,,,,,,,,,,,,09.1,07.2,05.7*0E
$GPGGA,123450.000,5356.21454,N,02734.85939,E,1,04,07.2,251.9,M,26.0,M,,*68
{"class":"TPV","tag":"GGA","mode":3,"time":"2008-05-29T12:34:50.000Z","ept":0.005,"lat":53.936909000,"lon":27.580989833,"alt":251.900,"epx":23.004,"epy":56.196,"epv":0.000,"track":252.7000,"speed":0.000,"climb":0.000,"eps":112.39}
$GPRMC,123451.000,A,5356.21452,N,02734.85936,E,00.00,252.7,290508,,,A*6C
$PORZD,A,022.9*35
$GPGSA,A,3,23,13,07,25,,,,,,,,,,,,,,,,,,,,,09.1,07.2,05.6*0F
$GPGGA,123451.000,5356.21456,N,02734.85939,E,1,04,07.2,251.9,M,26.0,M,,*6B
{"class":"TPV","tag":"GGA","mode":3,"time":"2008-05-29T12:34:51.000Z","ept":0.005,"lat":53.936909333,"lon":27.580989833,"alt":251.900,"epx":23.004,"epy":56.196,"epv":0.000,"track":252.7000,"speed":0.000,"climb":0.000,"eps":112.39}
$GPRMC,123452.000,A,5356.21451,N,02734.85935,E,00.00,252.7,290508,,,A*6F
$PORZD,A,022.9*35
$GPGSA,A,3,23,13,07,25,,,,,,,,,,,,,,,,,,,,,09.1,07.2,05.6*0F
$GPGGA,123452.000,5356.21456,N,02734.85938,E,1,04,07.2,251.9,M,26.0,M,,*69
{"class":"TPV","tag":"GGA","mode":3,"time":"2008-05-29T12:34:52.000Z","ept":0.005,"lat":53.936909333,"lon":27.580989667,"alt":251.900,"epx":23.004,"epy":56.196,"epv":0.000,"track":252.7000,"speed":0.000,"climb":0.000,"eps":112.39}
$GPRMC,123453.000,A,5356.21453,N,02734.85933,E,00.00,252.7,290508,,,A*6A
$PORZD,A,022.8*34
$GPGSA,A,3,23,13,07,25,,,,,,,,,,,,,,,,,,,,,09.1,07.2,05.6*0F
$GPGGA,123453.000,5356.21458,N,02734.85934,E,1,04,07.2,251.8,M,26.0,M,,*6B
{"class":"TPV","tag":"GGA","mode":3,"time":"2008-05-29T12:34:53.000Z","ept":0.005,"lat":53.936909667,"lon":27.580989000,"alt":251.800,"epx":23.004,"epy":56.196,"epv":0.000,"track":252.7000,"speed":0.000,"climb":0.000,"eps":112.39}
$GPRMC,123454.000,A,5356.21455,N,02734.85930,E,00.00,252.7,290508,,,A*68
$PORZD,A,022.8*34
$GPGSA,A,3,23,13,07,25,,,,,,,,,,,,,,,,,,,,,09.1,07.2,05.6*0F
$GPGGA,123454.000,5356.21459,N,02734.85931,E,1,04,07.2,251.7,M,26.0,M,,*67
{"class":"TPV","tag":"GGA","mode":3,"time":"2008-05-29T12:34:54.000Z","ept":0.005,"lat":53.936909833,"lon":27.580988500,"alt":251.700,"epx":23.004,"epy":56.196,"epv":0.000,"track":252.7000,"speed":0.000,"climb":0.000,"eps":112.39}
$GPRMC,123455.000,A,5356.21455,N,02734.85927,E,00.00,252.7,290508,,,A*6F
$PORZD,A,022.8*34
$GPGSA,A,3,23,13,07,25,,,,,,,,,,,,,,,,,,,,,09.1,07.2,05.6*0F
$GPGGA,123455.000,5356.21461,N,02734.85930,E,1,04,07.2,251.6,M,26.0,M,,*6D
{"class":"TPV","tag":"GGA","mode":3,"time":"2008-05-29T12:34:55.000Z","ept":0.005,"lat":53.936910167,"lon":27.580988333,"alt":251.600,"epx":23.004,"epy":56.196,"epv":0.000,"track":252.7000,"speed":0.000,"climb":0.000,"eps":112.39}
$GPRMC,123456.000,A,5356.21458,N,02734.85926,E,00.00,252.7,290508,,,A*60
$PORZD,A,022.8*34
$GPGSV,3,1,11,02,13,247,,03,11,065,18,07,76,087,37,13,48,101,51*74
$GPGSV,3,2,11,23,12,106,45,25,55,069,38,27,83,108,32,33,17,229,*76
$GPGSV,3,3,11,37,28,187,,39,28,183,,44,20,137,*44
{"class":"SKY","tag":"GSV","xdop":1.53,"ydop":3.75,"vdop":0.00,"tdop":0.96,"hdop":0.00,"gdop":4.55,"pdop":0.00,"satellites":[{"PRN":2,"el":13,"az":247,"ss":0,"used":false},{"PRN":3,"el":11,"az":65,"ss":18,"used":false},{"PRN":7,"el":76,"az":87,"ss":37,"used":true},{"PRN":13,"el":48,"az":101,"ss":51,"used":true},{"PRN":23,"el":12,"az":106,"ss":45,"used":true},{"PRN":25,"el":55,"az":69,"ss":38,"used":true},{"PRN":27,"el":83,"az":108,"ss":32,"used":false},{"PRN":120,"el":17,"az":229,"ss":0,"used":false},{"PRN":124,"el":28,"az":187,"ss":0,"used":false},{"PRN":126,"el":28,"az":183,"ss":0,"used":false},{"PRN":131,"el":20,"az":137,"ss":0,"used":false}]}
$GPGSA,A,3,23,13,07,25,,,,,,,,,,,,,,,,,,,,,09.1,07.2,05.6*0F
$GPGGA,123456.000,5356.21463,N,02734.85930,E,1,04,07.2,251.6,M,26.0,M,,*6C
{"class":"TPV","tag":"GGA","mode":3,"time":"2008-05-29T12:34:56.000Z","ept":0.005,"lat":53.936910500,"lon":27.580988333,"alt":251.600,"epx":23.004,"epy":56.196,"epv":0.000,"track":252.7000,"speed":0.000,"climb":0.000,"eps":112.39}
$GPRMC,123457.000,A,5356.21458,N,02734.85925,E,00.00,252.7,290508,,,A*62
$PORZD,A,022.9*35
$GPGSA,A,3,23,13,07,25,,,,,,,,,,,,,,,,,,,,,09.1,07.2,05.6*0F
$GPGGA,123457.000,5356.21464,N,02734.85931,E,1,04,07.2,251.5,M,26.0,M,,*68
{"class":"TPV","tag":"GGA","mode":3,"time":"2008-05-29T12:34:57.000Z","ept":0.005,"lat":53.936910667,"lon":27.580988500,"alt":251.500,"epx":23.004,"epy":56.196,"epv":0.000,"track":252.7000,"speed":0.000,"climb":0.000,"eps":112.39}
$GPRMC,123458.000,A,5356.21463,N,02734.85930,E,00.00,252.7,290508,,,A*61
$PORZD,A,022.9*35
$GPGSA,A,3,23,13,07,25,,,,,,,,,,,,,,,,,,,,,09.1,07.2,05.6*0F
$GPGGA,123458.000,5356.21469,N,02734.85938,E,1,04,07.2,251.5,M,26.0,M,,*63
{"class":"TPV","tag":"GGA","mode":3,"time":"2008-05-29T12:34:58.000Z","ept":0.005,"lat":53.936911500,"lon":27.580989667,"alt":251.500,"epx":23.004,"epy":56.196,"epv":0.000,"track":252.7000,"speed":0.000,"climb":0.000,"eps":112.39}
$GPRMC,123459.000,A,5356.21465,N,02734.85933,E,00.00,252.7,290508,,,A*65
$PORZD,A,022.8*34
$GPGSA,A,3,23,13,07,25,,,,,,,,,,,,,,,,,,,,,09.1,07.2,05.6*0F
$GPGGA,123459.000,5356.21596,N,02734.86645,E,1,05,06.0,255.7,M,26.0,M,,*61
{"class":"TPV","tag":"GGA","mode":3,"time":"2008-05-29T12:34:59.000Z","ept":0.005,"lat":53.936932667,"lon":27.581107500,"alt":255.700,"epx":23.004,"epy":56.196,"epv":0.000,"track":252.7000,"speed":0.000,"climb":0.000,"eps":112.39}
$GPRMC,123500.000,A,5356.21592,N,02734.86643,E,00.00,252.7,290508,,,A*6A
$PORZD,A,021.5*3A
$GPGSA,A,3,27,23,13,07,25,,,,,,,,,,,,,,,,,,,,07.9,06.0,05.2*0B
$GPGGA,123500.000,5356.21592,N,02734.86641,E,1,05,06.0,255.7,M,26.0,M,,*6C
{"class":"TPV","tag":"GGA","mode":3,"time":"2008-05-29T12:35:00.000Z","ept":0.005,"lat":53.936932000,"lon":27.581106833,"alt":255.700,"epx":23.004,"epy":56.196,"epv":0.000,"track":252.7000,"speed":0.000,"climb":0.000,"eps":112.39}
$GPRMC,123501.000,A,5356.21589,N,02734.86639,E,00.00,252.7,290508,,,A*6C
$PORZD,A,021.5*3A
$GPGSA,A,3,27,23,13,07,25,,,,,,,,,,,,,,,,,,,,07.9,06.0,05.2*0B
$GPGGA,123501.000,5356.21589,N,02734.86638,E,1,05,06.0,255.8,M,26.0,M,,*66
{"class":"TPV","tag":"GGA","mode":3,"time":"2008-05-29T12:35:01.000Z","ept":0.005,"lat":53.936931500,"lon":27.581106333,"alt":255.800,"epx":23.004,"epy":56.196,"epv":0.000,"track":252.7000,"speed":0.000,"climb":0.000,"eps":112.39}
$GPRMC,123502.000,A,5356.21587,N,02734.86636,E,00.00,252.7,290508,,,A*6E
$PORZD,A,021.4*3B
$GPGSV,3,1,11,02,13,247,,03,11,065,18,07,76,087,36,13,48,101,50*74
$GPGSV,3,2,11,23,12,106,46,25,55,069,38,27,83,108,31,33,17,229,*76
$GPGSV,3,3,11,37,28,187,,39,28,183,,44,20,137,*44
{"class":"SKY","tag":"GSV","xdop":1.53,"ydop":3.75,"vdop":0.00,"tdop":0.96,"hdop":0.00,"gdop":4.55,"pdop":0.00,"satellites":[{"PRN":2,"el":13,"az":247,"ss":0,"used":false},{"PRN":3,"el":11,"az":65,"ss":18,"used":false},{"PRN":7,"el":76,"az":87,"ss":36,"used":true},{"PRN":13,"el":48,"az":101,"ss":50,"used":true},{"PRN":23,"el":12,"az":106,"ss":46,"used":true},{"PRN":25,"el":55,"az":69,"ss":38,"used":true},{"PRN":27,"el":83,"az":108,"ss":31,"used":true},{"PRN":120,"el":17,"az":229,"ss":0,"used":false},{"PRN":124,"el":28,"az":187,"ss":0,"used":false},{"PRN":126,"el":28,"az":183,"ss":0,"used":false},{"PRN":131,"el":20,"az":137,"ss":0,"used":false}]}
$GPGSA,A,3,27,23,13,07,25,,,,,,,,,,,,,,,,,,,,07.9,06.0,05.2*0B
$GPGGA,123502.000,5356.21588,N,02734.86634,E,1,05,06.0,255.8,M,26.0,M,,*68
{"class":"TPV","tag":"GGA","mode":3,"time":"2008-05-29T12:35:02.000Z","ept":0.005,"lat":53.936931333,"lon":27.581105667,"alt":255.800,"epx":23.004,"epy":56.196,"epv":0.000,"track":252.7000,"speed":0.000,"climb":0.000,"eps":112.39}
$GPRMC,123503.000,A,5356.21585,N,02734.86631,E,00.00,252.7,290508,,,A*6A
$PORZD,A,021.4*3B
$GPGSA,A,3,27,23,13,07,25,,,,,,,,,,,,,,,,,,,,07.9,06.0,05.2*0B
$GPGGA,123503.000,5356.21577,N,02734.86569,E,1,05,06.0,255.4,M,26.0,M,,*6E
{"class":"TPV","tag":"GGA","mode":3,"time":"2008-05-29T12:35:03.000Z","ept":0.005,"lat":53.936929500,"lon":27.581094833,"alt":255.400,"epx":23.004,"epy":56.196,"epv":0.000,"track":252.7000,"speed":0.000,"climb":0.000,"eps":112.39}
$GPRMC,123504.000,A,5356.21573,N,02734.86567,E,00.00,252.7,290508,,,A*64
$PORZD,A,022.2*3E
$GPGSA,A,3,27,23,13,07,25,,,,,,,,,,,,,,,,,,,,07.9,06.0,05.2*0B
$GPGGA,123504.000,5356.21576,N,02734.86571,E,1,05,06.0,255.4,M,26.0,M,,*61
{"class":"TPV","tag":"GGA","mode":3,"time":"2008-05-29T12:35:04.000Z","ept":0.005,"lat":53.936929333,"lon":27.581095167,"alt":255.400,"epx":23.004,"epy":56.196,"epv":0.000,"track":252.7000,"speed":0.000,"climb":0.000,"eps":112.39}
$GPRMC,123505.000,A,5356.21575,N,02734.86568,E,00.00,252.7,290508,,,A*6C
$PORZD,A,021.4*3B
$GPGSA,A,3,27,23,13,07,25,,,,,,,,,,,,,,,,,,,,07.9,06.0,05.2*0B
$GPGGA,123505.000,5356.21576,N,02734.86569,E,1,05,06.0,255.5,M,26.0,M,,*68
{"class":"TPV","tag":"GGA","mode":3,"time":"2008-05-29T12:35:05.000Z","ept":0.005,"lat":53.936929333,"lon":27.581094833,"alt":255.500,"epx":23.004,"epy":56.196,"epv":0.000,"track":252.7000,"speed":0.000,"climb":0.000,"eps":112.39}
$GPRMC,123506.000,A,5356.21571,N,02734.86567,E,00.00,252.7,290508,,,A*64
$PORZD,A,021.4*3B
$GPGSA,A,3,27,23,13,07,25,,,,,,,,,,,,,,,,,,,,07.9,06.0,05.2*0B
$GPGGA,123506.000,5356.21566,N,02734.86512,E,1,05,06.0,255.1,M,26.0,M,,*62
{"class":"TPV","tag":"GGA","mode":3,"time":"2008-05-29T12:35:06.000Z","ept":0.005,"lat":53.936927667,"lon":27.581085333,"alt":255.100,"epx":23.004,"epy":56.196,"epv":0.000,"track":252.7000,"speed":0.000,"climb":0.000,"eps":112.39}
$GPRMC,123507.000,A,5356.21562,N,02734.86508,E,00.00,252.7,290508,,,A*6E
$PORZD,A,022.2*3E
$GPGSA,A,3,27,23,13,07,25,,,,,,,,,,,,,,,,,,,,07.9,06.0,05.2*0B
$GPGGA,123507.000,5356.21566,N,02734.86514,E,1,05,06.0,255.1,M,26.0,M,,*65
{"class":"TPV","tag":"GGA","mode":3,"time":"2008-05-29T12:35:07.000Z","ept":0.005,"lat":53.936927667,"lon":27.581085667,"alt":255.100,"epx":23.004,"epy":56.196,"epv":0.000,"track":252.7000,"speed":0.000,"climb":0.000,"eps":112.39}
$GPRMC,123508.000,A,5356.21564,N,02734.86514,E,00.00,252.7,290508,,,A*6A
$PORZD,A,021.4*3B
$GPGSV,3,1,11,02,13,247,,03,11,065,,07,76,087,36,13,48,101,51*7C
$GPGSV,3,2,11,23,12,106,45,25,55,069,38,27,83,108,31,33,17,229,*75
$GPGSV,3,3,11,37,28,187,,39,28,183,,44,20,137,*44
{"class":"SKY","tag":"GSV","xdop":1.53,"ydop":3.75,"vdop":0.00,"tdop":0.96,"hdop":0.00,"gdop":4.55,"pdop":0.00,"satellites":[{"PRN":2,"el":13,"az":247,"ss":0,"used":false},{"PRN":3,"el":11,"az":65,"ss":0,"used":false},{"PRN":7,"el":76,"az":87,"ss":36,"used":true},{"PRN":13,"el":48,"az":101,"ss":51,"used":true},{"PRN":23,"el":12,"az":106,"ss":45,"used":true},{"PRN":25,"el":55,"az":69,"ss":38,"used":true},{"PRN":27,"el":83,"az":108,"ss":31,"used":true},{"PRN":120,"el":17,"az":229,"ss":0,"used":false},{"PRN":124,"el":28,"az":187,"ss":0,"used":false},{"PRN":126,"el":28,"az":183,"ss":0,"used":false},{"PRN":131,"el":20,"az":137,"ss":0,"used":false}]}
$GPGSA,A,3,27,23,13,07,25,,,,,,,,,,,,,,,,,,,,07.9,06.0,05.2*0B
$GPGGA,123508.000,5356.21568,N,02734.86517,E,1,05,06.0,255.2,M,26.0,M,,*64
{"class":"TPV","tag":"GGA","mode":3,"time":"2008-05-29T12:35:08.000Z","ept":0.005,"lat":53.936928000,"lon":27.581086167,"alt":255.200,"epx":23.004,"epy":56.196,"epv":0.000,"track":252.7000,"speed":0.000,"climb":0.000,"eps":112.39}
$GPRMC,123509.000,A,5356.21565,N,02734.86514,E,00.00,252.7,290508,,,A*6A
$PORZD,A,021.4*3B
$GPGSA,A,3,27,23,13,07,25,,,,,,,,,,,,,,,,,,,,07.9,06.0,05.2*0B
$GPGGA,123509.000,5356.21569,N,02734.86517,E,1,05,06.0,255.1,M,26.0,M,,*67
{"class":"TPV","tag":"GGA","mode":3,"time":"2008-05-29T12:35:09.000Z","ept":0.005,"lat":53.936928167,"lon":27.581086167,"alt":255.100,"epx":23.004,"epy":56.196,"epv":0.000,"track":252.7000,"speed":0.000,"climb":0.000,"eps":112.39}
$GPRMC,123510.000,A,5356.21566,N,02734.86516,E,00.00,252.7,290508,,,A*63
$PORZD,A,021.4*3B
$GPGSA,A,3,27,23,13,07,25,,,,,,,,,,,,,,,,,,,,07.9,06.0,05.2*0B
$GPGGA,123510.000,5356.21569,N,02734.86520,E,1,05,06.0,255.2,M,26.0,M,,*68
{"class":"TPV","tag":"GGA","mode":3,"time":"2008-05-29T12:35:10.000Z","ept":0.005,"lat":53.936928167,"lon":27.581086667,"alt":255.200,"epx":23.004,"epy":56.196,"epv":0.000,"track":252.7000,"speed":0.000,"climb":0.000,"eps":112.39}
$GPRMC,123511.000,A,5356.21565,N,02734.86519,E,00.00,252.7,290508,,,A*6E
$PORZD,A,021.4*3B
$GPGSA,A,3,27,23,13,07,25,,,,,,,,,,,,,,,,,,,,07.9,06.0,05.2*0B
$GPGGA,123511.000,5356.21561,N,02734.86474,E,1,05,06.0,254.9,M,26.0,M,,*6B
{"class":"TPV","tag":"GGA","mode":3,"time":"2008-05-29T12:35:11.000Z","ept":0.005,"lat":53.936926833,"lon":27.581079000,"alt":254.900,"epx":23.004,"epy":56.196,"epv":0.000,"track":252.7000,"speed":0.000,"climb":0.000,"eps":112.39}
$GPRMC,123512.000,A,5356.21558,N,02734.86470,E,00.00,252.7,290508,,,A*6D
$PORZD,A,022.2*3E
$GPGSA,A,3,27,23,13,07,25,,,,,,,,,,,,,,,,,,,,07.9,06.0,05.2*0B
$GPGGA,123512.000,5356.21561,N,02734.86478,E,1,05,06.0,254.9,M,26.0,M,,*64
{"class":"TPV","tag":"GGA","mode":3,"time":"2008-05-29T12:35:12.000Z","ept":0.005,"lat":53.936926833,"lon":27.581079667,"alt":254.900,"epx":23.004,"epy":56.196,"epv":0.000,"track":252.7000,"speed":0.000,"climb":0.000,"eps":112.39}
$GPRMC,123513.000,A,5356.21557,N,02734.86477,E,00.00,252.7,290508,,,A*64
$PORZD,A,021.4*3B
$GPGSA,A,3,27,23,13,07,25,,,,,,,,,,,,,,,,,,,,07.9,06.0,05.2*0B
$GPGGA,123513.000,5356.21553,N,02734.86441,E,1,05,06.0,254.7,M,26.0,M,,*60
{"class":"TPV","tag":"GGA","mode":3,"time":"2008-05-29T12:35:13.000Z","ept":0.005,"lat":53.936925500,"lon":27.581073500,"alt":254.700,"epx":23.004,"epy":56.196,"epv":0.000,"track":252.7000,"speed":0.000,"climb":0.000,"eps":112.39}
$GPRMC,123514.000,A,5356.21551,N,02734.86438,E,00.00,252.7,290508,,,A*6E
$PORZD,A,022.3*3F
$GPGSV,3,1,11,02,13,247,,03,11,065,,07,76,087,37,13,48,101,51*7D
$GPGSV,3,2,11,23,12,106,46,25,55,069,38,27,83,108,30,33,17,229,*77
$GPGSV,3,3,11,37,28,187,,39,28,183,,44,20,137,*44
{"class":"SKY","tag":"GSV","xdop":1.53,"ydop":3.75,"vdop":0.00,"tdop":0.96,"hdop":0.00,"gdop":4.55,"pdop":0.00,"satellites":[{"PRN":2,"el":13,"az":247,"ss":0,"used":false},{"PRN":3,"el":11,"az":65,"ss":0,"used":false},{"PRN":7,"el":76,"az":87,"ss":37,"used":true},{"PRN":13,"el":48,"az":101,"ss":51,"used":true},{"PRN":23,"el":12,"az":106,"ss":46,"used":true},{"PRN":25,"el":55,"az":69,"ss":38,"used":true},{"PRN":27,"el":83,"az":108,"ss":30,"used":true},{"PRN":120,"el":17,"az":229,"ss":0,"used":false},{"PRN":124,"el":28,"az":187,"ss":0,"used":false},{"PRN":126,"el":28,"az":183,"ss":0,"used":false},{"PRN":131,"el":20,"az":137,"ss":0,"used":false}]}
$GPGSA,A,3,27,23,13,07,25,,,,,,,,,,,,,,,,,,,,07.9,06.0,05.2*0B
$GPGGA,123514.000,5356.21548,N,02734.86407,E,1,05,06.0,254.4,M,26.0,M,,*6C
{"class":"TPV","tag":"GGA","mode":3,"time":"2008-05-29T12:35:14.000Z","ept":0.005,"lat":53.936924667,"lon":27.581067833,"alt":254.400,"epx":23.004,"epy":56.196,"epv":0.000,"track":252.7000,"speed":0.000,"climb":0.000,"eps":112.39}
$GPRMC,123515.000,A,5356.21544,N,02734.86403,E,00.00,252.7,290508,,,A*63
$PORZD,A,022.4*38
$GPGSA,A,3,27,23,13,07,25,,,,,,,,,,,,,,,,,,,,07.9,06.0,05.2*0B
$GPGGA,123515.000,5356.21549,N,02734.86418,E,1,05,06.0,254.5,M,26.0,M,,*63
{"class":"TPV","tag":"GGA","mode":3,"time":"2008-05-29T12:35:15.000Z","ept":0.005,"lat":53.936924833,"lon":27.581069667,"alt":254.500,"epx":23.004,"epy":56.196,"epv":0.000,"track":252.7000,"speed":0.000,"climb":0.000,"eps":112.39}
$GPRMC,123516.000,A,5356.21546,N,02734.86416,E,00.00,252.7,290508,,,A*66
$PORZD,A,021.6*39
$GPGSA,A,3,27,23,13,07,25,,,,,,,,,,,,,,,,,,,,07.9,06.0,05.2*0B
$GPGGA,123516.000,5356.21543,N,02734.86390,E,1,05,06.0,254.3,M,26.0,M,,*6B
{"class":"TPV","tag":"GGA","mode":3,"time":"2008-05-29T12:35:16.000Z","ept":0.005,"lat":53.936923833,"lon":27.581065000,"alt":254.300,"epx":23.004,"epy":56.196,"epv":0.000,"track":252.7000,"speed":0.000,"climb":0.000,"eps":112.39}
$GPRMC,123517.000,A,5356.21540,N,02734.86387,E,00.00,252.7,290508,,,A*6E
$PORZD,A,022.5*39
$GPGSA,A,3,27,23,13,07,25,,,,,,,,,,,,,,,,,,,,07.9,06.0,05.2*0B
$GPGGA,123517.000,5356.21539,N,02734.86365,E,1,05,06.0,254.2,M,26.0,M,,*6C
{"class":"TPV","tag":"GGA","mode":3,"time":"2008-05-29T12:35:17.000Z","ept":0.005,"lat":53.936923167,"lon":27.581060833,"alt":254.200,"epx":23.004,"epy":56.196,"epv":0.000,"track":252.7000,"speed":0.000,"climb":0.000,"eps":112.39}
$GPRMC,123518.000,A,5356.21536,N,02734.86362,E,00.00,252.7,290508,,,A*6B
$PORZD,A,022.5*39
$GPGSA,A,3,27,23,13,07,25,,,,,,,,,,,,,,,,,,,,07.9,06.0,05.2*0B
$GPGGA,123518.000,5356.21540,N,02734.86384,E,1,05,06.0,254.3,M,26.0,M,,*63
{"class":"TPV","tag":"GGA","mode":3,"time":"2008-05-29T12:35:18.000Z","ept":0.005,"lat":53.936923333,"lon":27.581064000,"alt":254.300,"epx":23.004,"epy":56.196,"epv":0.000,"track":252.7000,"speed":0.000,"climb":0.000,"eps":112.39}
$GPRMC,123519.000,A,5356.21536,N,02734.86384,E,00.00,252.7,290508,,,A*62
$PORZD,A,021.6*39
$GPGSA,A,3,27,23,13,07,25,,,,,,,,,,,,,,,,,,,,07.9,06.0,05.2*0B
$GPGGA,123519.000,5356.21534,N,02734.86366,E,1,05,06.0,254.2,M,26.0,M,,*6C
{"class":"TPV","tag":"GGA","mode":3,"time":"2008-05-29T12:35:19.000Z","ept":0.005,"lat":53.936922333,"lon":27.581061000,"alt":254.200,"epx":23.004,"epy":56.196,"epv":0.000,"track":252.7000,"speed":0.000,"climb":0.000,"eps":112.39}
$GPRMC,123520.000,A,5356.21532,N,02734.86362,E,00.00,252.7,290508,,,A*64
$PORZD,A,022.5*39
$GPGSV,3,1,11,02,13,247,,03,11,065,,07,76,087,36,13,48,101,50*7D
$GPGSV,3,2,11,23,12,106,47,25,55,069,39,27,83,108,31,33,17,229,*76
$GPGSV,3,3,11,37,28,187,,39,28,183,,44,20,137,*44
{"class":"SKY","tag":"GSV","xdop":1.53,"ydop":3.75,"vdop":0.00,"tdop":0.96,"hdop":0.00,"gdop":4.55,"pdop":0.00,"satellites":[{"PRN":2,"el":13,"az":247,"ss":0,"used":false},{"PRN":3,"el":11,"az":65,"ss":0,"used":false},{"PRN":7,"el":76,"az":87,"ss":36,"used":true},{"PRN":13,"el":48,"az":101,"ss":50,"used":true},{"PRN":23,"el":12,"az":106,"ss":47,"used":true},{"PRN":25,"el":55,"az":69,"ss":39,"used":true},{"PRN":27,"el":83,"az":108,"ss":31,"used":true},{"PRN":120,"el":17,"az":229,"ss":0,"used":false},{"PRN":124,"el":28,"az":187,"ss":0,"used":false},{"PRN":126,"el":28,"az":183,"ss":0,"used":false},{"PRN":131,"el":20,"az":137,"ss":0,"used":false}]}
$GPGSA,A,3,27,23,13,07,25,,,,,,,,,,,,,,,,,,,,07.9,06.0,05.2*0B
$GPGGA,123520.000,5356.21536,N,02734.86384,E,1,05,06.0,254.3,M,26.0,M,,*69
{"class":"TPV","tag":"GGA","mode":3,"time":"2008-05-29T12:35:20.000Z","ept":0.005,"lat":53.936922667,"lon":27.581064000,"alt":254.300,"epx":23.004,"epy":56.196,"epv":0.000,"track":252.7000,"speed":0.000,"climb":0.000,"eps":112.39}
$GPRMC,123521.000,A,5356.21532,N,02734.86385,E,00.00,252.7,290508,,,A*6C
$PORZD,A,021.6*39
$GPGSA,A,3,27,23,13,07,25,,,,,,,,,,,,,,,,,,,,07.9,06.0,05.2*0B
$GPGGA,123521.000,5356.21534,N,02734.86399,E,1,05,05.9,254.5,M,26.0,M,,*6A
{"class":"TPV","tag":"GGA","mode":3,"time":"2008-05-29T12:35:21.000Z","ept":0.005,"lat":53.936922333,"lon":27.581066500,"alt":254.500,"epx":23.004,"epy":56.196,"epv":0.000,"track":252.7000,"speed":0.000,"climb":0.000,"eps":112.39}
$GPRMC,123522.000,A,5356.21532,N,02734.86395,E,00.00,252.7,290508,,,A*6E
$PORZD,A,021.6*39
$GPGSA,A,3,27,23,13,07,25,,,,,,,,,,,,,,,,,,,,07.9,05.9,05.2*01
$GPGGA,123522.000,5356.21532,N,02734.86407,E,1,05,05.9,254.6,M,26.0,M,,*6C
{"class":"TPV","tag":"GGA","mode":3,"time":"2008-05-29T12:35:22.000Z","ept":0.005,"lat":53.936922000,"lon":27.581067833,"alt":254.600,"epx":23.004,"epy":56.196,"epv":0.000,"track":252.7000,"speed":0.000,"climb":0.000,"eps":112.39}
$GPRMC,123523.000,A,5356.21529,N,02734.86407,E,00.00,252.7,290508,,,A*69
$PORZD,A,021.5*3A
$GPGSA,A,3,27,23,13,07,25,,,,,,,,,,,,,,,,,,,,07.9,05.9,05.2*01
$GPGGA,123523.000,5356.21524,N,02734.86380,E,1,05,05.9,254.4,M,26.0,M,,*60
{"class":"TPV","tag":"GGA","mode":3,"time":"2008-05-29T12:35:23.000Z","ept":0.005,"lat":53.936920667,"lon":27.581063333,"alt":254.400,"epx":23.004,"epy":56.196,"epv":0.000,"track":252.7000,"speed":0.000,"climb":0.000,"eps":112.39}
$GPRMC,123524.000,A,5356.21521,N,02734.86378,E,00.00,252.7,290508,,,A*69
$PORZD,A,022.5*39
$GPGSA,A,3,27,23,13,07,25,,,,,,,,,,,,,,,,,,,,07.9,05.9,05.1*02
$GPGGA,123524.000,5356.21520,N,02734.86384,E,1,05,05.9,254.4,M,26.0,M,,*67
{"class":"TPV","tag":"GGA","mode":3,"time":"2008-05-29T12:35:24.000Z","ept":0.005,"lat":53.936920000,"lon":27.581064000,"alt":254.400,"epx":23.004,"epy":56.196,"epv":0.000,"track":252.7000,"speed":0.000,"climb":0.000,"eps":112.39}
$GPRMC,123525.000,A,5356.21516,N,02734.86382,E,00.00,252.7,290508,,,A*69
$PORZD,A,021.6*39
$GPGSA,A,3,27,23,13,07,25,,,,,,,,,,,,,,,,,,,,07.9,05.9,05.1*02
$GPGGA,123525.000,5356.21516,N,02734.86385,E,1,05,05.9,254.4,M,26.0,M,,*62
{"class":"TPV","tag":"GGA","mode":3,"time":"2008-05-29T12:35:25.000Z","ept":0.005,"lat":53.936919333,"lon":27.581064167,"alt":254.400,"epx":23.004,"epy":56.196,"epv":0.000,"track":252.7000,"speed":0.000,"climb":0.000,"eps":112.39}
$GPRMC,123526.000,A,5356.21514,N,02734.86386,E,00.00,252.7,290508,,,A*6C
$PORZD,A,021.6*39
$GPGSV,3,1,12,02,12,247,,03,11,065,,07,76,086,37,13,48,101,51*7E
$GPGSV,3,2,12,23,12,106,45,25,55,069,38,27,83,107,30,28,05,181,40*74
$GPGSV,3,3,12,33,17,229,,37,28,187,,39,28,183,,44,20,137,*78
{"class":"SKY","tag":"GSV","xdop":1.53,"ydop":3.75,"vdop":0.00,"tdop":0.96,"hdop":0.00,"gdop":4.55,"pdop":0.00,"satellites":[{"PRN":2,"el":12,"az":247,"ss":0,"used":false},{"PRN":3,"el":11,"az":65,"ss":0,"used":false},{"PRN":7,"el":76,"az":86,"ss":37,"used":true},{"PRN":13,"el":48,"az":101,"ss":51,"used":true},{"PRN":23,"el":12,"az":106,"ss":45,"used":true},{"PRN":25,"el":55,"az":69,"ss":38,"used":true},{"PRN":27,"el":83,"az":107,"ss":30,"used":true},{"PRN":28,"el":5,"az":181,"ss":40,"used":false},{"PRN":120,"el":17,"az":229,"ss":0,"used":false},{"PRN":124,"el":28,"az":187,"ss":0,"used":false},{"PRN":126,"el":28,"az":183,"ss":0,"used":false},{"PRN":131,"el":20,"az":137,"ss":0,"used":false}]}
$GPGSA,A,3,27,23,13,07,25,,,,,,,,,,,,,,,,,,,,07.9,05.9,05.1*02
$GPGGA,123526.000,5356.21510,N,02734.86359,E,1,05,05.9,254.3,M,26.0,M,,*61
{"class":"TPV","tag":"GGA","mode":3,"time":"2008-05-29T12:35:26.000Z","ept":0.005,"lat":53.936918333,"lon":27.581059833,"alt":254.300,"epx":23.004,"epy":56.196,"epv":0.000,"track":252.7000,"speed":0.000,"climb":0.000,"eps":112.39}
$GPRMC,123527.000,A,5356.21507,N,02734.86356,E,00.00,252.7,290508,,,A*62
$PORZD,A,022.5*39
$GPGSA,A,3,27,23,13,07,25,,,,,,,,,,,,,,,,,,,,07.9,05.9,05.1*02
$GPGGA,123527.000,5356.21503,N,02734.86331,E,1,05,05.9,254.1,M,26.0,M,,*6E
{"class":"TPV","tag":"GGA","mode":3,"time":"2008-05-29T12:35:27.000Z","ept":0.005,"lat":53.936917167,"lon":27.581055167,"alt":254.100,"epx":23.004,"epy":56.196,"epv":0.000,"track":252.7000,"speed":0.000,"climb":0.000,"eps":112.39}
$GPRMC,123528.000,A,5356.21500,N,02734.86330,E,00.00,252.7,290508,,,A*6A
$PORZD,A,022.5*39
$GPGSA,A,3,27,23,13,07,25,,,,,,,,,,,,,,,,,,,,07.9,05.9,05.1*02
$GPGGA,123528.000,5356.21500,N,02734.86332,E,1,06,04.9,254.2,M,26.0,M,,*60
{"class":"TPV","tag":"GGA","mode":3,"time":"2008-05-29T12:35:28.000Z","ept":0.005,"lat":53.936916667,"lon":27.581055333,"alt":254.200,"epx":23.004,"epy":56.196,"epv":0.000,"track":252.7000,"speed":0.000,"climb":0.000,"eps":112.39}
$GPRMC,123529.000,A,5356.21497,N,02734.86332,E,00.00,252.7,290508,,,A*66
$PORZD,A,018.0*35
$GPGSA,A,3,28,27,23,13,07,25,,,,,,,,,,,,,,,,,,,06.4,04.9,04.1*04
$GPGGA,123529.000,5356.21498,N,02734.86331,E,1,06,04.9,254.2,M,26.0,M,,*62
{"class":"TPV","tag":"GGA","mode":3,"time":"2008-05-29T12:35:29.000Z","ept":0.005,"lat":53.936916333,"lon":27.581055167,"alt":254.200,"epx":23.004,"epy":56.196,"epv":0.000,"track":252.7000,"speed":0.000,"climb":0.000,"eps":112.39}
$GPRMC,123530.000,A,5356.21496,N,02734.86329,E,00.00,252.7,290508,,,A*65
$PORZD,A,017.4*3E
$GPGSA,A,3,28,27,23,13,07,25,,,,,,,,,,,,,,,,,,,06.4,04.9,04.1*04
$GPGGA,123530.000,5356.21496,N,02734.86329,E,1,06,04.9,254.2,M,26.0,M,,*6D
{"class":"TPV","tag":"GGA","mode":3,"time":"2008-05-29T12:35:30.000Z","ept":0.005,"lat":53.936916000,"lon":27.581054833,"alt":254.200,"epx":23.004,"epy":56.196,"epv":0.000,"track":252.7000,"speed":0.000,"climb":0.000,"eps":112.39}
$GPRMC,123531.000,A,5356.21494,N,02734.86327,E,00.00,252.7,290508,,,A*68
$PORZD,A,017.0*3A
$GPGSA,A,3,28,27,23,13,07,25,,,,,,,,,,,,,,,,,,,06.4,04.9,04.1*04
$GPGGA,123531.000,5356.21498,N,02734.86346,E,1,06,04.9,254.2,M,26.0,M,,*6B
{"class":"TPV","tag":"GGA","mode":3,"time":"2008-05-29T12:35:31.000Z","ept":0.005,"lat":53.936916333,"lon":27.581057667,"alt":254.200,"epx":23.004,"epy":56.196,"epv":0.000,"track":252.7000,"speed":0.000,"climb":0.000,"eps":112.39}
$GPRMC,123532.000,A,5356.21496,N,02734.86347,E,00.00,252.7,290508,,,A*6F
$PORZD,A,016.6*3D
$GPGSV,3,1,12,02,12,247,,03,11,065,,07,76,086,36,13,48,101,51*7F
$GPGSV,3,2,12,23,12,106,45,25,55,069,38,27,83,107,29,28,05,181,44*78
$GPGSV,3,3,12,33,17,229,,37,28,187,,39,28,183,,44,20,137,*78
{"class":"SKY","tag":"GSV","xdop":1.53,"ydop":3.75,"vdop":0.00,"tdop":0.96,"hdop":0.00,"gdop":4.55,"pdop":0.00,"satellites":[{"PRN":2,"el":12,"az":247,"ss":0,"used":false},{"PRN":3,"el":11,"az":65,"ss":0,"used":false},{"PRN":7,"el":76,"az":86,"ss":36,"used":true},{"PRN":13,"el":48,"az":101,"ss":51,"used":true},{"PRN":23,"el":12,"az":106,"ss":45,"used":true},{"PRN":25,"el":55,"az":69,"ss":38,"used":true},{"PRN":27,"el":83,"az":107,"ss":29,"used":true},{"PRN":28,"el":5,"az":181,"ss":44,"used":true},{"PRN":120,"el":17,"az":229,"ss":0,"used":false},{"PRN":124,"el":28,"az":187,"ss":0,"used":false},{"PRN":126,"el":28,"az":183,"ss":0,"used":false},{"PRN":131,"el":20,"az":137,"ss":0,"used":false}]}
$GPGSA,A,3,28,27,23,13,07,25,,,,,,,,,,,,,,,,,,,06.4,04.9,04.1*04
$GPGGA,123532.000,5356.21499,N,02734.86359,E,1,06,04.9,254.2,M,26.0,M,,*67
{"class":"TPV","tag":"GGA","mode":3,"time":"2008-05-29T12:35:32.000Z","ept":0.005,"lat":53.936916500,"lon":27.581059833,"alt":254.200,"epx":23.004,"epy":56.196,"epv":0.000,"track":252.7000,"speed":0.000,"climb":0.000,"eps":112.39}
$GPRMC,123533.000,A,5356.21497,N,02734.86358,E,00.00,252.7,290508,,,A*61
$PORZD,A,016.5*3E
$GPGSA,A,3,28,27,23,13,07,25,,,,,,,,,,,,,,,,,,,06.4,04.9,04.1*04
$GPGGA,123533.000,5356.21499,N,02734.86368,E,1,06,04.9,254.2,M,26.0,M,,*64
{"class":"TPV","tag":"GGA","mode":3,"time":"2008-05-29T12:35:33.000Z","ept":0.005,"lat":53.936916500,"lon":27.581061333,"alt":254.200,"epx":23.004,"epy":56.196,"epv":0.000,"track":252.7000,"speed":0.000,"climb":0.000,"eps":112.39}
$GPRMC,123534.000,A,5356.21497,N,02734.86369,E,00.00,252.7,290508,,,A*64
$PORZD,A,016.5*3E
$GPGSA,A,3,28,27,23,13,07,25,,,,,,,,,,,,,,,,,,,06.4,04.9,04.1*04
$GPGGA,123534.000,5356.21499,N,02734.86376,E,1,06,04.9,254.2,M,26.0,M,,*6C
{"class":"TPV","tag":"GGA","mode":3,"time":"2008-05-29T12:35:34.000Z","ept":0.005,"lat":53.936916500,"lon":27.581062667,"alt":254.200,"epx":23.004,"epy":56.196,"epv":0.000,"track":252.7000,"speed":0.000,"climb":0.000,"eps":112.39}
$GPRMC,123535.000,A,5356.21497,N,02734.86375,E,00.00,252.7,290508,,,A*68
$PORZD,A,016.4*3F
$GPGSA,A,3,28,27,23,13,07,25,,,,,,,,,,,,,,,,,,,06.4,04.9,04.1*04
$GPGGA,123535.000,5356.21499,N,02734.86381,E,1,06,04.9,254.2,M,26.0,M,,*65
{"class":"TPV","tag":"GGA","mode":3,"time":"2008-05-29T12:35:35.000Z","ept":0.005,"lat":53.936916500,"lon":27.581063500,"alt":254.200,"epx":23.004,"epy":56.196,"epv":0.000,"track":252.7000,"speed":0.000,"climb":0.000,"eps":112.39}
$GPRMC,123536.000,A,5356.21495,N,02734.86381,E,00.00,252.7,290508,,,A*62
$PORZD,A,016.3*38
$GPGSA,A,3,28,27,23,13,07,25,,,,,,,,,,,,,,,,,,,06.4,04.9,04.1*04
$GPGGA,123536.000,5356.21498,N,02734.86385,E,1,06,04.9,254.3,M,26.0,M,,*62
{"class":"TPV","tag":"GGA","mode":3,"time":"2008-05-29T12:35:36.000Z","ept":0.005,"lat":53.936916333,"lon":27.581064167,"alt":254.300,"epx":23.004,"epy":56.196,"epv":0.000,"track":252.7000,"speed":0.000,"climb":0.000,"eps":112.39}
$GPRMC,123537.000,A,5356.21496,N,02734.86386,E,00.00,252.7,290508,,,A*67
$PORZD,A,016.3*38
$GPGSA,A,3,28,27,23,13,07,25,,,,,,,,,,,,,,,,,,,06.4,04.9,04.1*04
$GPGGA,123537.000,5356.21498,N,02734.86387,E,1,06,04.9,254.3,M,26.0,M,,*61
{"class":"TPV","tag":"GGA","mode":3,"time":"2008-05-29T12:35:37.000Z","ept":0.005,"lat":53.936916333,"lon":27.581064500,"alt":254.300,"epx":23.004,"epy":56.196,"epv":0.000,"track":252.7000,"speed":0.000,"climb":0.000,"eps":112.39}
$GPRMC,123538.000,A,5356.21497,N,02734.86386,E,00.00,252.7,290508,,,A*69
$PORZD,A,016.2*39
$GPGSV,3,1,12,02,12,247,,03,11,065,,07,76,086,36,13,48,101,50*7E
$GPGSV,3,2,12,23,12,106,46,25,55,069,38,27,83,107,29,28,05,181,45*7A
$GPGSV,3,3,12,33,17,229,,37,28,187,,39,28,183,,44,20,137,*78
{"class":"SKY","tag":"GSV","xdop":1.53,"ydop":3.75,"vdop":0.00,"tdop":0.96,"hdop":0.00,"gdop":4.55,"pdop":0.00,"satellites":[{"PRN":2,"el":12,"az":247,"ss":0,"used":false},{"PRN":3,"el":11,"az":65,"ss":0,"used":false},{"PRN":7,"el":76,"az":86,"ss":36,"used":true},{"PRN":13,"el":48,"az":101,"ss":50,"used":true},{"PRN":23,"el":12,"az":106,"ss":46,"used":true},{"PRN":25,"el":55,"az":69,"ss":38,"used":true},{"PRN":27,"el":83,"az":107,"ss":29,"used":true},{"PRN":28,"el":5,"az":181,"ss":45,"used":true},{"PRN":120,"el":17,"az":229,"ss":0,"used":false},{"PRN":124,"el":28,"az":187,"ss":0,"used":false},{"PRN":126,"el":28,"az":183,"ss":0,"used":false},{"PRN":131,"el":20,"az":137,"ss":0,"used":false}]}
$GPGSA,A,3,28,27,23,13,07,25,,,,,,,,,,,,,,,,,,,06.4,04.9,04.1*04
$GPGGA,123538.000,5356.21499,N,02734.86387,E,1,06,04.9,254.3,M,26.0,M,,*6F
{"class":"TPV","tag":"GGA","mode":3,"time":"2008-05-29T12:35:38.000Z","ept":0.005,"lat":53.936916500,"lon":27.581064500,"alt":254.300,"epx":23.004,"epy":56.196,"epv":0.000,"track":252.7000,"speed":0.000,"climb":0.000,"eps":112.39}
$GPRMC,123539.000,A,5356.21496,N,02734.86387,E,00.00,252.7,290508,,,A*68
$PORZD,A,016.2*39
$GPGSA,A,3,28,27,23,13,07,25,,,,,,,,,,,,,,,,,,,06.4,04.9,04.1*04
$GPGGA,123539.000,5356.21499,N,02734.86387,E,1,06,04.9,254.3,M,26.0,M,,*6E
{"class":"TPV","tag":"GGA","mode":3,"time":"2008-05-29T12:35:39.000Z","ept":0.005,"lat":53.936916500,"lon":27.581064500,"alt":254.300,"epx":23.004,"epy":56.196,"epv":0.000,"track":252.7000,"speed":0.000,"climb":0.000,"eps":112.39}
$GPRMC,123540.000,A,5356.21497,N,02734.86387,E,00.00,252.7,290508,,,A*67
$PORZD,A,016.1*3A
$GPGSA,A,3,28,27,23,13,07,25,,,,,,,,,,,,,,,,,,,06.4,04.9,04.1*04
$GPGGA,123540.000,5356.21500,N,02734.86385,E,1,06,04.9,254.3,M,26.0,M,,*63
{"class":"TPV","tag":"GGA","mode":3,"time":"2008-05-29T12:35:40.000Z","ept":0.005,"lat":53.936916667,"lon":27.581064167,"alt":254.300,"epx":23.004,"epy":56.196,"epv":0.000,"track":252.7000,"speed":0.000,"climb":0.000,"eps":112.39}
$GPRMC,123541.000,A,5356.21498,N,02734.86385,E,00.00,252.7,290508,,,A*6B
$PORZD,A,016.1*3A
$GPGSA,A,3,28,27,23,13,07,25,,,,,,,,,,,,,,,,,,,06.4,04.9,04.1*04
$GPGGA,123541.000,5356.21499,N,02734.86371,E,1,06,04.9,254.4,M,26.0,M,,*6F
{"class":"TPV","tag":"GGA","mode":3,"time":"2008-05-29T12:35:41.000Z","ept":0.005,"lat":53.936916500,"lon":27.581061833,"alt":254.400,"epx":23.004,"epy":56.196,"epv":0.000,"track":252.7000,"speed":0.000,"climb":0.000,"eps":112.39}
$GPRMC,123542.000,A,5356.21496,N,02734.86371,E,00.00,252.7,290508,,,A*6D
$PORZD,A,016.3*38
$GPGSA,A,3,28,27,23,13,07,25,,,,,,,,,,,,,,,,,,,06.4,04.9,04.1*04
$GPGGA,123542.000,5356.21499,N,02734.86359,E,1,06,04.9,254.4,M,26.0,M,,*66
{"class":"TPV","tag":"GGA","mode":3,"time":"2008-05-29T12:35:42.000Z","ept":0.005,"lat":53.936916500,"lon":27.581059833,"alt":254.400,"epx":23.004,"epy":56.196,"epv":0.000,"track":252.7000,"speed":0.000,"climb":0.000,"eps":112.39}
$GPRMC,123543.000,A,5356.21495,N,02734.86360,E,00.00,252.7,290508,,,A*6F
$PORZD,A,016.2*39
$GPGSA,A,3,28,27,23,13,07,25,,,,,,,,,,,,,,,,,,,06.4,04.9,04.1*04
$GPGGA,123543.000,5356.21499,N,02734.86349,E,1,06,04.9,254.4,M,26.0,M,,*66
{"class":"TPV","tag":"GGA","mode":3,"time":"2008-05-29T12:35:43.000Z","ept":0.005,"lat":53.936916500,"lon":27.581058167,"alt":254.400,"epx":23.004,"epy":56.196,"epv":0.000,"track":252.7000,"speed":0.000,"climb":0.000,"eps":112.39}
$GPRMC,123544.000,A,5356.21498,N,02734.86347,E,00.00,252.7,290508,,,A*60
$PORZD,A,016.2*39
$GPGSV,3,1,12,02,12,247,,03,11,065,,07,76,086,35,13,48,101,50*7D
$GPGSV,3,2,12,23,12,106,46,25,55,069,38,27,83,107,29,28,05,181,45*7A
$GPGSV,3,3,12,33,17,229,,37,28,187,,39,28,183,,44,20,137,*78
{"class":"SKY","tag":"GSV","xdop":1.53,"ydop":3.75,"vdop":0.00,"tdop":0.96,"hdop":0.00,"gdop":4.55,"pdop":0.00,"satellites":[{"PRN":2,"el":12,"az":247,"ss":0,"used":false},{"PRN":3,"el":11,"az":65,"ss":0,"used":false},{"PRN":7,"el":76,"az":86,"ss":35,"used":true},{"PRN":13,"el":48,"az":101,"ss":50,"used":true},{"PRN":23,"el":12,"az":106,"ss":46,"used":true},{"PRN":25,"el":55,"az":69,"ss":38,"used":true},{"PRN":27,"el":83,"az":107,"ss":29,"used":true},{"PRN":28,"el":5,"az":181,"ss":45,"used":true},{"PRN":120,"el":17,"az":229,"ss":0,"used":false},{"PRN":124,"el":28,"az":187,"ss":0,"used":false},{"PRN":126,"el":28,"az":183,"ss":0,"used":false},{"PRN":131,"el":20,"az":137,"ss":0,"used":false}]}
$GPGSA,A,3,28,27,23,13,07,25,,,,,,,,,,,,,,,,,,,06.3,04.9,04.1*03
$GPGGA,123544.000,5356.21501,N,02734.86338,E,1,06,04.9,254.4,M,26.0,M,,*67
{"class":"TPV","tag":"GGA","mode":3,"time":"2008-05-29T12:35:44.000Z","ept":0.005,"lat":53.936916833,"lon":27.581056333,"alt":254.400,"epx":23.004,"epy":56.196,"epv":0.000,"track":252.7000,"speed":0.000,"climb":0.000,"eps":112.39}
$GPRMC,123545.000,A,5356.21498,N,02734.86336,E,00.00,252.7,290508,,,A*67
$PORZD,A,016.1*3A
$GPGSA,A,3,28,27,23,13,07,25,,,,,,,,,,,,,,,,,,,06.3,04.9,04.1*03
$GPGGA,123545.000,5356.21502,N,02734.86328,E,1,06,04.8,254.4,M,26.0,M,,*65
{"class":"TPV","tag":"GGA","mode":3,"time":"2008-05-29T12:35:45.000Z","ept":0.005,"lat":53.936917000,"lon":27.581054667,"alt":254.400,"epx":23.004,"epy":56.196,"epv":0.000,"track":252.7000,"speed":0.000,"climb":0.000,"eps":112.39}
$GPRMC,123546.000,A,5356.21499,N,02734.86329,E,00.00,252.7,290508,,,A*6B
$PORZD,A,016.1*3A
$GPGSA,A,3,28,27,23,13,07,25,,,,,,,,,,,,,,,,,,,06.3,04.8,04.1*02
$GPGGA,123546.000,5356.21502,N,02734.86322,E,1,06,04.8,254.4,M,26.0,M,,*6C
{"class":"TPV","tag":"GGA","mode":3,"time":"2008-05-29T12:35:46.000Z","ept":0.005,"lat":53.936917000,"lon":27.581053667,"alt":254.400,"epx":23.004,"epy":56.196,"epv":0.000,"track":252.7000,"speed":0.000,"climb":0.000,"eps":112.39}
$GPRMC,123547.000,A,5356.21499,N,02734.86322,E,00.00,252.7,290508,,,A*61
$PORZD,A,016.1*3A
$GPGSA,A,3,28,27,23,13,07,25,,,,,,,,,,,,,,,,,,,06.3,04.8,04.1*02
$GPGGA,123547.000,5356.21503,N,02734.86315,E,1,06,04.8,254.3,M,26.0,M,,*6F
{"class":"TPV","tag":"GGA","mode":3,"time":"2008-05-29T12:35:47.000Z","ept":0.005,"lat":53.936917167,"lon":27.581052500,"alt":254.300,"epx":23.004,"epy":56.196,"epv":0.000,"track":252.7000,"speed":0.000,"climb":0.000,"eps":112.39}
$GPRMC,123548.000,A,5356.21500,N,02734.86314,E,00.00,252.7,290508,,,A*6A
$PORZD,A,016.0*3B
$GPGSA,A,3,28,27,23,13,07,25,,,,,,,,,,,,,,,,,,,06.3,04.8,04.1*02
$GPGGA,123548.000,5356.21502,N,02734.86310,E,1,06,04.8,254.4,M,26.0,M,,*63
{"class":"TPV","tag":"GGA","mode":3,"time":"2008-05-29T12:35:48.000Z","ept":0.005,"lat":53.936917000,"lon":27.581051667,"alt":254.400,"epx":23.004,"epy":56.196,"epv":0.000,"track":252.7000,"speed":0.000,"climb":0.000,"eps":112.39}
$GPRMC,123549.000,A,5356.21498,N,02734.86310,E,00.00,252.7,290508,,,A*6F
$PORZD,A,016.0*3B
$GPGSA,A,3,28,27,23,13,07,25,,,,,,,,,,,,,,,,,,,06.3,04.8,04.1*02
$GPGGA,123549.000,5356.21503,N,02734.86304,E,1,06,04.8,254.4,M,26.0,M,,*66
{"class":"TPV","tag":"GGA","mode":3,"time":"2008-05-29T12:35:49.000Z","ept":0.005,"lat":53.936917167,"lon":27.581050667,"alt":254.400,"epx":23.004,"epy":56.196,"epv":0.000,"track":252.7000,"speed":0.000,"climb":0.000,"eps":112.39}
$GPRMC,123550.000,A,5356.21500,N,02734.86304,E,00.00,252.7,290508,,,A*62
$PORZD,A,016.0*3B
$GPGSV,3,1,12,02,12,247,,03,11,065,,07,76,086,35,13,48,101,50*7D
$GPGSV,3,2,12,23,12,106,46,25,55,069,38,27,83,107,28,28,05,181,45*7B
$GPGSV,3,3,12,33,17,229,,37,28,187,,39,28,183,,44,20,137,*78
{"class":"SKY","tag":"GSV","xdop":1.53,"ydop":3.75,"vdop":0.00,"tdop":0.96,"hdop":0.00,"gdop":4.55,"pdop":0.00,"satellites":[{"PRN":2,"el":12,"az":247,"ss":0,"used":false},{"PRN":3,"el":11,"az":65,"ss":0,"used":false},{"PRN":7,"el":76,"az":86,"ss":35,"used":true},{"PRN":13,"el":48,"az":101,"ss":50,"used":true},{"PRN":23,"el":12,"az":106,"ss":46,"used":true},{"PRN":25,"el":55,"az":69,"ss":38,"used":true},{"PRN":27,"el":83,"az":107,"ss":28,"used":true},{"PRN":28,"el":5,"az":181,"ss":45,"used":true},{"PRN":120,"el":17,"az":229,"ss":0,"used":false},{"PRN":124,"el":28,"az":187,"ss":0,"used":false},{"PRN":126,"el":28,"az":183,"ss":0,"used":false},{"PRN":131,"el":20,"az":137,"ss":0,"used":false}]}
$GPGSA,A,3,28,27,23,13,07,25,,,,,,,,,,,,,,,,,,,06.3,04.8,04.1*02
$GPGGA,123550.000,5356.21503,N,02734.86299,E,1,06,04.8,254.4,M,26.0,M,,*6B
{"class":"TPV","tag":"GGA","mode":3,"time":"2008-05-29T12:35:50.000Z","ept":0.005,"lat":53.936917167,"lon":27.581049833,"alt":254.400,"epx":23.004,"epy":56.196,"epv":0.000,"track":252.7000,"speed":0.000,"climb":0.000,"eps":112.39}
$GPRMC,123551.000,A,5356.21500,N,02734.86299,E,00.00,252.7,290508,,,A*66
$PORZD,A,016.0*3B
$GPGSA,A,3,28,27,23,13,07,25,,,,,,,,,,,,,,,,,,,06.3,04.8,04.1*02
$GPGGA,123551.000,5356.21504,N,02734.86294,E,1,06,04.8,254.3,M,26.0,M,,*67
{"class":"TPV","tag":"GGA","mode":3,"time":"2008-05-29T12:35:51.000Z","ept":0.005,"lat":53.936917333,"lon":27.581049000,"alt":254.300,"epx":23.004,"epy":56.196,"epv":0.000,"track":252.7000,"speed":0.000,"climb":0.000,"eps":112.39}
$GPRMC,123552.000,A,5356.21501,N,02734.86294,E,00.00,252.7,290508,,,A*69
$PORZD,A,016.0*3B
$GPGSA,A,3,28,27,23,13,07,25,,,,,,,,,,,,,,,,,,,06.3,04.8,04.1*02
$GPGGA,123552.000,5356.21504,N,02734.86291,E,1,06,04.8,254.4,M,26.0,M,,*66
{"class":"TPV","tag":"GGA","mode":3,"time":"2008-05-29T12:35:52.000Z","ept":0.005,"lat":53.936917333,"lon":27.581048500,"alt":254.400,"epx":23.004,"epy":56.196,"epv":0.000,"track":252.7000,"speed":0.000,"climb":0.000,"eps":112.39}
$GPRMC,123553.000,A,5356.21500,N,02734.86291,E,00.00,252.7,290508,,,A*6C
$PORZD,A,016.0*3B
$GPGSA,A,3,28,27,23,13,07,25,,,,,,,,,,,,,,,,,,,06.3,04.8,04.1*02
$GPGGA,123553.000,5356.21505,N,02734.86296,E,1,06,04.8,254.4,M,26.0,M,,*61
{"class":"TPV","tag":"GGA","mode":3,"time":"2008-05-29T12:35:53.000Z","ept":0.005,"lat":53.936917500,"lon":27.581049333,"alt":254.400,"epx":23.004,"epy":56.196,"epv":0.000,"track":252.7000,"speed":0.000,"climb":0.000,"eps":112.39}
$GPRMC,123554.000,A,5356.21503,N,02734.86296,E,00.00,252.7,290508,,,A*6F
$PORZD,A,015.9*31
$GPGSA,A,3,28,27,23,13,07,25,,,,,,,,,,,,,,,,,,,06.3,04.8,04.1*02
$GPGGA,123554.000,5356.21506,N,02734.86301,E,1,06,04.8,254.4,M,26.0,M,,*6A
{"class":"TPV","tag":"GGA","mode":3,"time":"2008-05-29T12:35:54.000Z","ept":0.005,"lat":53.936917667,"lon":27.581050167,"alt":254.400,"epx":23.004,"epy":56.196,"epv":0.000,"track":252.7000,"speed":0.000,"climb":0.000,"eps":112.39}
$GPRMC,123555.000,A,5356.21504,N,02734.86300,E,00.00,252.7,290508,,,A*67
$PORZD,A,015.9*31
$GPGSA,A,3,28,27,23,13,07,25,,,,,,,,,,,,,,,,,,,06.3,04.8,04.1*02
$GPGGA,123555.000,5356.21507,N,02734.86304,E,1,06,04.8,254.5,M,26.0,M,,*6E
{"class":"TPV","tag":"GGA","mode":3,"time":"2008-05-29T12:35:55.000Z","ept":0.005,"lat":53.936917833,"lon":27.581050667,"alt":254.500,"epx":23.004,"epy":56.196,"epv":0.000,"track":252.7000,"speed":0.000,"climb":0.000,"eps":112.39}
$GPRMC,123556.000,A,5356.21504,N,02734.86303,E,00.00,252.7,290508,,,A*67
$PORZD,A,015.9*31
$GPGSV,4,1,13,02,12,247,,03,11,065,,06,10,045,,07,76,086,36*75
$GPGSV,4,2,13,13,47,102,50,23,12,106,46,25,55,069,38,27,83,105,30*77
$GPGSV,4,3,13,28,05,181,45,33,17,229,,37,28,187,,39,28,183,*7F
$GPGSV,4,4,13,44,20,137,*4C
{"class":"SKY","tag":"GSV","xdop":1.53,"ydop":3.75,"vdop":0.00,"tdop":0.96,"hdop":0.00,"gdop":4.55,"pdop":0.00,"satellites":[{"PRN":2,"el":12,"az":247,"ss":0,"used":false},{"PRN":3,"el":11,"az":65,"ss":0,"used":false},{"PRN":6,"el":10,"az":45,"ss":0,"used":false},{"PRN":7,"el":76,"az":86,"ss":36,"used":true},{"PRN":13,"el":47,"az":102,"ss":50,"used":true},{"PRN":23,"el":12,"az":106,"ss":46,"used":true},{"PRN":25,"el":55,"az":69,"ss":38,"used":true},{"PRN":27,"el":83,"az":105,"ss":30,"used":true},{"PRN":28,"el":5,"az":181,"ss":45,"used":true},{"PRN":120,"el":17,"az":229,"ss":0,"used":false},{"PRN":124,"el":28,"az":187,"ss":0,"used":false},{"PRN":126,"el":28,"az":183,"ss":0,"used":false},{"PRN":131,"el":20,"az":137,"ss":0,"used":false}]}
$GPGSA,A,3,28,27,23,13,07,25,,,,,,,,,,,,,,,,,,,06.3,04.8,04.1*02
$GPGGA,123556.000,5356.21507,N,02734.86306,E,1,06,04.8,254.5,M,26.0,M,,*6F
{"class":"TPV","tag":"GGA","mode":3,"time":"2008-05-29T12:35:56.000Z","ept":0.005,"lat":53.936917833,"lon":27.581051000,"alt":254.500,"epx":23.004,"epy":56.196,"epv":0.000,"track":252.7000,"speed":0.000,"climb":0.000,"eps":112.39}
$GPRMC,123557.000,A,5356.21505,N,02734.86306,E,00.00,252.7,290508,,,A*62
$PORZD,A,015.9*31
$GPGSA,A,3,28,27,23,13,07,25,,,,,,,,,,,,,,,,,,,06.3,04.8,04.1*02
$GPGGA,123557.000,5356.21508,N,02734.86307,E,1,06,04.8,254.5,M,26.0,M,,*60
{"class":"TPV","tag":"GGA","mode":3,"time":"2008-05-29T12:35:57.000Z","ept":0.005,"lat":53.936918000,"lon":27.581051167,"alt":254.500,"epx":23.004,"epy":56.196,"epv":0.000,"track":252.7000,"speed":0.000,"climb":0.000,"eps":112.39}
$GPRMC,123558.000,A,5356.21505,N,02734.86306,E,00.00,252.7,290508,,,A*6D
$PORZD,A,015.8*30
$GPGSA,A,3,28,27,23,13,07,25,,,,,,,,,,,,,,,,,,,06.3,04.8,04.1*02
$GPGGA,123558.000,5356.21508,N,02734.86308,E,1,06,04.8,254.5,M,26.0,M,,*60
{"class":"TPV","tag":"GGA","mode":3,"time":"2008-05-29T12:35:58.000Z","ept":0.005,"lat":53.936918000,"lon":27.581051333,"alt":254.500,"epx":23.004,"epy":56.196,"epv":0.000,"track":252.7000,"speed":0.000,"climb":0.000,"eps":112.39}
$GPRMC,123559.000,A,5356.21505,N,02734.86309,E,00.00,252.7,290508,,,A*63
$PORZD,A,015.8*30
$GPGSA,A,3,28,27,23,13,07,25,,,,,,,,,,,,,,,,,,,06.3,04.8,04.1*02
$GPGGA,123559.000,5356.21508,N,02734.86309,E,1,06,04.8,254.5,M,26.0,M,,*60
{"class":"TPV","tag":"GGA","mode":3,"time":"2008-05-29T12:35:59.000Z","ept":0.005,"lat":53.936918000,"lon":27.581051500,"alt":254.500,"epx":23.004,"epy":56.196,"epv":0.000,"track":252.7000,"speed":0.000,"climb":0.000,"eps":112.39}
$GPRMC,123600.000,A,5356.21505,N,02734.86309,E,00.00,252.7,290508,,,A*6C
$PORZD,A,015.8*30
$GPGSA,A,3,28,27,23,13,07,25,,,,,,,,,,,,,,,,,,,06.3,04.8,04.1*02
$GPGGA,123600.000,5356.21508,N,02734.86309,E,1,06,04.8,254.5,M,26.0,M,,*6F
{"class":"TPV","tag":"GGA","mode":3,"time":"2008-05-29T12:36:00.000Z","ept":0.005,"lat":53.936918000,"lon":27.581051500,"alt":254.500,"epx":23.004,"epy":56.196,"epv":0.000,"track":252.7000,"speed":0.000,"climb":0.000,"eps":112.39}
$GPRMC,123601.000,A,5356.21506,N,02734.86309,E,00.00,252.7,290508,,,A*6E
$PORZD,A,015.8*30
$GPGSA,A,3,28,27,23,13,07,25,,,,,,,,,,,,,,,,,,,06.3,04.8,04.1*02
$GPGGA,123601.000,5356.21509,N,02734.86307,E,1,06,04.8,254.5,M,26.0,M,,*61
{"class":"TPV","tag":"GGA","mode":3,"time":"2008-05-29T12:36:01.000Z","ept":0.005,"lat":53.936918167,"lon":27.581051167,"alt":254.500,"epx":23.004,"epy":56.196,"epv":0.000,"track":252.7000,"speed":0.000,"climb":0.000,"eps":112.39}
$GPRMC,123602.000,A,5356.21506,N,02734.86307,E,00.00,252.7,290508,,,A*63
$PORZD,A,015.8*30
$GPGSV,4,1,13,02,12,247,,03,11,065,,06,10,045,,07,76,086,34*77
$GPGSV,4,2,13,13,47,102,51,23,12,106,45,25,55,069,38,27,83,105,30*75
$GPGSV,4,3,13,28,05,181,45,33,17,229,,37,28,187,,39,28,183,*7F
$GPGSV,4,4,13,44,20,137,*4C
{"class":"SKY","tag":"GSV","xdop":1.53,"ydop":3.75,"vdop":0.00,"tdop":0.96,"hdop":0.00,"gdop":4.55,"pdop":0.00,"satellites":[{"PRN":2,"el":12,"az":247,"ss":0,"used":false},{"PRN":3,"el":11,"az":65,"ss":0,"used":false},{"PRN":6,"el":10,"az":45,"ss":0,"used":false},{"PRN":7,"el":76,"az":86,"ss":34,"used":true},{"PRN":13,"el":47,"az":102,"ss":51,"used":true},{"PRN":23,"el":12,"az":106,"ss":45,"used":true},{"PRN":25,"el":55,"az":69,"ss":38,"used":true},{"PRN":27,"el":83,"az":105,"ss":30,"used":true},{"PRN":28,"el":5,"az":181,"ss":45,"used":true},{"PRN":120,"el":17,"az":229,"ss":0,"used":false},{"PRN":124,"el":28,"az":187,"ss":0,"used":false},{"PRN":126,"el":28,"az":183,"ss":0,"used":false},{"PRN":131,"el":20,"az":137,"ss":0,"used":false}]}
$GPGSA,A,3,28,27,23,13,07,25,,,,,,,,,,,,,,,,,,,06.3,04.8,04.1*02
$GPGGA,123602.000,5356.21508,N,02734.86308,E,1,06,04.8,254.5,M,26.0,M,,*6C
{"class":"TPV","tag":"GGA","mode":3,"time":"2008-05-29T12:36:02.000Z","ept":0.005,"lat":53.936918000,"lon":27.581051333,"alt":254.500,"epx":23.004,"epy":56.196,"epv":0.000,"track":252.7000,"speed":0.000,"climb":0.000,"eps":112.39}
$GPRMC,123603.000,A,5356.21503,N,02734.86309,E,00.00,252.7,290508,,,A*69
$PORZD,A,015.8*30
$GPGSA,A,3,28,27,23,13,07,25,,,,,,,,,,,,,,,,,,,06.3,04.8,04.1*02
$GPGGA,123603.000,5356.21507,N,02734.86308,E,1,06,04.8,254.6,M,26.0,M,,*61
{"class":"TPV","tag":"GGA","mode":3,"time":"2008-05-29T12:36:03.000Z","ept":0.005,"lat":53.936917833,"lon":27.581051333,"alt":254.600,"epx":23.004,"epy":56.196,"epv":0.000,"track":252.7000,"speed":0.000,"climb":0.000,"eps":112.39}
$GPRMC,123604.000,A,5356.21504,N,02734.86308,E,00.00,252.7,290508,,,A*68
$PORZD,A,015.8*30
$GPGSA,A,3,28,27,23,13,07,25,,,,,,,,,,,,,,,,,,,06.3,04.8,04.1*02
$GPGGA,123604.000,5356.21508,N,02734.86306,E,1,06,04.8,254.5,M,26.0,M,,*64
{"class":"TPV","tag":"GGA","mode":3,"time":"2008-05-29T12:36:04.000Z","ept":0.005,"lat":53.936918000,"lon":27.581051000,"alt":254.500,"epx":23.004,"epy":56.196,"epv":0.000,"track":252.7000,"speed":0.000,"climb":0.000,"eps":112.39}
$GPRMC,123605.000,A,5356.21506,N,02734.86306,E,00.00,252.7,290508,,,A*65
$PORZD,A,015.8*30
$GPGSA,A,3,28,27,23,13,07,25,,,,,,,,,,,,,,,,,,,06.3,04.8,04.0*03
$GPGGA,123605.000,5356.21508,N,02734.86304,E,1,06,04.8,254.5,M,26.0,M,,*67
{"class":"TPV","tag":"GGA","mode":3,"time":"2008-05-29T12:36:05.000Z","ept":0.005,"lat":53.936918000,"lon":27.581050667,"alt":254.500,"epx":23.004,"epy":56.196,"epv":0.000,"track":252.7000,"speed":0.000,"climb":0.000,"eps":112.39}
$GPRMC,123606.000,A,5356.21505,N,02734.86304,E,00.00,252.7,290508,,,A*67
$PORZD,A,015.8*30
$GPGSA,A,3,28,27,23,13,07,25,,,,,,,,,,,,,,,,,,,06.3,04.8,04.0*03
$GPGGA,123606.000,5356.21509,N,02734.86302,E,1,06,04.8,254.5,M,26.0,M,,*63
{"class":"TPV","tag":"GGA","mode":3,"time":"2008-05-29T12:36:06.000Z","ept":0.005,"lat":53.936918167,"lon":27.581050333,"alt":254.500,"epx":23.004,"epy":56.196,"epv":0.000,"track":252.7000,"speed":0.000,"climb":0.000,"eps":112.39}
$GPRMC,123607.000,A,5356.21506,N,02734.86302,E,00.00,252.7,290508,,,A*63
$PORZD,A,015.8*30
$GPGSA,A,3,28,27,23,13,07,25,,,,,,,,,,,,,,,,,,,06.3,04.8,04.0*03
$GPGGA,123607.000,5356.21508,N,02734.86301,E,1,06,04.8,254.5,M,26.0,M,,*60
{"class":"TPV","tag":"GGA","mode":3,"time":"2008-05-29T12:36:07.000Z","ept":0.005,"lat":53.936918000,"lon":27.581050167,"alt":254.500,"epx":23.004,"epy":56.196,"epv":0.000,"track":252.7000,"speed":0.000,"climb":0.000,"eps":112.39}
$GPRMC,123608.000,A,5356.21504,N,02734.86302,E,00.00,252.7,290508,,,A*6E
$PORZD,A,015.8*30
$GPGSV,4,1,13,02,12,247,,03,11,065,,06,10,045,,07,76,086,34*77
$GPGSV,4,2,13,13,47,102,51,23,12,106,45,25,55,069,38,27,83,105,30*75
$GPGSV,4,3,13,28,05,181,45,33,17,229,,37,28,187,,39,28,183,*7F
$GPGSV,4,4,13,44,20,137,*4C
{"class":"SKY","tag":"GSV","xdop":1.53,"ydop":3.75,"vdop":0.00,"tdop":0.96,"hdop":0.00,"gdop":4.55,"pdop":0.00,"satellites":[{"PRN":2,"el":12,"az":247,"ss":0,"used":false},{"PRN":3,"el":11,"az":65,"ss":0,"used":false},{"PRN":6,"el":10,"az":45,"ss":0,"used":false},{"PRN":7,"el":76,"az":86,"ss":34,"used":true},{"PRN":13,"el":47,"az":102,"ss":51,"used":true},{"PRN":23,"el":12,"az":106,"ss":45,"used":true},{"PRN":25,"el":55,"az":69,"ss":38,"used":true},{"PRN":27,"el":83,"az":105,"ss":30,"used":true},{"PRN":28,"el":5,"az":181,"ss":45,"used":true},{"PRN":120,"el":17,"az":229,"ss":0,"used":false},{"PRN":124,"el":28,"az":187,"ss":0,"used":false},{"PRN":126,"el":28,"az":183,"ss":0,"used":false},{"PRN":131,"el":20,"az":137,"ss":0,"used":false}]}
$GPGSA,A,3,28,27,23,13,07,25,,,,,,,,,,,,,,,,,,,06.3,04.8,04.0*03
$GPGGA,123608.000,5356.21508,N,02734.86299,E,1,06,04.8,254.5,M,26.0,M,,*6F
{"class":"TPV","tag":"GGA","mode":3,"time":"2008-05-29T12:36:08.000Z","ept":0.005,"lat":53.936918000,"lon":27.581049833,"alt":254.500,"epx":23.004,"epy":56.196,"epv":0.000,"track":252.7000,"speed":0.000,"climb":0.000,"eps":112.39}
$GPRMC,123609.000,A,5356.21507,N,02734.86299,E,00.00,252.7,290508,,,A*6F
$PORZD,A,015.8*30
$GPGSA,A,3,28,27,23,13,07,25,,,,,,,,,,,,,,,,,,,06.3,04.8,04.0*03
$GPGGA,123609.000,5356.21510,N,02734.86297,E,1,06,04.8,254.5,M,26.0,M,,*69
{"class":"TPV","tag":"GGA","mode":3,"time":"2008-05-29T12:36:09.000Z","ept":0.005,"lat":53.936918333,"lon":27.581049500,"alt":254.500,"epx":23.004,"epy":56.196,"epv":0.000,"track":252.7000,"speed":0.000,"climb":0.000,"eps":112.39}
$GPRMC,123610.000,A,5356.21507,N,02734.86298,E,00.00,252.7,290508,,,A*66
$PORZD,A,015.7*3F
$GPGSA,A,3,28,27,23,13,07,25,,,,,,,,,,,,,,,,,,,06.3,04.8,04.0*03
$GPGGA,123610.000,5356.21512,N,02734.86295,E,1,06,04.8,254.5,M,26.0,M,,*61
{"class":"TPV","tag":"GGA","mode":3,"time":"2008-05-29T12:36:10.000Z","ept":0.005,"lat":53.936918667,"lon":27.581049167,"alt":254.500,"epx":23.004,"epy":56.196,"epv":0.000,"track":252.7000,"speed":0.000,"climb":0.000,"eps":112.39}
$GPRMC,123611.000,A,5356.21510,N,02734.86295,E,00.00,252.7,290508,,,A*6C
$PORZD,A,015.8*30
$GPGSA,A,3,28,27,23,13,07,25,,,,,,,,,,,,,,,,,,,06.3,04.8,04.0*03
$GPGGA,123611.000,5356.21512,N,02734.86293,E,1,06,04.8,254.4,M,26.0,M,,*67
{"class":"TPV","tag":"GGA","mode":3,"time":"2008-05-29T12:36:11.000Z","ept":0.005,"lat":53.936918667,"lon":27.581048833,"alt":254.400,"epx":23.004,"epy":56.196,"epv":0.000,"track":252.7000,"speed":0.000,"climb":0.000,"eps":112.39}
$GPRMC,123612.000,A,5356.21508,N,02734.86295,E,00.00,252.7,290508,,,A*66
$PORZD,A,015.7*3F
$GPGSA,A,3,28,27,23,13,07,25,,,,,,,,,,,,,,,,,,,06.3,04.8,04.0*03
$GPGGA,123612.000,5356.21512,N,02734.86291,E,1,06,04.8,254.4,M,26.0,M,,*66
