$GNGGA,135627.997,5543.0325,N,03724.7192,E,1,06,01.8,165.6,M,14.6,M,,*75
{"class":"TPV","tag":"GGA","mode":3,"lat":55.717208333,"lon":37.411986667,"alt":165.600}
$GNRMC,135627.997,A,5543.0325,N,03724.7192,E,00.00,129.5,051209,,,A*7F
{"class":"TPV","tag":"RMC","mode":3,"time":"2009-12-05T13:56:27.997Z","ept":0.005,"lat":55.717208333,"lon":37.411986667,"alt":165.600,"track":129.5000,"speed":0.000}
$PORZD,A,024.1*3B
$GNGSA,A,2,19,27,,,,,,,,,,,02.1,01.8,00.9*13
$GNGSA,A,2,67,84,83,75,,,,,,,,,02.1,01.8,00.9*1A
$GNGGA,135628.997,5543.0325,N,03724.7193,E,1,06,01.8,165.6,M,14.6,M,,*7B
$GNRMC,135628.997,A,5543.0325,N,03724.7193,E,00.00,129.5,051209,,,A*71
{"class":"TPV","tag":"RMC","mode":3,"time":"2009-12-05T13:56:28.997Z","ept":0.005,"lat":55.717208333,"lon":37.411988333,"alt":165.600,"epv":20.700,"track":129.5000,"speed":0.000,"climb":0.000}
$PORZD,A,024.1*3B
$GNGSA,A,2,19,27,,,,,,,,,,,02.1,01.8,00.9*13
$GNGSA,A,2,67,84,83,75,,,,,,,,,02.1,01.8,00.9*1A
$GNGGA,135629.997,5543.0325,N,03724.7194,E,1,06,01.8,165.6,M,14.6,M,,*7D
$GNRMC,135629.997,A,5543.0325,N,03724.7194,E,00.00,129.5,051209,,,A*77
{"class":"TPV","tag":"RMC","mode":3,"time":"2009-12-05T13:56:29.997Z","ept":0.005,"lat":55.717208333,"lon":37.411990000,"alt":165.600,"epv":20.700,"track":129.5000,"speed":0.000,"climb":0.000}
$PORZD,A,024.1*3B
$GPGSV,4,1,14,03,50,217,,06,49,201,,09,10,068,,14,30,153,*74
$GPGSV,4,2,14,18,43,068,,19,58,270,35,21,16,107,,22,76,110,*7F
$GPGSV,4,3,14,26,42,127,,27,13,055,27,28,08,344,,33,11,238,*77
$GPGSV,4,4,14,37,25,199,,39,25,194,*7F
{"class":"SKY","tag":"GSV","xdop":14.63,"ydop":4.47,"vdop":0.90,"tdop":21.29,"hdop":1.80,"gdop":45.46,"pdop":2.10,"satellites":[{"PRN":3,"el":50,"az":217,"ss":0,"used":false},{"PRN":6,"el":49,"az":201,"ss":0,"used":false},{"PRN":9,"el":10,"az":68,"ss":0,"used":false},{"PRN":14,"el":30,"az":153,"ss":0,"used":false},{"PRN":18,"el":43,"az":68,"ss":0,"used":false},{"PRN":19,"el":58,"az":270,"ss":35,"used":false},{"PRN":21,"el":16,"az":107,"ss":0,"used":false},{"PRN":22,"el":76,"az":110,"ss":0,"used":false},{"PRN":26,"el":42,"az":127,"ss":0,"used":false},{"PRN":27,"el":13,"az":55,"ss":27,"used":false},{"PRN":28,"el":8,"az":344,"ss":0,"used":false},{"PRN":120,"el":11,"az":238,"ss":0,"used":false},{"PRN":124,"el":25,"az":199,"ss":0,"used":false},{"PRN":126,"el":25,"az":194,"ss":0,"used":false}]}
$GLGSV,2,1,06,66,18,048,,67,72,050,31,75,16,358,38,82,47,171,*68
$GLGSV,2,2,06,83,66,292,37,84,16,325,34*6D
{"class":"SKY","tag":"GSV","xdop":14.63,"ydop":4.47,"vdop":0.90,"tdop":21.29,"hdop":1.80,"gdop":45.46,"pdop":2.10,"satellites":[{"PRN":66,"el":18,"az":48,"ss":0,"used":false},{"PRN":67,"el":72,"az":50,"ss":31,"used":true},{"PRN":75,"el":16,"az":358,"ss":38,"used":true},{"PRN":82,"el":47,"az":171,"ss":0,"used":false},{"PRN":83,"el":66,"az":292,"ss":37,"used":true},{"PRN":84,"el":16,"az":325,"ss":34,"used":true}]}
$GNGSA,A,2,19,27,,,,,,,,,,,02.1,01.8,00.9*13
$GNGSA,A,2,67,84,83,75,,,,,,,,,02.1,01.8,00.9*1A
$GNGBS,135629.997,17.2,16.9,1.0,,,,*69
$GNGGA,135630.997,5543.0325,N,03724.7194,E,1,06,01.8,165.6,M,14.6,M,,*75
$GNRMC,135630.997,A,5543.0325,N,03724.7194,E,00.00,129.5,051209,,,A*7F
{"class":"TPV","tag":"RMC","mode":3,"time":"2009-12-05T13:56:30.997Z","ept":0.005,"lat":55.717208333,"lon":37.411990000,"alt":165.600,"epx":219.478,"epy":66.992,"epv":20.700,"track":129.5000,"speed":0.000,"climb":0.000,"eps":236.68}
$PORZD,A,024.1*3B
$GNGSA,A,2,19,27,,,,,,,,,,,02.1,01.8,00.9*13
$GNGSA,A,2,67,84,83,75,,,,,,,,,02.1,01.8,00.9*1A
$GNGGA,135631.997,5543.0326,N,03724.7195,E,1,06,01.8,165.6,M,14.6,M,,*76
$GNRMC,135631.997,A,5543.0326,N,03724.7195,E,00.00,129.5,051209,,,A*7C
{"class":"TPV","tag":"RMC","mode":3,"time":"2009-12-05T13:56:31.997Z","ept":0.005,"lat":55.717210000,"lon":37.411991667,"alt":165.600,"epx":219.478,"epy":66.992,"epv":20.700,"track":129.5000,"speed":0.000,"climb":0.000,"eps":438.96}
$PORZD,A,023.8*35
$GNGSA,A,2,19,27,,,,,,,,,,,02.1,01.8,00.9*13
$GNGSA,A,2,67,84,83,75,,,,,,,,,02.1,01.8,00.9*1A
$GNGGA,135632.997,5543.0326,N,03724.7195,E,1,06,01.8,165.6,M,14.6,M,,*75
$GNRMC,135632.997,A,5543.0326,N,03724.7195,E,00.00,129.5,051209,,,A*7F
{"class":"TPV","tag":"RMC","mode":3,"time":"2009-12-05T13:56:32.997Z","ept":0.005,"lat":55.717210000,"lon":37.411991667,"alt":165.600,"epx":219.478,"epy":66.992,"epv":20.700,"track":129.5000,"speed":0.000,"climb":0.000,"eps":438.96}
$PORZD,A,024.1*3B
$GNGSA,A,2,19,27,,,,,,,,,,,02.1,01.8,00.9*13
$GNGSA,A,2,67,84,83,75,,,,,,,,,02.1,01.8,00.9*1A
$GNGGA,135633.997,5543.0326,N,03724.7196,E,1,06,01.8,165.6,M,14.6,M,,*77
$GNRMC,135633.997,A,5543.0326,N,03724.7196,E,00.00,129.5,051209,,,A*7D
{"class":"TPV","tag":"RMC","mode":3,"time":"2009-12-05T13:56:33.997Z","ept":0.005,"lat":55.717210000,"lon":37.411993333,"alt":165.600,"epx":219.478,"epy":66.992,"epv":20.700,"track":129.5000,"speed":0.000,"climb":0.000,"eps":438.96}
$PORZD,A,023.9*34
$GNGSA,A,2,19,27,,,,,,,,,,,02.1,01.8,00.9*13
$GNGSA,A,2,67,84,83,75,,,,,,,,,02.1,01.8,00.9*1A
$GNGGA,135634.997,5543.0326,N,03724.7196,E,1,06,01.8,165.6,M,14.6,M,,*70
$GNRMC,135634.997,A,5543.0326,N,03724.7196,E,00.00,129.5,051209,,,A*7A
{"class":"TPV","tag":"RMC","mode":3,"time":"2009-12-05T13:56:34.997Z","ept":0.005,"lat":55.717210000,"lon":37.411993333,"alt":165.600,"epx":219.478,"epy":66.992,"epv":20.700,"track":129.5000,"speed":0.000,"climb":0.000,"eps":438.96}
$PORZD,A,023.8*35
$GNGSA,A,2,19,27,,,,,,,,,,,02.1,01.8,00.9*13
$GNGSA,A,2,67,84,83,75,,,,,,,,,02.1,01.8,00.9*1A
$GNGGA,135635.997,5543.0326,N,03724.7196,E,1,06,01.8,165.6,M,14.6,M,,*71
$GNRMC,135635.997,A,5543.0326,N,03724.7196,E,00.00,129.5,051209,,,A*7B
{"class":"TPV","tag":"RMC","mode":3,"time":"2009-12-05T13:56:35.997Z","ept":0.005,"lat":55.717210000,"lon":37.411993333,"alt":165.600,"epx":219.478,"epy":66.992,"epv":20.700,"track":129.5000,"speed":0.000,"climb":0.000,"eps":438.96}
$PORZD,A,024.1*3B
$GPGSV,4,1,14,03,50,217,,06,49,201,,09,10,068,,14,30,153,*74
$GPGSV,4,2,14,18,43,068,,19,58,270,34,21,16,107,,22,76,110,*7E
$GPGSV,4,3,14,26,42,127,,27,13,055,27,28,08,344,,33,11,238,*77
$GPGSV,4,4,14,37,25,199,,39,25,194,*7F
{"class":"SKY","tag":"GSV","xdop":14.63,"ydop":4.47,"vdop":0.90,"tdop":21.29,"hdop":1.80,"gdop":45.46,"pdop":2.10,"satellites":[{"PRN":3,"el":50,"az":217,"ss":0,"used":false},{"PRN":6,"el":49,"az":201,"ss":0,"used":false},{"PRN":9,"el":10,"az":68,"ss":0,"used":false},{"PRN":14,"el":30,"az":153,"ss":0,"used":false},{"PRN":18,"el":43,"az":68,"ss":0,"used":false},{"PRN":19,"el":58,"az":270,"ss":34,"used":false},{"PRN":21,"el":16,"az":107,"ss":0,"used":false},{"PRN":22,"el":76,"az":110,"ss":0,"used":false},{"PRN":26,"el":42,"az":127,"ss":0,"used":false},{"PRN":27,"el":13,"az":55,"ss":27,"used":false},{"PRN":28,"el":8,"az":344,"ss":0,"used":false},{"PRN":120,"el":11,"az":238,"ss":0,"used":false},{"PRN":124,"el":25,"az":199,"ss":0,"used":false},{"PRN":126,"el":25,"az":194,"ss":0,"used":false}]}
$GLGSV,2,1,06,66,18,048,,67,72,050,31,75,16,358,37,82,47,171,*67
$GLGSV,2,2,06,83,66,292,37,84,16,325,33*6A
{"class":"SKY","tag":"GSV","xdop":14.63,"ydop":4.47,"vdop":0.90,"tdop":21.29,"hdop":1.80,"gdop":45.46,"pdop":2.10,"satellites":[{"PRN":66,"el":18,"az":48,"ss":0,"used":false},{"PRN":67,"el":72,"az":50,"ss":31,"used":true},{"PRN":75,"el":16,"az":358,"ss":37,"used":true},{"PRN":82,"el":47,"az":171,"ss":0,"used":false},{"PRN":83,"el":66,"az":292,"ss":37,"used":true},{"PRN":84,"el":16,"az":325,"ss":33,"used":true}]}
$GNGSA,A,2,19,27,,,,,,,,,,,02.1,01.8,00.9*13
$GNGSA,A,2,67,84,83,75,,,,,,,,,02.1,01.8,00.9*1A
$GNGGA,135636.997,5543.0326,N,03724.7196,E,1,06,01.8,165.6,M,14.6,M,,*72
$GNRMC,135636.997,A,5543.0326,N,03724.7196,E,00.00,129.5,051209,,,A*78
{"class":"TPV","tag":"RMC","mode":3,"time":"2009-12-05T13:56:36.997Z","ept":0.005,"lat":55.717210000,"lon":37.411993333,"alt":165.600,"epx":219.478,"epy":66.992,"epv":20.700,"track":129.5000,"speed":0.000,"climb":0.000,"eps":438.96}
$PORZD,A,024.1*3B
$GNGSA,A,2,19,27,,,,,,,,,,,02.1,01.8,00.9*13
$GNGSA,A,2,67,84,83,75,,,,,,,,,02.1,01.8,00.9*1A
$GNGGA,135637.997,5543.0326,N,03724.7197,E,1,06,01.8,165.6,M,14.6,M,,*72
$GNRMC,135637.997,A,5543.0326,N,03724.7197,E,00.00,129.5,051209,,,A*78
{"class":"TPV","tag":"RMC","mode":3,"time":"2009-12-05T13:56:37.997Z","ept":0.005,"lat":55.717210000,"lon":37.411995000,"alt":165.600,"epx":219.478,"epy":66.992,"epv":20.700,"track":129.5000,"speed":0.000,"climb":0.000,"eps":438.96}
$PORZD,A,023.7*3A
$GNGSA,A,2,19,27,,,,,,,,,,,02.1,01.8,00.9*13
$GNGSA,A,2,67,84,83,75,,,,,,,,,02.1,01.8,00.9*1A
$GNGGA,135638.997,5543.0326,N,03724.7197,E,1,06,01.8,165.6,M,14.6,M,,*7D
$GNRMC,135638.997,A,5543.0326,N,03724.7197,E,00.00,129.5,051209,,,A*77
{"class":"TPV","tag":"RMC","mode":3,"time":"2009-12-05T13:56:38.997Z","ept":0.005,"lat":55.717210000,"lon":37.411995000,"alt":165.600,"epx":219.478,"epy":66.992,"epv":20.700,"track":129.5000,"speed":0.000,"climb":0.000,"eps":438.96}
$PORZD,A,024.0*3A
$GNGSA,A,2,19,27,,,,,,,,,,,02.1,01.8,00.9*13
$GNGSA,A,2,67,84,83,75,,,,,,,,,02.1,01.8,00.9*1A
$GNGGA,135639.997,5543.0326,N,03724.7197,E,1,06,01.8,165.6,M,14.6,M,,*7C
$GNRMC,135639.997,A,5543.0326,N,03724.7197,E,00.00,129.5,051209,,,A*76
{"class":"TPV","tag":"RMC","mode":3,"time":"2009-12-05T13:56:39.997Z","ept":0.005,"lat":55.717210000,"lon":37.411995000,"alt":165.600,"epx":219.478,"epy":66.992,"epv":20.700,"track":129.5000,"speed":0.000,"climb":0.000,"eps":438.96}
$PORZD,A,024.0*3A
$GNGSA,A,2,19,27,,,,,,,,,,,02.1,01.8,00.9*13
$GNGSA,A,2,67,84,83,75,,,,,,,,,02.1,01.8,00.9*1A
$GNGBS,135639.997,17.2,16.8,1.0,,,,*69
{"class":"TPV","tag":"GBS","mode":3,"time":"2009-12-05T13:56:39.997Z","ept":0.005,"lat":55.717210000,"lon":37.411995000,"alt":165.600,"epx":16.800,"epy":17.200,"epv":1.000,"track":129.5000,"speed":0.000,"climb":0.000,"eps":438.96}
$GNGGA,135640.997,5543.0327,N,03724.7197,E,1,06,01.8,165.6,M,14.6,M,,*73
$GNRMC,135640.997,A,5543.0327,N,03724.7197,E,00.00,129.5,051209,,,A*79
{"class":"TPV","tag":"RMC","mode":3,"time":"2009-12-05T13:56:40.997Z","ept":0.005,"lat":55.717211667,"lon":37.411995000,"alt":165.600,"epx":219.478,"epy":66.992,"epv":20.700,"track":129.5000,"speed":0.000,"climb":0.000,"eps":236.68}
$PORZD,A,024.0*3A
$GNGSA,A,2,19,27,,,,,,,,,,,02.1,01.8,00.9*13
$GNGSA,A,2,67,84,83,75,,,,,,,,,02.1,01.8,00.9*1A
$GNGGA,135641.997,5543.0327,N,03724.7197,E,1,06,01.8,165.6,M,14.6,M,,*72
$GNRMC,135641.997,A,5543.0327,N,03724.7197,E,00.00,129.5,051209,,,A*78
{"class":"TPV","tag":"RMC","mode":3,"time":"2009-12-05T13:56:41.997Z","ept":0.005,"lat":55.717211667,"lon":37.411995000,"alt":165.600,"epx":219.478,"epy":66.992,"epv":20.700,"track":129.5000,"speed":0.000,"climb":0.000,"eps":438.96}
$PORZD,A,024.0*3A
$GPGSV,4,1,14,03,50,217,,06,49,201,,09,10,068,,14,30,153,*74
$GPGSV,4,2,14,18,43,068,,19,58,270,34,21,16,107,,22,76,110,*7E
$GPGSV,4,3,14,26,42,127,,27,13,055,27,28,08,344,,33,11,238,*77
$GPGSV,4,4,14,37,25,199,,39,25,194,*7F
{"class":"SKY","tag":"GSV","xdop":14.63,"ydop":4.47,"vdop":0.90,"tdop":21.29,"hdop":1.80,"gdop":45.46,"pdop":2.10,"satellites":[{"PRN":3,"el":50,"az":217,"ss":0,"used":false},{"PRN":6,"el":49,"az":201,"ss":0,"used":false},{"PRN":9,"el":10,"az":68,"ss":0,"used":false},{"PRN":14,"el":30,"az":153,"ss":0,"used":false},{"PRN":18,"el":43,"az":68,"ss":0,"used":false},{"PRN":19,"el":58,"az":270,"ss":34,"used":false},{"PRN":21,"el":16,"az":107,"ss":0,"used":false},{"PRN":22,"el":76,"az":110,"ss":0,"used":false},{"PRN":26,"el":42,"az":127,"ss":0,"used":false},{"PRN":27,"el":13,"az":55,"ss":27,"used":false},{"PRN":28,"el":8,"az":344,"ss":0,"used":false},{"PRN":120,"el":11,"az":238,"ss":0,"used":false},{"PRN":124,"el":25,"az":199,"ss":0,"used":false},{"PRN":126,"el":25,"az":194,"ss":0,"used":false}]}
$GLGSV,2,1,06,66,18,048,,67,72,050,31,75,16,358,37,82,47,171,*67
$GLGSV,2,2,06,83,66,292,37,84,16,325,32*6B
{"class":"SKY","tag":"GSV","xdop":14.63,"ydop":4.47,"vdop":0.90,"tdop":21.29,"hdop":1.80,"gdop":45.46,"pdop":2.10,"satellites":[{"PRN":66,"el":18,"az":48,"ss":0,"used":false},{"PRN":67,"el":72,"az":50,"ss":31,"used":true},{"PRN":75,"el":16,"az":358,"ss":37,"used":true},{"PRN":82,"el":47,"az":171,"ss":0,"used":false},{"PRN":83,"el":66,"az":292,"ss":37,"used":true},{"PRN":84,"el":16,"az":325,"ss":32,"used":true}]}
$GNGSA,A,2,19,27,,,,,,,,,,,02.1,01.8,00.9*13
$GNGSA,A,2,67,84,83,75,,,,,,,,,02.1,01.8,00.9*1A
$GNGGA,135642.997,5543.0327,N,03724.7197,E,1,06,01.8,165.6,M,14.6,M,,*71
$GNRMC,135642.997,A,5543.0327,N,03724.7197,E,00.00,129.5,051209,,,A*7B
{"class":"TPV","tag":"RMC","mode":3,"time":"2009-12-05T13:56:42.997Z","ept":0.005,"lat":55.717211667,"lon":37.411995000,"alt":165.600,"epx":219.478,"epy":66.992,"epv":20.700,"track":129.5000,"speed":0.000,"climb":0.000,"eps":438.96}
$PORZD,A,024.4*3E
$GNGSA,A,2,19,27,,,,,,,,,,,02.1,01.8,00.9*13
$GNGSA,A,2,67,84,83,75,,,,,,,,,02.1,01.8,00.9*1A
$GNGGA,135643.997,5543.0327,N,03724.7197,E,1,06,01.8,165.6,M,14.6,M,,*70
$GNRMC,135643.997,A,5543.0327,N,03724.7197,E,00.00,129.5,051209,,,A*7A
{"class":"TPV","tag":"RMC","mode":3,"time":"2009-12-05T13:56:43.997Z","ept":0.005,"lat":55.717211667,"lon":37.411995000,"alt":165.600,"epx":219.478,"epy":66.992,"epv":20.700,"track":129.5000,"speed":0.000,"climb":0.000,"eps":438.96}
$PORZD,A,024.4*3E
$GNGSA,A,2,19,27,,,,,,,,,,,02.1,01.8,00.9*13
$GNGSA,A,2,67,84,83,75,,,,,,,,,02.1,01.8,00.9*1A
$GNGGA,135644.997,5543.0327,N,03724.7197,E,1,06,01.8,165.6,M,14.6,M,,*77
$GNRMC,135644.997,A,5543.0327,N,03724.7197,E,00.00,129.5,051209,,,A*7D
{"class":"TPV","tag":"RMC","mode":3,"time":"2009-12-05T13:56:44.997Z","ept":0.005,"lat":55.717211667,"lon":37.411995000,"alt":165.600,"epx":219.478,"epy":66.992,"epv":20.700,"track":129.5000,"speed":0.000,"climb":0.000,"eps":438.96}
$PORZD,A,024.4*3E
$GNGSA,A,2,19,27,,,,,,,,,,,02.1,01.8,00.9*13
$GNGSA,A,2,67,84,83,75,,,,,,,,,02.1,01.8,00.9*1A
$GNGGA,135645.997,5543.0327,N,03724.7197,E,1,06,01.8,165.6,M,14.6,M,,*76
$GNRMC,135645.997,A,5543.0327,N,03724.7197,E,00.00,129.5,051209,,,A*7C
{"class":"TPV","tag":"RMC","mode":3,"time":"2009-12-05T13:56:45.997Z","ept":0.005,"lat":55.717211667,"lon":37.411995000,"alt":165.600,"epx":219.478,"epy":66.992,"epv":20.700,"track":129.5000,"speed":0.000,"climb":0.000,"eps":438.96}
$PORZD,A,024.1*3B
$GNGSA,A,2,19,27,,,,,,,,,,,02.1,01.8,00.9*13
$GNGSA,A,2,67,84,83,75,,,,,,,,,02.1,01.8,00.9*1A
$GNGGA,135646.997,5543.0327,N,03724.7197,E,1,06,01.8,165.6,M,14.6,M,,*75
$GNRMC,135646.997,A,5543.0327,N,03724.7197,E,00.00,129.5,051209,,,A*7F
{"class":"TPV","tag":"RMC","mode":3,"time":"2009-12-05T13:56:46.997Z","ept":0.005,"lat":55.717211667,"lon":37.411995000,"alt":165.600,"epx":219.478,"epy":66.992,"epv":20.700,"track":129.5000,"speed":0.000,"climb":0.000,"eps":438.96}
$PORZD,A,024.1*3B
$GNGSA,A,2,19,27,,,,,,,,,,,02.1,01.8,00.9*13
$GNGSA,A,2,67,84,83,75,,,,,,,,,02.1,01.8,00.9*1A
$GNGGA,135647.997,5543.0328,N,03724.7197,E,1,06,01.8,165.6,M,14.6,M,,*7B
$GNRMC,135647.997,A,5543.0328,N,03724.7197,E,00.00,129.5,051209,,,A*71
{"class":"TPV","tag":"RMC","mode":3,"time":"2009-12-05T13:56:47.997Z","ept":0.005,"lat":55.717213333,"lon":37.411995000,"alt":165.600,"epx":219.478,"epy":66.992,"epv":20.700,"track":129.5000,"speed":0.000,"climb":0.000,"eps":438.96}
$PORZD,A,024.4*3E
$GPGSV,4,1,14,03,50,217,,06,49,201,,09,10,068,,14,30,153,*74
$GPGSV,4,2,14,18,42,068,,19,58,270,34,21,16,107,,22,76,109,*77
$GPGSV,4,3,14,26,42,127,,27,13,055,26,28,08,344,,33,11,238,*76
$GPGSV,4,4,14,37,25,199,,39,25,194,*7F
{"class":"SKY","tag":"GSV","xdop":14.63,"ydop":4.47,"vdop":0.90,"tdop":21.29,"hdop":1.80,"gdop":45.46,"pdop":2.10,"satellites":[{"PRN":3,"el":50,"az":217,"ss":0,"used":false},{"PRN":6,"el":49,"az":201,"ss":0,"used":false},{"PRN":9,"el":10,"az":68,"ss":0,"used":false},{"PRN":14,"el":30,"az":153,"ss":0,"used":false},{"PRN":18,"el":42,"az":68,"ss":0,"used":false},{"PRN":19,"el":58,"az":270,"ss":34,"used":false},{"PRN":21,"el":16,"az":107,"ss":0,"used":false},{"PRN":22,"el":76,"az":109,"ss":0,"used":false},{"PRN":26,"el":42,"az":127,"ss":0,"used":false},{"PRN":27,"el":13,"az":55,"ss":26,"used":false},{"PRN":28,"el":8,"az":344,"ss":0,"used":false},{"PRN":120,"el":11,"az":238,"ss":0,"used":false},{"PRN":124,"el":25,"az":199,"ss":0,"used":false},{"PRN":126,"el":25,"az":194,"ss":0,"used":false}]}
$GLGSV,2,1,06,66,18,048,,67,72,050,31,75,16,358,38,82,47,171,*68
$GLGSV,2,2,06,83,66,291,37,84,17,325,34*6F
{"class":"SKY","tag":"GSV","xdop":14.63,"ydop":4.47,"vdop":0.90,"tdop":21.29,"hdop":1.80,"gdop":45.46,"pdop":2.10,"satellites":[{"PRN":66,"el":18,"az":48,"ss":0,"used":false},{"PRN":67,"el":72,"az":50,"ss":31,"used":true},{"PRN":75,"el":16,"az":358,"ss":38,"used":true},{"PRN":82,"el":47,"az":171,"ss":0,"used":false},{"PRN":83,"el":66,"az":291,"ss":37,"used":true},{"PRN":84,"el":17,"az":325,"ss":34,"used":true}]}
$GNGSA,A,2,19,27,,,,,,,,,,,02.1,01.8,00.9*13
$GNGSA,A,2,67,84,83,75,,,,,,,,,02.1,01.8,00.9*1A
$GNGGA,135648.997,5543.0327,N,03724.7197,E,1,06,01.8,165.6,M,14.6,M,,*7B
$GNRMC,135648.997,A,5543.0327,N,03724.7197,E,00.00,129.5,051209,,,A*71
{"class":"TPV","tag":"RMC","mode":3,"time":"2009-12-05T13:56:48.997Z","ept":0.005,"lat":55.717211667,"lon":37.411995000,"alt":165.600,"epx":219.478,"epy":66.992,"epv":20.700,"track":129.5000,"speed":0.000,"climb":0.000,"eps":438.96}
$PORZD,A,024.3*39
$GNGSA,A,2,19,27,,,,,,,,,,,02.1,01.8,00.9*13
$GNGSA,A,2,67,84,83,75,,,,,,,,,02.1,01.8,00.9*1A
$GNGGA,135649.997,5543.0328,N,03724.7197,E,1,06,01.8,165.6,M,14.6,M,,*75
$GNRMC,135649.997,A,5543.0328,N,03724.7197,E,00.00,129.5,051209,,,A*7F
{"class":"TPV","tag":"RMC","mode":3,"time":"2009-12-05T13:56:49.997Z","ept":0.005,"lat":55.717213333,"lon":37.411995000,"alt":165.600,"epx":219.478,"epy":66.992,"epv":20.700,"track":129.5000,"speed":0.000,"climb":0.000,"eps":438.96}
$PORZD,A,024.3*39
$GNGSA,A,2,19,27,,,,,,,,,,,02.1,01.8,00.9*13
$GNGSA,A,2,67,84,83,75,,,,,,,,,02.1,01.8,00.9*1A
$GNGBS,135649.997,17.2,17.1,1.0,,,,*66
{"class":"TPV","tag":"GBS","mode":3,"time":"2009-12-05T13:56:49.997Z","ept":0.005,"lat":55.717213333,"lon":37.411995000,"alt":165.600,"epx":17.100,"epy":17.200,"epv":1.000,"track":129.5000,"speed":0.000,"climb":0.000,"eps":438.96}
$GNGGA,135650.997,5543.0328,N,03724.7197,E,1,06,01.8,165.6,M,14.6,M,,*7D
$GNRMC,135650.997,A,5543.0328,N,03724.7197,E,00.00,129.5,051209,,,A*77
{"class":"TPV","tag":"RMC","mode":3,"time":"2009-12-05T13:56:50.997Z","ept":0.005,"lat":55.717213333,"lon":37.411995000,"alt":165.600,"epx":219.478,"epy":66.992,"epv":20.700,"track":129.5000,"speed":0.000,"climb":0.000,"eps":236.68}
$PORZD,A,024.2*38
$GNGSA,A,2,19,27,,,,,,,,,,,02.1,01.8,00.9*13
$GNGSA,A,2,67,84,83,75,,,,,,,,,02.1,01.8,00.9*1A
$GNGGA,135651.997,5543.0328,N,03724.7198,E,1,06,01.8,165.6,M,14.6,M,,*73
$GNRMC,135651.997,A,5543.0328,N,03724.7198,E,00.00,129.5,051209,,,A*79
{"class":"TPV","tag":"RMC","mode":3,"time":"2009-12-05T13:56:51.997Z","ept":0.005,"lat":55.717213333,"lon":37.411996667,"alt":165.600,"epx":219.478,"epy":66.992,"epv":20.700,"track":129.5000,"speed":0.000,"climb":0.000,"eps":438.96}
$PORZD,A,024.2*38
$GNGSA,A,2,19,27,,,,,,,,,,,02.1,01.8,00.9*13
$GNGSA,A,2,67,84,83,75,,,,,,,,,02.1,01.8,00.9*1A
$GNGGA,135652.997,5543.0328,N,03724.7198,E,1,06,01.8,165.6,M,14.6,M,,*70
$GNRMC,135652.997,A,5543.0328,N,03724.7198,E,00.00,129.5,051209,,,A*7A
{"class":"TPV","tag":"RMC","mode":3,"time":"2009-12-05T13:56:52.997Z","ept":0.005,"lat":55.717213333,"lon":37.411996667,"alt":165.600,"epx":219.478,"epy":66.992,"epv":20.700,"track":129.5000,"speed":0.000,"climb":0.000,"eps":438.96}
$PORZD,A,024.5*3F
$GNGSA,A,2,19,27,,,,,,,,,,,02.1,01.8,00.9*13
$GNGSA,A,2,67,84,83,75,,,,,,,,,02.1,01.8,00.9*1A
$GNGGA,135653.997,5543.0328,N,03724.7198,E,1,06,01.8,165.6,M,14.6,M,,*71
$GNRMC,135653.997,A,5543.0328,N,03724.7198,E,00.00,129.5,051209,,,A*7B
{"class":"TPV","tag":"RMC","mode":3,"time":"2009-12-05T13:56:53.997Z","ept":0.005,"lat":55.717213333,"lon":37.411996667,"alt":165.600,"epx":219.478,"epy":66.992,"epv":20.700,"track":129.5000,"speed":0.000,"climb":0.000,"eps":438.96}
$PORZD,A,024.4*3E
$GPGSV,4,1,14,03,50,217,,06,49,201,,09,10,068,,14,30,153,*74
$GPGSV,4,2,14,18,42,068,,19,58,270,36,21,16,107,,22,76,109,*75
$GPGSV,4,3,14,26,42,127,,27,13,055,25,28,08,344,22,33,11,238,*75
$GPGSV,4,4,14,37,25,199,,39,25,194,*7F
{"class":"SKY","tag":"GSV","xdop":14.63,"ydop":4.47,"vdop":0.90,"tdop":21.29,"hdop":1.80,"gdop":45.46,"pdop":2.10,"satellites":[{"PRN":3,"el":50,"az":217,"ss":0,"used":false},{"PRN":6,"el":49,"az":201,"ss":0,"used":false},{"PRN":9,"el":10,"az":68,"ss":0,"used":false},{"PRN":14,"el":30,"az":153,"ss":0,"used":false},{"PRN":18,"el":42,"az":68,"ss":0,"used":false},{"PRN":19,"el":58,"az":270,"ss":36,"used":false},{"PRN":21,"el":16,"az":107,"ss":0,"used":false},{"PRN":22,"el":76,"az":109,"ss":0,"used":false},{"PRN":26,"el":42,"az":127,"ss":0,"used":false},{"PRN":27,"el":13,"az":55,"ss":25,"used":false},{"PRN":28,"el":8,"az":344,"ss":22,"used":false},{"PRN":120,"el":11,"az":238,"ss":0,"used":false},{"PRN":124,"el":25,"az":199,"ss":0,"used":false},{"PRN":126,"el":25,"az":194,"ss":0,"used":false}]}
$GLGSV,2,1,06,66,18,048,,67,72,050,32,75,16,358,39,82,47,171,*6A
$GLGSV,2,2,06,83,66,291,37,84,17,325,34*6F
{"class":"SKY","tag":"GSV","xdop":14.63,"ydop":4.47,"vdop":0.90,"tdop":21.29,"hdop":1.80,"gdop":45.46,"pdop":2.10,"satellites":[{"PRN":66,"el":18,"az":48,"ss":0,"used":false},{"PRN":67,"el":72,"az":50,"ss":32,"used":true},{"PRN":75,"el":16,"az":358,"ss":39,"used":true},{"PRN":82,"el":47,"az":171,"ss":0,"used":false},{"PRN":83,"el":66,"az":291,"ss":37,"used":true},{"PRN":84,"el":17,"az":325,"ss":34,"used":true}]}
$GNGSA,A,2,19,27,,,,,,,,,,,02.1,01.8,00.9*13
$GNGSA,A,2,67,84,83,75,,,,,,,,,02.1,01.8,00.9*1A
$GLGGA,135654.997,5543.0328,N,03724.7197,E,1,04,02.3,165.6,M,14.6,M,,*71
$GLRMC,135654.997,A,5543.0328,N,03724.7197,E,00.00,129.5,051209,,,A*71
{"class":"TPV","tag":"RMC","mode":3,"time":"2009-12-05T13:56:54.997Z","ept":0.005,"lat":55.717213333,"lon":37.411995000,"alt":165.600,"epx":219.478,"epy":66.992,"epv":20.700,"track":129.5000,"speed":0.000,"climb":0.000,"eps":438.96}
$PORZD,A,027.0*39
$GLGSA,A,2,67,84,83,75,,,,,,,,,02.5,02.3,01.0*1C
$GNGGA,135655.997,5543.0328,N,03724.7199,E,1,06,01.8,165.6,M,14.6,M,,*76
$GNRMC,135655.997,A,5543.0328,N,03724.7199,E,00.00,129.5,051209,,,A*7C
{"class":"TPV","tag":"RMC","mode":3,"time":"2009-12-05T13:56:55.997Z","ept":0.005,"lat":55.717213333,"lon":37.411998333,"alt":165.600,"epx":219.478,"epy":66.992,"epv":23.000,"track":129.5000,"speed":0.000,"climb":0.000,"eps":438.96}
$PORZD,A,024.5*3F
$GNGSA,A,2,19,27,,,,,,,,,,,02.1,01.8,00.9*13
$GNGSA,A,2,67,84,83,75,,,,,,,,,02.1,01.8,00.9*1A
$GNGGA,135656.997,5543.0329,N,03724.7201,E,1,06,01.8,165.6,M,14.6,M,,*76
$GNRMC,135656.997,A,5543.0329,N,03724.7201,E,00.00,129.5,051209,,,A*7C
{"class":"TPV","tag":"RMC","mode":3,"time":"2009-12-05T13:56:56.997Z","ept":0.005,"lat":55.717215000,"lon":37.412001667,"alt":165.600,"epx":219.478,"epy":66.992,"epv":20.700,"track":129.5000,"speed":0.000,"climb":0.000,"eps":438.96}
$PORZD,A,024.5*3F
$GNGSA,A,2,19,27,,,,,,,,,,,02.1,01.8,00.9*13
$GNGSA,A,2,67,84,83,75,,,,,,,,,02.1,01.8,00.9*1A
$GNGGA,135657.997,5543.0328,N,03724.7204,E,1,06,01.8,165.6,M,14.6,M,,*73
$GNRMC,135657.997,A,5543.0328,N,03724.7204,E,00.79,159.0,051209,,,A*75
{"class":"TPV","tag":"RMC","mode":3,"time":"2009-12-05T13:56:57.997Z","ept":0.005,"lat":55.717213333,"lon":37.412006667,"alt":165.600,"epx":219.478,"epy":66.992,"epv":20.700,"track":159.0000,"speed":0.406,"climb":0.000,"eps":438.96}
$PORZD,A,025.7*3C
$GNGSA,A,2,19,27,,,,,,,,,,,02.1,01.8,00.9*13
$GNGSA,A,2,67,84,83,75,,,,,,,,,02.1,01.8,00.9*1A
$GPGGA,135658.997,5543.0326,N,03724.7205,E,0,,,165.6,M,14.6,M,,*7D
$GPRMC,135658.997,V,5543.0326,N,03724.7205,E,00.79,159.0,051209,,,N*73
$PORZD,V,026.0*2F
$GPGSA,A,1,,,,,,,,,,,,,00.0,00.0,00.0*00
$GPGGA,135659.997,5543.0324,N,03724.7207,E,0,,,165.6,M,14.6,M,,*7C
$GPRMC,135659.997,V,5543.0324,N,03724.7207,E,00.79,159.0,051209,,,N*72
$PORZD,V,029.8*28
$GPGSV,4,1,14,03,50,217,,06,49,201,,09,10,068,,14,30,153,*74
$GPGSV,4,2,14,18,42,068,,19,58,270,,21,16,107,,22,76,109,*70
$GPGSV,4,3,14,26,42,127,,27,13,055,,28,08,344,,33,11,238,*72
$GPGSV,4,4,14,37,25,199,,39,25,194,*7F
{"class":"SKY","tag":"GSV","xdop":14.63,"ydop":4.47,"vdop":0.00,"tdop":21.29,"hdop":0.00,"gdop":45.46,"pdop":0.00,"satellites":[{"PRN":3,"el":50,"az":217,"ss":0,"used":false},{"PRN":6,"el":49,"az":201,"ss":0,"used":false},{"PRN":9,"el":10,"az":68,"ss":0,"used":false},{"PRN":14,"el":30,"az":153,"ss":0,"used":false},{"PRN":18,"el":42,"az":68,"ss":0,"used":false},{"PRN":19,"el":58,"az":270,"ss":0,"used":false},{"PRN":21,"el":16,"az":107,"ss":0,"used":false},{"PRN":22,"el":76,"az":109,"ss":0,"used":false},{"PRN":26,"el":42,"az":127,"ss":0,"used":false},{"PRN":27,"el":13,"az":55,"ss":0,"used":false},{"PRN":28,"el":8,"az":344,"ss":0,"used":false},{"PRN":120,"el":11,"az":238,"ss":0,"used":false},{"PRN":124,"el":25,"az":199,"ss":0,"used":false},{"PRN":126,"el":25,"az":194,"ss":0,"used":false}]}
$GLGSV,2,1,06,66,18,048,,67,72,050,,75,16,358,26,82,47,171,*65
$GLGSV,2,2,06,83,66,291,,84,17,325,22*6C
{"class":"SKY","tag":"GSV","xdop":14.63,"ydop":4.47,"vdop":0.00,"tdop":21.29,"hdop":0.00,"gdop":45.46,"pdop":0.00,"satellites":[{"PRN":66,"el":18,"az":48,"ss":0,"used":false},{"PRN":67,"el":72,"az":50,"ss":0,"used":false},{"PRN":75,"el":16,"az":358,"ss":26,"used":false},{"PRN":82,"el":47,"az":171,"ss":0,"used":false},{"PRN":83,"el":66,"az":291,"ss":0,"used":false},{"PRN":84,"el":17,"az":325,"ss":22,"used":false}]}
$GPGSA,A,1,,,,,,,,,,,,,00.0,00.0,00.0*00
$GPGBS,135659.997,,,,,,,*55
$GPGGA,135700.997,5543.0322,N,03724.7208,E,0,,,165.6,M,14.6,M,,*78
$GPRMC,135700.997,V,5543.0322,N,03724.7208,E,00.79,159.0,051209,,,N*76
$PORZD,V,037.1*2E
$GPGSA,A,1,,,,,,,,,,,,,00.0,00.0,00.0*00
$GPGGA,135701.997,5543.0320,N,03724.7210,E,0,,,165.6,M,14.6,M,,*72
$GPRMC,135701.997,V,5543.0320,N,03724.7210,E,00.79,159.0,051209,,,N*7C
$PORZD,V,048.0*27
$GPGSA,A,1,,,,,,,,,,,,,00.0,00.0,00.0*00
$GPGGA,135702.997,5543.0318,N,03724.7211,E,0,,,165.6,M,14.6,M,,*7B
$GPRMC,135702.997,V,5543.0318,N,03724.7211,E,00.79,159.0,051209,,,N*75
$PORZD,V,062.4*2B
$GPGSA,A,1,,,,,,,,,,,,,00.0,00.0,00.0*00
$GPGGA,135703.997,5543.0316,N,03724.7212,E,0,,,165.6,M,14.6,M,,*77
$GPRMC,135703.997,V,5543.0316,N,03724.7212,E,00.79,159.0,051209,,,N*79
$PORZD,V,080.3*20
$GPGSA,A,1,,,,,,,,,,,,,00.0,00.0,00.0*00
$GPGGA,135704.997,5543.0314,N,03724.7214,E,0,,,165.6,M,14.6,M,,*74
$GPRMC,135704.997,V,5543.0314,N,03724.7214,E,00.79,159.0,051209,,,N*7A
$PORZD,V,101.8*23
$GPGSA,A,1,,,,,,,,,,,,,00.0,00.0,00.0*00
