$GPGSA,A,3,05,06,07,10,16,21,23,24,30,31,,,1.7,1.1,1.2*30
{"class":"TPV","tag":"GSA","mode":3,"epv":27.600}
$GPGSV,3,1,11,01,06,230,35,05,16,114,43,06,65,063,50,07,72,061,47*79
$GPGSV,3,2,11,10,09,057,40,16,35,295,48,21,43,153,53,23,12,316,51*72
$GPGSV,3,3,11,24,51,098,55,30,33,110,50,31,60,230,47*4A
{"class":"SKY","tag":"GSV","xdop":0.52,"ydop":0.71,"vdop":1.20,"tdop":0.63,"hdop":1.10,"gdop":1.54,"pdop":1.70,"satellites":[{"PRN":1,"el":6,"az":230,"ss":35,"used":false},{"PRN":5,"el":16,"az":114,"ss":43,"used":true},{"PRN":6,"el":65,"az":63,"ss":50,"used":true},{"PRN":7,"el":72,"az":61,"ss":47,"used":true},{"PRN":10,"el":9,"az":57,"ss":40,"used":true},{"PRN":16,"el":35,"az":295,"ss":48,"used":true},{"PRN":21,"el":43,"az":153,"ss":53,"used":true},{"PRN":23,"el":12,"az":316,"ss":51,"used":true},{"PRN":24,"el":51,"az":98,"ss":55,"used":true},{"PRN":30,"el":33,"az":110,"ss":50,"used":true},{"PRN":31,"el":60,"az":230,"ss":47,"used":true}]}
$GPRMC,143748.77,A,4806.3731,N,00138.6217,W,0.00,266.5,121007,2.6,W,A*0A
{"class":"TPV","tag":"RMC","mode":2,"time":"2007-10-12T14:37:48.770Z","ept":0.005,"lat":48.106218333,"lon":-1.643695000,"epx":7.849,"epy":10.678,"track":266.5000,"speed":0.000}
$GPGGA,143748.77,4806.3731,N,00138.6217,W,1,10,1.1,42.2,M,48.5,M,,*4B
{"class":"TPV","tag":"GGA","mode":3,"time":"2007-10-12T14:37:48.770Z","ept":0.005,"lat":48.106218333,"lon":-1.643695000,"alt":42.200,"epx":7.849,"epy":10.678,"epv":27.600,"track":266.5000,"speed":0.000}
$PFST,FOM,6*63
$GPGSA,A,3,05,06,07,10,16,21,23,24,30,31,,,1.7,1.1,1.2*30
{"class":"TPV","tag":"GSA","mode":3,"time":"2007-10-12T14:37:48.770Z","ept":0.005,"lat":48.106218333,"lon":-1.643695000,"alt":42.200,"epx":7.849,"epy":10.678,"epv":27.600,"track":266.5000,"speed":0.000,"climb":0.000}
$GPGSV,3,1,11,01,06,230,35,05,16,114,43,06,65,063,50,07,72,061,47*79
$GPGSV,3,2,11,10,09,057,39,16,35,295,48,21,43,153,53,23,12,316,51*7C
$GPGSV,3,3,11,24,51,098,55,30,33,110,50,31,60,230,47*4A
{"class":"SKY","tag":"GSV","xdop":0.52,"ydop":0.71,"vdop":1.20,"tdop":0.63,"hdop":1.10,"gdop":1.54,"pdop":1.70,"satellites":[{"PRN":1,"el":6,"az":230,"ss":35,"used":false},{"PRN":5,"el":16,"az":114,"ss":43,"used":true},{"PRN":6,"el":65,"az":63,"ss":50,"used":true},{"PRN":7,"el":72,"az":61,"ss":47,"used":true},{"PRN":10,"el":9,"az":57,"ss":39,"used":true},{"PRN":16,"el":35,"az":295,"ss":48,"used":true},{"PRN":21,"el":43,"az":153,"ss":53,"used":true},{"PRN":23,"el":12,"az":316,"ss":51,"used":true},{"PRN":24,"el":51,"az":98,"ss":55,"used":true},{"PRN":30,"el":33,"az":110,"ss":50,"used":true},{"PRN":31,"el":60,"az":230,"ss":47,"used":true}]}
$GPRMC,143749.77,A,4806.3731,N,00138.6217,W,0.00,266.5,121007,2.6,W,A*0B
$GPGGA,143749.77,4806.3731,N,00138.6217,W,1,10,1.1,42.2,M,48.5,M,,*4A
{"class":"TPV","tag":"GGA","mode":3,"time":"2007-10-12T14:37:49.770Z","ept":0.005,"lat":48.106218333,"lon":-1.643695000,"alt":42.200,"epx":7.849,"epy":10.678,"epv":27.600,"track":266.5000,"speed":0.000,"eps":21.36}
$PFST,FOM,5*60
$GPGSA,A,3,05,06,07,10,16,21,23,24,30,31,,,1.7,1.1,1.2*30
$GPGSV,3,1,11,01,06,230,34,05,16,114,42,06,65,063,50,07,72,061,47*79
$GPGSV,3,2,11,10,09,057,40,16,35,295,48,21,43,153,53,23,12,316,51*72
$GPGSV,3,3,11,24,51,098,55,30,33,110,50,31,60,230,47*4A
{"class":"SKY","tag":"GSV","xdop":0.52,"ydop":0.71,"vdop":1.20,"tdop":0.63,"hdop":1.10,"gdop":1.54,"pdop":1.70,"satellites":[{"PRN":1,"el":6,"az":230,"ss":34,"used":false},{"PRN":5,"el":16,"az":114,"ss":42,"used":true},{"PRN":6,"el":65,"az":63,"ss":50,"used":true},{"PRN":7,"el":72,"az":61,"ss":47,"used":true},{"PRN":10,"el":9,"az":57,"ss":40,"used":true},{"PRN":16,"el":35,"az":295,"ss":48,"used":true},{"PRN":21,"el":43,"az":153,"ss":53,"used":true},{"PRN":23,"el":12,"az":316,"ss":51,"used":true},{"PRN":24,"el":51,"az":98,"ss":55,"used":true},{"PRN":30,"el":33,"az":110,"ss":50,"used":true},{"PRN":31,"el":60,"az":230,"ss":47,"used":true}]}
$GPRMC,143750.77,A,4806.3731,N,00138.6217,W,0.00,266.5,121007,2.6,W,A*03
$GPGGA,143750.77,4806.3731,N,00138.6217,W,1,10,1.0,42.2,M,48.5,M,,*43
{"class":"TPV","tag":"GGA","mode":3,"time":"2007-10-12T14:37:50.770Z","ept":0.005,"lat":48.106218333,"lon":-1.643695000,"alt":42.200,"epx":7.849,"epy":10.678,"epv":27.600,"track":266.5000,"speed":0.000,"eps":21.36}
$PFST,FOM,6*63
$GPGSA,A,3,01,05,06,07,16,21,23,24,30,31,,,1.5,1.0,1.2*33
$GPGSV,3,1,11,01,06,230,34,05,16,114,42,06,65,063,50,07,72,061,47*79
$GPGSV,3,2,11,10,09,057,40,16,35,295,48,21,43,153,53,23,12,316,51*72
$GPRMC,143751.77,A,4806.3731,N,00138.6217,W,0.00,266.5,121007,2.6,W,A*02
$GPGGA,143751.77,4806.3731,N,00138.6217,W,1,10,1.3,42.2,M,48.5,M,,*41
{"class":"TPV","tag":"GGA","mode":3,"time":"2007-10-12T14:37:51.770Z","ept":0.005,"lat":48.106218333,"lon":-1.643695000,"alt":42.200,"epx":7.849,"epy":10.678,"epv":27.600,"track":266.5000,"speed":0.000,"eps":21.36}
$PFST,FOM,6*63
$GPGSA,A,3,01,05,06,07,16,21,23,24,30,31,,,1.9,1.3,1.3*3D
$GPGSV,3,1,11,01,06,230,35,05,16,114,42,06,65,063,50,07,72,061,47*78
$GPGSV,3,2,11,10,09,057,40,16,35,295,48,21,43,153,53,23,12,316,51*72
$GPGSV,3,3,11,24,51,098,55,30,33,110,50,31,60,230,46*4B
{"class":"SKY","tag":"GSV","xdop":0.52,"ydop":0.71,"vdop":1.30,"tdop":0.63,"hdop":1.30,"gdop":1.54,"pdop":1.90,"satellites":[{"PRN":1,"el":6,"az":230,"ss":35,"used":true},{"PRN":5,"el":16,"az":114,"ss":42,"used":true},{"PRN":6,"el":65,"az":63,"ss":50,"used":true},{"PRN":7,"el":72,"az":61,"ss":47,"used":true},{"PRN":10,"el":9,"az":57,"ss":40,"used":false},{"PRN":16,"el":35,"az":295,"ss":48,"used":true},{"PRN":21,"el":43,"az":153,"ss":53,"used":true},{"PRN":23,"el":12,"az":316,"ss":51,"used":true},{"PRN":24,"el":51,"az":98,"ss":55,"used":true},{"PRN":30,"el":33,"az":110,"ss":50,"used":true},{"PRN":31,"el":60,"az":230,"ss":46,"used":true}]}
$GPRMC,143752.77,A,4806.3731,N,00138.6217,W,0.00,266.5,121007,2.6,W,A*01
$GPGGA,143752.77,4806.3731,N,00138.6217,W,1,10,1.1,42.1,M,48.5,M,,*43
{"class":"TPV","tag":"GGA","mode":3,"time":"2007-10-12T14:37:52.770Z","ept":0.005,"lat":48.106218333,"lon":-1.643695000,"alt":42.100,"epx":7.849,"epy":10.678,"epv":29.900,"track":266.5000,"speed":0.000,"eps":21.36}
$PFST,FOM,5*60
$GPGSA,A,3,05,06,07,10,16,21,23,24,30,31,,,1.7,1.1,1.2*30
$GPGSV,3,1,11,01,06,230,35,05,16,114,42,06,65,063,50,07,72,061,47*78
$GPGSV,3,2,11,10,09,057,41,16,35,295,48,21,44,152,53,23,12,316,51*75
$GPGSV,3,3,11,24,51,098,55,30,33,110,50,31,60,230,46*4B
{"class":"SKY","tag":"GSV","xdop":0.52,"ydop":0.71,"vdop":1.20,"tdop":0.63,"hdop":1.10,"gdop":1.54,"pdop":1.70,"satellites":[{"PRN":1,"el":6,"az":230,"ss":35,"used":false},{"PRN":5,"el":16,"az":114,"ss":42,"used":true},{"PRN":6,"el":65,"az":63,"ss":50,"used":true},{"PRN":7,"el":72,"az":61,"ss":47,"used":true},{"PRN":10,"el":9,"az":57,"ss":41,"used":true},{"PRN":16,"el":35,"az":295,"ss":48,"used":true},{"PRN":21,"el":44,"az":152,"ss":53,"used":true},{"PRN":23,"el":12,"az":316,"ss":51,"used":true},{"PRN":24,"el":51,"az":98,"ss":55,"used":true},{"PRN":30,"el":33,"az":110,"ss":50,"used":true},{"PRN":31,"el":60,"az":230,"ss":46,"used":true}]}
$GPRMC,143753.77,A,4806.3731,N,00138.6217,W,0.00,266.5,121007,2.6,W,A*00
$GPGGA,143753.77,4806.3731,N,00138.6217,W,1,10,1.1,42.2,M,48.5,M,,*41
{"class":"TPV","tag":"GGA","mode":3,"time":"2007-10-12T14:37:53.770Z","ept":0.005,"lat":48.106218333,"lon":-1.643695000,"alt":42.200,"epx":7.849,"epy":10.678,"epv":27.600,"track":266.5000,"speed":0.000,"eps":21.36}
$PFST,FOM,3*66
$GPGSA,A,3,05,06,07,10,16,21,23,24,30,31,,,1.7,1.1,1.2*30
$GPGSV,3,1,11,01,06,230,34,05,16,114,42,06,65,063,50,07,72,061,47*79
$GPGSV,3,2,11,10,09,057,41,16,35,295,48,21,44,152,53,23,12,316,51*75
$GPGSV,3,3,11,24,51,098,55,30,33,110,50,31,60,230,46*4B
{"class":"SKY","tag":"GSV","xdop":0.52,"ydop":0.71,"vdop":1.20,"tdop":0.63,"hdop":1.10,"gdop":1.54,"pdop":1.70,"satellites":[{"PRN":1,"el":6,"az":230,"ss":34,"used":false},{"PRN":5,"el":16,"az":114,"ss":42,"used":true},{"PRN":6,"el":65,"az":63,"ss":50,"used":true},{"PRN":7,"el":72,"az":61,"ss":47,"used":true},{"PRN":10,"el":9,"az":57,"ss":41,"used":true},{"PRN":16,"el":35,"az":295,"ss":48,"used":true},{"PRN":21,"el":44,"az":152,"ss":53,"used":true},{"PRN":23,"el":12,"az":316,"ss":51,"used":true},{"PRN":24,"el":51,"az":98,"ss":55,"used":true},{"PRN":30,"el":33,"az":110,"ss":50,"used":true},{"PRN":31,"el":60,"az":230,"ss":46,"used":true}]}
$GPRMC,143754.77,A,4806.3731,N,00138.6217,W,0.00,266.5,121007,2.6,W,A*07
$GPGGA,143754.77,4806.3731,N,00138.6217,W,1,10,1.1,42.1,M,48.5,M,,*45
{"class":"TPV","tag":"GGA","mode":3,"time":"2007-10-12T14:37:54.770Z","ept":0.005,"lat":48.106218333,"lon":-1.643695000,"alt":42.100,"epx":7.849,"epy":10.678,"epv":27.600,"track":266.5000,"speed":0.000,"eps":21.36}
$PFST,FOM,2*67
$GPGSA,A,3,05,06,07,10,16,21,23,24,30,31,,,1.7,1.1,1.2*30
$GPGSV,3,1,11,01,06,230,34,05,16,114,41,06,65,063,50,07,72,061,47*7A
$GPGSV,3,2,11,10,09,057,40,16,35,295,48,21,44,152,53,23,12,316,51*74
$GPGSV,3,3,11,24,51,098,55,30,33,110,50,31,60,230,47*4A
{"class":"SKY","tag":"GSV","xdop":0.52,"ydop":0.71,"vdop":1.20,"tdop":0.63,"hdop":1.10,"gdop":1.54,"pdop":1.70,"satellites":[{"PRN":1,"el":6,"az":230,"ss":34,"used":false},{"PRN":5,"el":16,"az":114,"ss":41,"used":true},{"PRN":6,"el":65,"az":63,"ss":50,"used":true},{"PRN":7,"el":72,"az":61,"ss":47,"used":true},{"PRN":10,"el":9,"az":57,"ss":40,"used":true},{"PRN":16,"el":35,"az":295,"ss":48,"used":true},{"PRN":21,"el":44,"az":152,"ss":53,"used":true},{"PRN":23,"el":12,"az":316,"ss":51,"used":true},{"PRN":24,"el":51,"az":98,"ss":55,"used":true},{"PRN":30,"el":33,"az":110,"ss":50,"used":true},{"PRN":31,"el":60,"az":230,"ss":47,"used":true}]}
$GPRMC,143755.77,A,4806.3731,N,00138.6217,W,0.00,266.5,121007,2.6,W,A*06
$GPGGA,143755.77,4806.3731,N,00138.6217,W,1,10,1.1,42.1,M,48.5,M,,*44
{"class":"TPV","tag":"GGA","mode":3,"time":"2007-10-12T14:37:55.770Z","ept":0.005,"lat":48.106218333,"lon":-1.643695000,"alt":42.100,"epx":7.849,"epy":10.678,"epv":27.600,"track":266.5000,"speed":0.000,"eps":21.36}
$PFST,FOM,3*66
$GPGSA,A,3,05,06,07,10,16,21,23,24,30,31,,,1.7,1.1,1.2*30
$GPGSV,3,1,11,01,06,230,34,05,16,114,41,06,65,063,49,07,72,061,47*72
$GPGSV,3,2,11,10,09,057,40,16,35,295,48,21,44,152,53,23,12,316,51*74
$GPGSV,3,3,11,24,51,097,55,30,33,110,51,31,60,230,47*44
{"class":"SKY","tag":"GSV","xdop":0.52,"ydop":0.71,"vdop":1.20,"tdop":0.63,"hdop":1.10,"gdop":1.54,"pdop":1.70,"satellites":[{"PRN":1,"el":6,"az":230,"ss":34,"used":false},{"PRN":5,"el":16,"az":114,"ss":41,"used":true},{"PRN":6,"el":65,"az":63,"ss":49,"used":true},{"PRN":7,"el":72,"az":61,"ss":47,"used":true},{"PRN":10,"el":9,"az":57,"ss":40,"used":true},{"PRN":16,"el":35,"az":295,"ss":48,"used":true},{"PRN":21,"el":44,"az":152,"ss":53,"used":true},{"PRN":23,"el":12,"az":316,"ss":51,"used":true},{"PRN":24,"el":51,"az":97,"ss":55,"used":true},{"PRN":30,"el":33,"az":110,"ss":51,"used":true},{"PRN":31,"el":60,"az":230,"ss":47,"used":true}]}
$GPRMC,143756.77,A,4806.3731,N,00138.6217,W,0.00,266.5,121007,2.6,W,A*05
$GPGGA,143756.77,4806.3731,N,00138.6217,W,1,10,1.1,42.1,M,48.5,M,,*47
{"class":"TPV","tag":"GGA","mode":3,"time":"2007-10-12T14:37:56.770Z","ept":0.005,"lat":48.106218333,"lon":-1.643695000,"alt":42.100,"epx":7.849,"epy":10.678,"epv":27.600,"track":266.5000,"speed":0.000,"eps":21.36}
$PFST,FOM,3*66
$GPGSA,A,3,05,06,07,10,16,21,23,24,30,31,,,1.7,1.1,1.2*30
$GPGSV,3,1,11,01,06,230,33,05,16,114,42,06,65,063,49,07,72,061,47*76
$GPGSV,3,2,11,10,09,057,39,16,35,295,48,21,44,152,53,23,12,316,51*7A
$GPGSV,3,3,11,24,51,097,54,30,33,110,50,31,60,230,47*44
{"class":"SKY","tag":"GSV","xdop":0.52,"ydop":0.71,"vdop":1.20,"tdop":0.63,"hdop":1.10,"gdop":1.54,"pdop":1.70,"satellites":[{"PRN":1,"el":6,"az":230,"ss":33,"used":false},{"PRN":5,"el":16,"az":114,"ss":42,"used":true},{"PRN":6,"el":65,"az":63,"ss":49,"used":true},{"PRN":7,"el":72,"az":61,"ss":47,"used":true},{"PRN":10,"el":9,"az":57,"ss":39,"used":true},{"PRN":16,"el":35,"az":295,"ss":48,"used":true},{"PRN":21,"el":44,"az":152,"ss":53,"used":true},{"PRN":23,"el":12,"az":316,"ss":51,"used":true},{"PRN":24,"el":51,"az":97,"ss":54,"used":true},{"PRN":30,"el":33,"az":110,"ss":50,"used":true},{"PRN":31,"el":60,"az":230,"ss":47,"used":true}]}
$GPRMC,143757.77,A,4806.3731,N,00138.6217,W,0.00,266.5,121007,2.6,W,A*04
$GPGGA,143757.77,4806.3731,N,00138.6217,W,1,10,1.3,42.1,M,48.5,M,,*44
{"class":"TPV","tag":"GGA","mode":3,"time":"2007-10-12T14:37:57.770Z","ept":0.005,"lat":48.106218333,"lon":-1.643695000,"alt":42.100,"epx":7.849,"epy":10.678,"epv":27.600,"track":266.5000,"speed":0.000,"eps":21.36}
$PFST,FOM,5*60
$GPGSA,A,3,05,06,07,10,16,21,23,24,30,31,,,1.9,1.3,1.3*3D
$GPGSV,3,1,11,01,06,230,33,05,16,114,42,06,65,063,49,07,72,061,47*76
$GPGSV,3,2,11,10,09,057,38,16,35,295,48,21,44,152,53,23,12,316,51*7B
$GPGSV,3,3,11,24,51,097,54,30,33,110,50,31,60,230,47*44
{"class":"SKY","tag":"GSV","xdop":0.52,"ydop":0.71,"vdop":1.30,"tdop":0.63,"hdop":1.30,"gdop":1.54,"pdop":1.90,"satellites":[{"PRN":1,"el":6,"az":230,"ss":33,"used":false},{"PRN":5,"el":16,"az":114,"ss":42,"used":true},{"PRN":6,"el":65,"az":63,"ss":49,"used":true},{"PRN":7,"el":72,"az":61,"ss":47,"used":true},{"PRN":10,"el":9,"az":57,"ss":38,"used":true},{"PRN":16,"el":35,"az":295,"ss":48,"used":true},{"PRN":21,"el":44,"az":152,"ss":53,"used":true},{"PRN":23,"el":12,"az":316,"ss":51,"used":true},{"PRN":24,"el":51,"az":97,"ss":54,"used":true},{"PRN":30,"el":33,"az":110,"ss":50,"used":true},{"PRN":31,"el":60,"az":230,"ss":47,"used":true}]}
$GPRMC,143758.77,A,4806.3731,N,00138.6217,W,0.00,266.5,121007,2.6,W,A*0B
$GPGGA,143758.77,4806.3731,N,00138.6217,W,1,09,1.3,42.1,M,48.5,M,,*43
{"class":"TPV","tag":"GGA","mode":3,"time":"2007-10-12T14:37:58.770Z","ept":0.005,"lat":48.106218333,"lon":-1.643695000,"alt":42.100,"epx":7.849,"epy":10.678,"epv":29.900,"track":266.5000,"speed":0.000,"eps":21.36}
$PFST,FOM,4*61
$GPGSA,A,3,05,06,07,16,21,23,24,30,31,,,,1.9,1.3,1.3*3C
$GPGSV,3,1,11,01,06,230,32,05,16,114,42,06,65,063,49,07,72,061,46*76
$GPGSV,3,2,11,10,09,057,37,16,35,295,48,21,44,152,53,23,12,316,51*74
$GPGSV,3,3,11,24,51,097,54,30,33,110,50,31,60,230,47*44
{"class":"SKY","tag":"GSV","xdop":0.52,"ydop":0.71,"vdop":1.30,"tdop":0.63,"hdop":1.30,"gdop":1.54,"pdop":1.90,"satellites":[{"PRN":1,"el":6,"az":230,"ss":32,"used":false},{"PRN":5,"el":16,"az":114,"ss":42,"used":true},{"PRN":6,"el":65,"az":63,"ss":49,"used":true},{"PRN":7,"el":72,"az":61,"ss":46,"used":true},{"PRN":10,"el":9,"az":57,"ss":37,"used":false},{"PRN":16,"el":35,"az":295,"ss":48,"used":true},{"PRN":21,"el":44,"az":152,"ss":53,"used":true},{"PRN":23,"el":12,"az":316,"ss":51,"used":true},{"PRN":24,"el":51,"az":97,"ss":54,"used":true},{"PRN":30,"el":33,"az":110,"ss":50,"used":true},{"PRN":31,"el":60,"az":230,"ss":47,"used":true}]}
$GPRMC,143759.77,A,4806.3731,N,00138.6216,W,0.00,266.5,121007,2.6,W,A*0B
$GPGGA,143759.77,4806.3731,N,00138.6216,W,1,09,1.3,42.1,M,48.5,M,,*43
{"class":"TPV","tag":"GGA","mode":3,"time":"2007-10-12T14:37:59.770Z","ept":0.005,"lat":48.106218333,"lon":-1.643693333,"alt":42.100,"epx":7.849,"epy":10.678,"epv":29.900,"track":266.5000,"speed":0.000,"eps":21.36}
$PFST,FOM,4*61
$GPGSA,A,3,05,06,07,16,21,23,24,30,31,,,,2.2,1.3,1.7*30
$GPGSV,3,1,11,01,06,230,32,05,16,114,42,06,65,063,49,07,72,061,46*76
$GPGSV,3,2,11,10,09,057,38,16,35,295,48,21,44,152,53,23,12,316,51*7B
$GPGSV,3,3,11,24,51,097,54,30,33,110,50,31,60,230,47*44
{"class":"SKY","tag":"GSV","xdop":0.52,"ydop":0.71,"vdop":1.70,"tdop":0.63,"hdop":1.30,"gdop":1.54,"pdop":2.20,"satellites":[{"PRN":1,"el":6,"az":230,"ss":32,"used":false},{"PRN":5,"el":16,"az":114,"ss":42,"used":true},{"PRN":6,"el":65,"az":63,"ss":49,"used":true},{"PRN":7,"el":72,"az":61,"ss":46,"used":true},{"PRN":10,"el":9,"az":57,"ss":38,"used":false},{"PRN":16,"el":35,"az":295,"ss":48,"used":true},{"PRN":21,"el":44,"az":152,"ss":53,"used":true},{"PRN":23,"el":12,"az":316,"ss":51,"used":true},{"PRN":24,"el":51,"az":97,"ss":54,"used":true},{"PRN":30,"el":33,"az":110,"ss":50,"used":true},{"PRN":31,"el":60,"az":230,"ss":47,"used":true}]}
$GPRMC,143800.77,A,4806.3732,N,00138.6216,W,0.00,266.5,121007,2.6,W,A*0B
$GPGGA,143800.77,4806.3732,N,00138.6216,W,1,09,1.3,42.1,M,48.5,M,,*43
{"class":"TPV","tag":"GGA","mode":3,"time":"2007-10-12T14:38:00.770Z","ept":0.005,"lat":48.106220000,"lon":-1.643693333,"alt":42.100,"epx":7.849,"epy":10.678,"epv":39.100,"track":266.5000,"speed":0.000,"eps":21.36}
$PFST,FOM,5*60
$GPGSA,A,3,05,06,07,16,21,23,24,30,31,,,,1.9,1.3,1.3*3C
$GPGSV,3,1,11,01,06,230,31,05,16,114,42,06,65,063,49,07,72,061,46*75
$GPGSV,3,2,11,10,09,057,38,16,35,295,48,21,44,152,53,23,12,316,51*7B
$GPGSV,3,3,11,24,51,097,54,30,33,110,50,31,60,230,46*45
{"class":"SKY","tag":"GSV","xdop":0.52,"ydop":0.71,"vdop":1.30,"tdop":0.63,"hdop":1.30,"gdop":1.54,"pdop":1.90,"satellites":[{"PRN":1,"el":6,"az":230,"ss":31,"used":false},{"PRN":5,"el":16,"az":114,"ss":42,"used":true},{"PRN":6,"el":65,"az":63,"ss":49,"used":true},{"PRN":7,"el":72,"az":61,"ss":46,"used":true},{"PRN":10,"el":9,"az":57,"ss":38,"used":false},{"PRN":16,"el":35,"az":295,"ss":48,"used":true},{"PRN":21,"el":44,"az":152,"ss":53,"used":true},{"PRN":23,"el":12,"az":316,"ss":51,"used":true},{"PRN":24,"el":51,"az":97,"ss":54,"used":true},{"PRN":30,"el":33,"az":110,"ss":50,"used":true},{"PRN":31,"el":60,"az":230,"ss":46,"used":true}]}
$GPRMC,143801.77,A,4806.3732,N,00138.6216,W,0.00,266.5,121007,2.6,W,A*0A
$GPGGA,143801.77,4806.3732,N,00138.6216,W,1,10,1.7,42.1,M,48.5,M,,*4E
{"class":"TPV","tag":"GGA","mode":3,"time":"2007-10-12T14:38:01.770Z","ept":0.005,"lat":48.106220000,"lon":-1.643693333,"alt":42.100,"epx":7.849,"epy":10.678,"epv":29.900,"track":266.5000,"speed":0.000,"eps":21.36}
$PFST,FOM,7*62
$GPGSA,A,3,05,06,07,10,16,21,23,24,30,31,,,2.4,1.7,1.6*32
$GPGSV,3,1,11,01,06,230,32,05,16,114,43,06,65,063,49,07,72,061,46*77
$GPGSV,3,2,11,10,09,057,38,16,35,295,48,21,44,152,53,23,12,316,51*7B
$GPGSV,3,3,11,24,51,097,54,30,32,110,50,31,60,230,46*44
{"class":"SKY","tag":"GSV","xdop":0.52,"ydop":0.71,"vdop":1.60,"tdop":0.63,"hdop":1.70,"gdop":1.54,"pdop":2.40,"satellites":[{"PRN":1,"el":6,"az":230,"ss":32,"used":false},{"PRN":5,"el":16,"az":114,"ss":43,"used":true},{"PRN":6,"el":65,"az":63,"ss":49,"used":true},{"PRN":7,"el":72,"az":61,"ss":46,"used":true},{"PRN":10,"el":9,"az":57,"ss":38,"used":true},{"PRN":16,"el":35,"az":295,"ss":48,"used":true},{"PRN":21,"el":44,"az":152,"ss":53,"used":true},{"PRN":23,"el":12,"az":316,"ss":51,"used":true},{"PRN":24,"el":51,"az":97,"ss":54,"used":true},{"PRN":30,"el":32,"az":110,"ss":50,"used":true},{"PRN":31,"el":60,"az":230,"ss":46,"used":true}]}
$GPRMC,143802.77,A,4806.3732,N,00138.6216,W,0.00,266.5,121007,2.6,W,A*09
$GPGGA,143802.77,4806.3732,N,00138.6216,W,1,09,1.7,42.1,M,48.5,M,,*45
{"class":"TPV","tag":"GGA","mode":3,"time":"2007-10-12T14:38:02.770Z","ept":0.005,"lat":48.106220000,"lon":-1.643693333,"alt":42.100,"epx":7.849,"epy":10.678,"epv":36.800,"track":266.5000,"speed":0.000,"eps":21.36}
$PFST,FOM,5*60
$GPGSA,A,3,05,06,07,10,16,21,23,24,30,,,,2.4,1.7,1.6*30
$GPGSV,3,1,11,01,06,230,32,05,16,114,43,06,65,063,49,07,72,061,47*76
$GPGSV,3,2,11,10,09,057,39,16,35,295,48,21,44,152,53,23,12,316,51*7A
$GPGSV,3,3,11,24,51,097,54,30,32,110,50,31,60,229,46*4C
{"class":"SKY","tag":"GSV","xdop":0.52,"ydop":0.71,"vdop":1.60,"tdop":0.63,"hdop":1.70,"gdop":1.54,"pdop":2.40,"satellites":[{"PRN":1,"el":6,"az":230,"ss":32,"used":false},{"PRN":5,"el":16,"az":114,"ss":43,"used":true},{"PRN":6,"el":65,"az":63,"ss":49,"used":true},{"PRN":7,"el":72,"az":61,"ss":47,"used":true},{"PRN":10,"el":9,"az":57,"ss":39,"used":true},{"PRN":16,"el":35,"az":295,"ss":48,"used":true},{"PRN":21,"el":44,"az":152,"ss":53,"used":true},{"PRN":23,"el":12,"az":316,"ss":51,"used":true},{"PRN":24,"el":51,"az":97,"ss":54,"used":true},{"PRN":30,"el":32,"az":110,"ss":50,"used":true},{"PRN":31,"el":60,"az":229,"ss":46,"used":false}]}
$GPRMC,143803.77,A,4806.3732,N,00138.6216,W,0.00,266.5,121007,2.6,W,A*08
$GPGGA,143803.77,4806.3732,N,00138.6216,W,1,11,1.1,42.1,M,48.5,M,,*4B
{"class":"TPV","tag":"GGA","mode":3,"time":"2007-10-12T14:38:03.770Z","ept":0.005,"lat":48.106220000,"lon":-1.643693333,"alt":42.100,"epx":7.849,"epy":10.678,"epv":36.800,"track":266.5000,"speed":0.000,"eps":21.36}
$PFST,FOM,8*6D
$GPGSA,A,3,01,05,06,07,10,16,21,23,24,30,31,,1.7,1.1,1.2*31
$GPGSV,3,1,11,01,06,230,32,05,16,114,44,06,65,063,49,07,72,061,47*71
$GPGSV,3,2,11,10,09,057,39,16,35,295,48,21,44,152,53,23,12,316,52*79
$GPGSV,3,3,11,24,51,097,55,30,32,110,50,31,60,229,46*4D
{"class":"SKY","tag":"GSV","xdop":0.52,"ydop":0.71,"vdop":1.20,"tdop":0.63,"hdop":1.10,"gdop":1.54,"pdop":1.70,"satellites":[{"PRN":1,"el":6,"az":230,"ss":32,"used":true},{"PRN":5,"el":16,"az":114,"ss":44,"used":true},{"PRN":6,"el":65,"az":63,"ss":49,"used":true},{"PRN":7,"el":72,"az":61,"ss":47,"used":true},{"PRN":10,"el":9,"az":57,"ss":39,"used":true},{"PRN":16,"el":35,"az":295,"ss":48,"used":true},{"PRN":21,"el":44,"az":152,"ss":53,"used":true},{"PRN":23,"el":12,"az":316,"ss":52,"used":true},{"PRN":24,"el":51,"az":97,"ss":55,"used":true},{"PRN":30,"el":32,"az":110,"ss":50,"used":true},{"PRN":31,"el":60,"az":229,"ss":46,"used":true}]}
$GPRMC,143804.78,A,4806.3732,N,00138.6216,W,0.00,266.5,121007,2.6,W,A*00
$GPGGA,143804.78,4806.3732,N,00138.6216,W,1,09,1.3,42.1,M,48.5,M,,*48
{"class":"TPV","tag":"GGA","mode":3,"time":"2007-10-12T14:38:04.780Z","ept":0.005,"lat":48.106220000,"lon":-1.643693333,"alt":42.100,"epx":7.849,"epy":10.678,"epv":27.600,"track":266.5000,"speed":0.000,"eps":21.14}
$PFST,FOM,5*60
$GPGSA,A,3,05,06,07,16,21,23,24,30,31,,,,1.9,1.3,1.3*3C
$GPGSV,3,1,11,01,06,230,33,05,16,114,44,06,65,063,49,07,72,061,47*70
$GPGSV,3,2,11,10,09,057,40,16,35,295,48,21,44,152,53,23,12,316,52*77
$GPGSV,3,3,11,24,51,097,55,30,32,110,50,31,60,229,46*4D
{"class":"SKY","tag":"GSV","xdop":0.52,"ydop":0.71,"vdop":1.30,"tdop":0.63,"hdop":1.30,"gdop":1.54,"pdop":1.90,"satellites":[{"PRN":1,"el":6,"az":230,"ss":33,"used":false},{"PRN":5,"el":16,"az":114,"ss":44,"used":true},{"PRN":6,"el":65,"az":63,"ss":49,"used":true},{"PRN":7,"el":72,"az":61,"ss":47,"used":true},{"PRN":10,"el":9,"az":57,"ss":40,"used":false},{"PRN":16,"el":35,"az":295,"ss":48,"used":true},{"PRN":21,"el":44,"az":152,"ss":53,"used":true},{"PRN":23,"el":12,"az":316,"ss":52,"used":true},{"PRN":24,"el":51,"az":97,"ss":55,"used":true},{"PRN":30,"el":32,"az":110,"ss":50,"used":true},{"PRN":31,"el":60,"az":229,"ss":46,"used":true}]}
$GPRMC,143805.78,A,4806.3732,N,00138.6216,W,0.00,266.5,121007,2.6,W,A*01
$GPGGA,143805.78,4806.3732,N,00138.6216,W,1,09,1.3,42.1,M,48.5,M,,*49
{"class":"TPV","tag":"GGA","mode":3,"time":"2007-10-12T14:38:05.780Z","ept":0.005,"lat":48.106220000,"lon":-1.643693333,"alt":42.100,"epx":7.849,"epy":10.678,"epv":29.900,"track":266.5000,"speed":0.000,"eps":21.36}
$PFST,FOM,5*60
$GPGSA,A,3,05,06,07,16,21,23,24,30,31,,,,1.9,1.3,1.3*3C
$GPGSV,3,1,11,01,06,230,00,05,16,114,44,06,65,063,49,07,72,061,47*70
$GPGSV,3,2,11,10,09,057,40,16,35,295,48,21,44,152,53,23,12,316,51*74
$GPGSV,3,3,11,24,51,097,55,30,32,110,50,31,60,229,46*4D
{"class":"SKY","tag":"GSV","xdop":0.52,"ydop":0.71,"vdop":1.30,"tdop":0.63,"hdop":1.30,"gdop":1.54,"pdop":1.90,"satellites":[{"PRN":1,"el":6,"az":230,"ss":0,"used":false},{"PRN":5,"el":16,"az":114,"ss":44,"used":true},{"PRN":6,"el":65,"az":63,"ss":49,"used":true},{"PRN":7,"el":72,"az":61,"ss":47,"used":true},{"PRN":10,"el":9,"az":57,"ss":40,"used":false},{"PRN":16,"el":35,"az":295,"ss":48,"used":true},{"PRN":21,"el":44,"az":152,"ss":53,"used":true},{"PRN":23,"el":12,"az":316,"ss":51,"used":true},{"PRN":24,"el":51,"az":97,"ss":55,"used":true},{"PRN":30,"el":32,"az":110,"ss":50,"used":true},{"PRN":31,"el":60,"az":229,"ss":46,"used":true}]}
$GPRMC,143806.78,A,4806.3732,N,00138.6216,W,0.00,266.5,121007,2.6,W,A*02
$GPGGA,143806.78,4806.3732,N,00138.6216,W,1,10,1.1,42.1,M,48.5,M,,*40
{"class":"TPV","tag":"GGA","mode":3,"time":"2007-10-12T14:38:06.780Z","ept":0.005,"lat":48.106220000,"lon":-1.643693333,"alt":42.100,"epx":7.849,"epy":10.678,"epv":29.900,"track":266.5000,"speed":0.000,"eps":21.36}
$PFST,FOM,5*60
$GPGSA,A,3,05,06,07,10,16,21,23,24,30,31,,,1.7,1.1,1.2*30
$GPGSV,3,1,11,01,06,230,13,05,16,114,44,06,65,063,49,07,72,061,47*72
$GPGSV,3,2,11,10,09,057,41,16,35,295,48,21,44,152,53,23,12,316,52*76
$GPGSV,3,3,11,24,51,097,55,30,32,110,50,31,60,229,46*4D
{"class":"SKY","tag":"GSV","xdop":0.52,"ydop":0.71,"vdop":1.20,"tdop":0.63,"hdop":1.10,"gdop":1.54,"pdop":1.70,"satellites":[{"PRN":1,"el":6,"az":230,"ss":13,"used":false},{"PRN":5,"el":16,"az":114,"ss":44,"used":true},{"PRN":6,"el":65,"az":63,"ss":49,"used":true},{"PRN":7,"el":72,"az":61,"ss":47,"used":true},{"PRN":10,"el":9,"az":57,"ss":41,"used":true},{"PRN":16,"el":35,"az":295,"ss":48,"used":true},{"PRN":21,"el":44,"az":152,"ss":53,"used":true},{"PRN":23,"el":12,"az":316,"ss":52,"used":true},{"PRN":24,"el":51,"az":97,"ss":55,"used":true},{"PRN":30,"el":32,"az":110,"ss":50,"used":true},{"PRN":31,"el":60,"az":229,"ss":46,"used":true}]}
$GPRMC,143807.78,A,4806.3732,N,00138.6216,W,0.00,266.5,121007,2.6,W,A*03
$GPGGA,143807.78,4806.3732,N,00138.6216,W,1,10,1.1,42.1,M,48.5,M,,*41
{"class":"TPV","tag":"GGA","mode":3,"time":"2007-10-12T14:38:07.780Z","ept":0.005,"lat":48.106220000,"lon":-1.643693333,"alt":42.100,"epx":7.849,"epy":10.678,"epv":27.600,"track":266.5000,"speed":0.000,"eps":21.36}
$PFST,FOM,6*63
$GPGSA,A,3,05,06,07,10,16,21,23,24,30,31,,,1.7,1.1,1.2*30
$GPGSV,3,1,11,01,06,230,30,05,16,114,44,06,65,063,49,07,72,061,47*73
$GPGSV,3,2,11,10,09,057,41,16,35,295,48,21,44,152,53,23,12,316,52*76
$GPGSV,3,3,11,24,51,097,55,30,32,110,50,31,60,229,46*4D
{"class":"SKY","tag":"GSV","xdop":0.52,"ydop":0.71,"vdop":1.20,"tdop":0.63,"hdop":1.10,"gdop":1.54,"pdop":1.70,"satellites":[{"PRN":1,"el":6,"az":230,"ss":30,"used":false},{"PRN":5,"el":16,"az":114,"ss":44,"used":true},{"PRN":6,"el":65,"az":63,"ss":49,"used":true},{"PRN":7,"el":72,"az":61,"ss":47,"used":true},{"PRN":10,"el":9,"az":57,"ss":41,"used":true},{"PRN":16,"el":35,"az":295,"ss":48,"used":true},{"PRN":21,"el":44,"az":152,"ss":53,"used":true},{"PRN":23,"el":12,"az":316,"ss":52,"used":true},{"PRN":24,"el":51,"az":97,"ss":55,"used":true},{"PRN":30,"el":32,"az":110,"ss":50,"used":true},{"PRN":31,"el":60,"az":229,"ss":46,"used":true}]}
$GPRMC,143808.78,A,4806.3732,N,00138.6216,W,0.00,266.5,121007,2.6,W,A*0C
$GPGGA,143808.78,4806.3732,N,00138.6216,W,1,10,1.1,42.1,M,48.5,M,,*4E
{"class":"TPV","tag":"GGA","mode":3,"time":"2007-10-12T14:38:08.780Z","ept":0.005,"lat":48.106220000,"lon":-1.643693333,"alt":42.100,"epx":7.849,"epy":10.678,"epv":27.600,"track":266.5000,"speed":0.000,"eps":21.36}
$PFST,FOM,6*63
$GPGSA,A,3,05,06,07,10,16,21,23,24,30,31,,,1.7,1.1,1.2*30
$GPGSV,3,1,11,01,06,230,33,05,16,114,43,06,65,063,49,07,72,061,47*77
$GPGSV,3,2,11,10,09,057,40,16,35,295,48,21,44,152,53,23,12,316,51*74
$GPGSV,3,3,11,24,51,097,55,30,32,110,51,31,60,229,47*4D
{"class":"SKY","tag":"GSV","xdop":0.52,"ydop":0.71,"vdop":1.20,"tdop":0.63,"hdop":1.10,"gdop":1.54,"pdop":1.70,"satellites":[{"PRN":1,"el":6,"az":230,"ss":33,"used":false},{"PRN":5,"el":16,"az":114,"ss":43,"used":true},{"PRN":6,"el":65,"az":63,"ss":49,"used":true},{"PRN":7,"el":72,"az":61,"ss":47,"used":true},{"PRN":10,"el":9,"az":57,"ss":40,"used":true},{"PRN":16,"el":35,"az":295,"ss":48,"used":true},{"PRN":21,"el":44,"az":152,"ss":53,"used":true},{"PRN":23,"el":12,"az":316,"ss":51,"used":true},{"PRN":24,"el":51,"az":97,"ss":55,"used":true},{"PRN":30,"el":32,"az":110,"ss":51,"used":true},{"PRN":31,"el":60,"az":229,"ss":47,"used":true}]}
$GPRMC,143809.78,A,4806.3732,N,00138.6216,W,0.00,266.5,121007,2.6,W,A*0D
$GPGGA,143809.78,4806.3732,N,00138.6216,W,1,09,1.3,42.1,M,48.5,M,,*45
{"class":"TPV","tag":"GGA","mode":3,"time":"2007-10-12T14:38:09.780Z","ept":0.005,"lat":48.106220000,"lon":-1.643693333,"alt":42.100,"epx":7.849,"epy":10.678,"epv":27.600,"track":266.5000,"speed":0.000,"eps":21.36}
$PFST,FOM,5*60
$GPGSA,A,3,05,06,07,16,21,23,24,30,31,,,,2.2,1.3,1.7*30
$GPGSV,3,1,11,01,06,230,33,05,16,114,45,06,65,063,49,07,72,061,47*71
$GPGSV,3,2,11,10,09,057,38,16,35,295,48,21,44,152,53,23,12,316,52*78
$GPGSV,3,3,11,24,51,097,54,30,32,110,51,31,60,229,46*4D
{"class":"SKY","tag":"GSV","xdop":0.52,"ydop":0.71,"vdop":1.70,"tdop":0.63,"hdop":1.30,"gdop":1.54,"pdop":2.20,"satellites":[{"PRN":1,"el":6,"az":230,"ss":33,"used":false},{"PRN":5,"el":16,"az":114,"ss":45,"used":true},{"PRN":6,"el":65,"az":63,"ss":49,"used":true},{"PRN":7,"el":72,"az":61,"ss":47,"used":true},{"PRN":10,"el":9,"az":57,"ss":38,"used":false},{"PRN":16,"el":35,"az":295,"ss":48,"used":true},{"PRN":21,"el":44,"az":152,"ss":53,"used":true},{"PRN":23,"el":12,"az":316,"ss":52,"used":true},{"PRN":24,"el":51,"az":97,"ss":54,"used":true},{"PRN":30,"el":32,"az":110,"ss":51,"used":true},{"PRN":31,"el":60,"az":229,"ss":46,"used":true}]}
$GPRMC,143810.78,A,4806.3732,N,00138.6216,W,0.00,266.5,121007,2.6,W,A*05
$GPGGA,143810.78,4806.3732,N,00138.6216,W,1,10,1.0,42.1,M,48.5,M,,*46
{"class":"TPV","tag":"GGA","mode":3,"time":"2007-10-12T14:38:10.780Z","ept":0.005,"lat":48.106220000,"lon":-1.643693333,"alt":42.100,"epx":7.849,"epy":10.678,"epv":39.100,"track":266.5000,"speed":0.000,"eps":21.36}
$PFST,FOM,6*63
$GPGSA,A,3,01,05,06,07,16,21,23,24,30,31,,,1.5,1.0,1.2*33
$GPGSV,3,1,11,01,06,230,36,05,16,114,44,06,65,063,49,07,72,061,47*75
$GPGSV,3,2,11,10,09,057,37,16,35,295,49,21,44,152,53,23,12,316,52*76
$GPGSV,3,3,11,24,51,097,53,30,32,110,51,31,60,229,46*4A
{"class":"SKY","tag":"GSV","xdop":0.52,"ydop":0.71,"vdop":1.20,"tdop":0.63,"hdop":1.00,"gdop":1.54,"pdop":1.50,"satellites":[{"PRN":1,"el":6,"az":230,"ss":36,"used":true},{"PRN":5,"el":16,"az":114,"ss":44,"used":true},{"PRN":6,"el":65,"az":63,"ss":49,"used":true},{"PRN":7,"el":72,"az":61,"ss":47,"used":true},{"PRN":10,"el":9,"az":57,"ss":37,"used":false},{"PRN":16,"el":35,"az":295,"ss":49,"used":true},{"PRN":21,"el":44,"az":152,"ss":53,"used":true},{"PRN":23,"el":12,"az":316,"ss":52,"used":true},{"PRN":24,"el":51,"az":97,"ss":53,"used":true},{"PRN":30,"el":32,"az":110,"ss":51,"used":true},{"PRN":31,"el":60,"az":229,"ss":46,"used":true}]}
$GPRMC,143811.78,A,4806.3732,N,00138.6216,W,0.00,266.5,121007,2.6,W,A*04
$GPGGA,143811.78,4806.3732,N,00138.6216,W,1,10,1.3,42.1,M,48.5,M,,*44
{"class":"TPV","tag":"GGA","mode":3,"time":"2007-10-12T14:38:11.780Z","ept":0.005,"lat":48.106220000,"lon":-1.643693333,"alt":42.100,"epx":7.849,"epy":10.678,"epv":27.600,"track":266.5000,"speed":0.000,"eps":21.36}
$PFST,FOM,7*62
$GPGSA,A,3,01,05,06,07,16,21,23,24,30,31,,,1.9,1.3,1.3*3D
$GPGSV,3,1,11,01,06,230,38,05,16,114,42,06,65,063,49,07,72,061,47*7D
$GPGSV,3,2,11,10,09,057,38,16,35,295,48,21,44,152,53,23,12,316,51*7B
$GPGSV,3,3,11,24,51,097,54,30,32,110,51,31,60,229,46*4D
{"class":"SKY","tag":"GSV","xdop":0.52,"ydop":0.71,"vdop":1.30,"tdop":0.63,"hdop":1.30,"gdop":1.54,"pdop":1.90,"satellites":[{"PRN":1,"el":6,"az":230,"ss":38,"used":true},{"PRN":5,"el":16,"az":114,"ss":42,"used":true},{"PRN":6,"el":65,"az":63,"ss":49,"used":true},{"PRN":7,"el":72,"az":61,"ss":47,"used":true},{"PRN":10,"el":9,"az":57,"ss":38,"used":false},{"PRN":16,"el":35,"az":295,"ss":48,"used":true},{"PRN":21,"el":44,"az":152,"ss":53,"used":true},{"PRN":23,"el":12,"az":316,"ss":51,"used":true},{"PRN":24,"el":51,"az":97,"ss":54,"used":true},{"PRN":30,"el":32,"az":110,"ss":51,"used":true},{"PRN":31,"el":60,"az":229,"ss":46,"used":true}]}
$GPRMC,143812.78,A,4806.3732,N,00138.6216,W,0.00,266.5,121007,2.6,W,A*07
$GPGGA,143812.78,4806.3732,N,00138.6216,W,1,11,1.3,42.1,M,48.5,M,,*46
{"class":"TPV","tag":"GGA","mode":3,"time":"2007-10-12T14:38:12.780Z","ept":0.005,"lat":48.106220000,"lon":-1.643693333,"alt":42.100,"epx":7.849,"epy":10.678,"epv":29.900,"track":266.5000,"speed":0.000,"eps":21.36}
$PFST,FOM,7*62
$GPGSA,A,3,01,05,06,07,10,16,21,23,24,30,31,,1.9,1.3,1.3*3C
$GPGSV,3,1,11,01,06,230,39,05,16,114,43,06,65,063,48,07,72,061,47*7C
$GPGSV,3,2,11,10,09,057,37,16,35,295,48,21,44,152,52,23,12,316,52*76
$GPGSV,3,3,11,24,51,097,54,30,32,110,51,31,60,229,47*4C
{"class":"SKY","tag":"GSV","xdop":0.52,"ydop":0.71,"vdop":1.30,"tdop":0.63,"hdop":1.30,"gdop":1.54,"pdop":1.90,"satellites":[{"PRN":1,"el":6,"az":230,"ss":39,"used":true},{"PRN":5,"el":16,"az":114,"ss":43,"used":true},{"PRN":6,"el":65,"az":63,"ss":48,"used":true},{"PRN":7,"el":72,"az":61,"ss":47,"used":true},{"PRN":10,"el":9,"az":57,"ss":37,"used":true},{"PRN":16,"el":35,"az":295,"ss":48,"used":true},{"PRN":21,"el":44,"az":152,"ss":52,"used":true},{"PRN":23,"el":12,"az":316,"ss":52,"used":true},{"PRN":24,"el":51,"az":97,"ss":54,"used":true},{"PRN":30,"el":32,"az":110,"ss":51,"used":true},{"PRN":31,"el":60,"az":229,"ss":47,"used":true}]}
$GPRMC,143813.78,A,4806.3732,N,00138.6216,W,0.00,266.5,121007,2.6,W,A*06
$GPGGA,143813.78,4806.3732,N,00138.6216,W,1,09,1.3,42.1,M,48.5,M,,*4E
{"class":"TPV","tag":"GGA","mode":3,"time":"2007-10-12T14:38:13.780Z","ept":0.005,"lat":48.106220000,"lon":-1.643693333,"alt":42.100,"epx":7.849,"epy":10.678,"epv":29.900,"track":266.5000,"speed":0.000,"eps":21.36}
$PFST,FOM,4*61
$GPGSA,A,3,05,06,07,16,21,23,24,30,31,,,,1.9,1.3,1.3*3C
$GPGSV,3,1,11,01,06,230,38,05,16,114,44,06,65,063,48,07,72,061,47*7A
$GPGSV,3,2,11,10,09,057,36,16,35,295,47,21,44,152,53,23,12,316,51*7A
$GPGSV,3,3,11,24,51,097,54,30,32,110,50,31,60,229,48*42
{"class":"SKY","tag":"GSV","xdop":0.52,"ydop":0.71,"vdop":1.30,"tdop":0.63,"hdop":1.30,"gdop":1.54,"pdop":1.90,"satellites":[{"PRN":1,"el":6,"az":230,"ss":38,"used":false},{"PRN":5,"el":16,"az":114,"ss":44,"used":true},{"PRN":6,"el":65,"az":63,"ss":48,"used":true},{"PRN":7,"el":72,"az":61,"ss":47,"used":true},{"PRN":10,"el":9,"az":57,"ss":36,"used":false},{"PRN":16,"el":35,"az":295,"ss":47,"used":true},{"PRN":21,"el":44,"az":152,"ss":53,"used":true},{"PRN":23,"el":12,"az":316,"ss":51,"used":true},{"PRN":24,"el":51,"az":97,"ss":54,"used":true},{"PRN":30,"el":32,"az":110,"ss":50,"used":true},{"PRN":31,"el":60,"az":229,"ss":48,"used":true}]}
$GPRMC,143814.78,A,4806.3732,N,00138.6216,W,0.00,266.5,121007,2.6,W,A*01
$GPGGA,143814.78,4806.3732,N,00138.6216,W,1,10,1.3,42.1,M,48.5,M,,*41
{"class":"TPV","tag":"GGA","mode":3,"time":"2007-10-12T14:38:14.780Z","ept":0.005,"lat":48.106220000,"lon":-1.643693333,"alt":42.100,"epx":7.849,"epy":10.678,"epv":29.900,"track":266.5000,"speed":0.000,"eps":21.36}
$PFST,FOM,5*60
$GPGSA,A,3,05,06,07,10,16,21,23,24,30,31,,,1.9,1.3,1.3*3D
$GPGSV,3,1,11,01,06,230,38,05,16,114,44,06,65,063,47,07,72,061,47*75
$GPGSV,3,2,11,10,09,057,37,16,35,295,48,21,44,152,52,23,12,316,52*76
$GPGSV,3,3,11,24,51,097,54,30,32,110,51,31,60,229,48*43
{"class":"SKY","tag":"GSV","xdop":0.52,"ydop":0.71,"vdop":1.30,"tdop":0.63,"hdop":1.30,"gdop":1.54,"pdop":1.90,"satellites":[{"PRN":1,"el":6,"az":230,"ss":38,"used":false},{"PRN":5,"el":16,"az":114,"ss":44,"used":true},{"PRN":6,"el":65,"az":63,"ss":47,"used":true},{"PRN":7,"el":72,"az":61,"ss":47,"used":true},{"PRN":10,"el":9,"az":57,"ss":37,"used":true},{"PRN":16,"el":35,"az":295,"ss":48,"used":true},{"PRN":21,"el":44,"az":152,"ss":52,"used":true},{"PRN":23,"el":12,"az":316,"ss":52,"used":true},{"PRN":24,"el":51,"az":97,"ss":54,"used":true},{"PRN":30,"el":32,"az":110,"ss":51,"used":true},{"PRN":31,"el":60,"az":229,"ss":48,"used":true}]}
$GPRMC,143815.78,A,4806.3732,N,00138.6216,W,0.00,266.5,121007,2.6,W,A*00
$GPGGA,143815.78,4806.3732,N,00138.6216,W,1,10,1.2,42.1,M,48.5,M,,*41
{"class":"TPV","tag":"GGA","mode":3,"time":"2007-10-12T14:38:15.780Z","ept":0.005,"lat":48.106220000,"lon":-1.643693333,"alt":42.100,"epx":7.849,"epy":10.678,"epv":29.900,"track":266.5000,"speed":0.000,"eps":21.36}
$PFST,FOM,2*67
$GPGSA,A,3,05,06,07,10,16,21,23,24,30,31,,,1.7,1.2,1.3*32
$GPGSV,3,1,11,01,06,230,37,05,16,114,45,06,65,063,48,07,72,061,47*74
$GPGSV,3,2,11,10,09,057,40,16,35,295,49,21,44,152,52,23,12,316,50*75
$GPGSV,3,3,11,24,51,097,54,30,32,110,51,31,60,229,46*4D
{"class":"SKY","tag":"GSV","xdop":0.52,"ydop":0.71,"vdop":1.30,"tdop":0.63,"hdop":1.20,"gdop":1.54,"pdop":1.70,"satellites":[{"PRN":1,"el":6,"az":230,"ss":37,"used":false},{"PRN":5,"el":16,"az":114,"ss":45,"used":true},{"PRN":6,"el":65,"az":63,"ss":48,"used":true},{"PRN":7,"el":72,"az":61,"ss":47,"used":true},{"PRN":10,"el":9,"az":57,"ss":40,"used":true},{"PRN":16,"el":35,"az":295,"ss":49,"used":true},{"PRN":21,"el":44,"az":152,"ss":52,"used":true},{"PRN":23,"el":12,"az":316,"ss":50,"used":true},{"PRN":24,"el":51,"az":97,"ss":54,"used":true},{"PRN":30,"el":32,"az":110,"ss":51,"used":true},{"PRN":31,"el":60,"az":229,"ss":46,"used":true}]}
$GPRMC,143816.78,A,4806.3732,N,00138.6216,W,0.00,266.5,121007,2.6,W,A*03
$GPGGA,143816.78,4806.3732,N,00138.6216,W,1,10,1.2,42.1,M,48.5,M,,*42
{"class":"TPV","tag":"GGA","mode":3,"time":"2007-10-12T14:38:16.780Z","ept":0.005,"lat":48.106220000,"lon":-1.643693333,"alt":42.100,"epx":7.849,"epy":10.678,"epv":29.900,"track":266.5000,"speed":0.000,"eps":21.36}
$PFST,FOM,4*61
$GPGSA,A,3,01,05,06,07,10,16,21,23,24,30,,,1.7,1.2,1.3*31
$GPGSV,3,1,11,01,06,230,37,05,16,114,45,06,65,063,48,07,72,061,46*75
$GPGSV,3,2,11,10,09,057,40,16,35,295,48,21,44,152,53,23,12,316,52*77
$GPGSV,3,3,11,24,51,097,54,30,32,110,51,31,60,229,45*4E
{"class":"SKY","tag":"GSV","xdop":0.52,"ydop":0.71,"vdop":1.30,"tdop":0.63,"hdop":1.20,"gdop":1.54,"pdop":1.70,"satellites":[{"PRN":1,"el":6,"az":230,"ss":37,"used":true},{"PRN":5,"el":16,"az":114,"ss":45,"used":true},{"PRN":6,"el":65,"az":63,"ss":48,"used":true},{"PRN":7,"el":72,"az":61,"ss":46,"used":true},{"PRN":10,"el":9,"az":57,"ss":40,"used":true},{"PRN":16,"el":35,"az":295,"ss":48,"used":true},{"PRN":21,"el":44,"az":152,"ss":53,"used":true},{"PRN":23,"el":12,"az":316,"ss":52,"used":true},{"PRN":24,"el":51,"az":97,"ss":54,"used":true},{"PRN":30,"el":32,"az":110,"ss":51,"used":true},{"PRN":31,"el":60,"az":229,"ss":45,"used":false}]}
$GPRMC,143817.78,A,4806.3732,N,00138.6216,W,0.00,266.5,121007,2.6,W,A*02
$GPGGA,143817.78,4806.3732,N,00138.6216,W,1,11,0.8,42.1,M,48.5,M,,*49
{"class":"TPV","tag":"GGA","mode":3,"time":"2007-10-12T14:38:17.780Z","ept":0.005,"lat":48.106220000,"lon":-1.643693333,"alt":42.100,"epx":7.849,"epy":10.678,"epv":29.900,"track":266.5000,"speed":0.000,"eps":21.36}
$PFST,FOM,4*61
$GPGSA,A,3,01,05,06,07,10,16,21,23,24,30,31,,1.3,0.8,1.0*3F
$GPGSV,3,1,11,01,06,230,34,05,16,114,44,06,65,063,48,07,72,061,46*77
$GPGSV,3,2,11,10,09,057,39,16,35,295,48,21,44,152,53,23,12,316,51*7A
$GPGSV,3,3,11,24,51,097,54,30,32,110,50,31,60,229,44*4E
{"class":"SKY","tag":"GSV","xdop":0.52,"ydop":0.71,"vdop":1.00,"tdop":0.63,"hdop":0.80,"gdop":1.54,"pdop":1.30,"satellites":[{"PRN":1,"el":6,"az":230,"ss":34,"used":true},{"PRN":5,"el":16,"az":114,"ss":44,"used":true},{"PRN":6,"el":65,"az":63,"ss":48,"used":true},{"PRN":7,"el":72,"az":61,"ss":46,"used":true},{"PRN":10,"el":9,"az":57,"ss":39,"used":true},{"PRN":16,"el":35,"az":295,"ss":48,"used":true},{"PRN":21,"el":44,"az":152,"ss":53,"used":true},{"PRN":23,"el":12,"az":316,"ss":51,"used":true},{"PRN":24,"el":51,"az":97,"ss":54,"used":true},{"PRN":30,"el":32,"az":110,"ss":50,"used":true},{"PRN":31,"el":60,"az":229,"ss":44,"used":true}]}
$GPRMC,143818.78,A,4806.3728,N,00138.6239,W,1.56,266.1,121007,2.6,W,A*0D
$GPGGA,143818.78,4806.3728,N,00138.6239,W,1,10,1.3,41.5,M,48.5,M,,*4C
{"class":"TPV","tag":"GGA","mode":3,"time":"2007-10-12T14:38:18.780Z","ept":0.005,"lat":48.106213333,"lon":-1.643731667,"alt":41.500,"epx":7.849,"epy":10.678,"epv":23.000,"track":266.1000,"speed":0.803,"eps":21.36}
$PFST,FOM,5*60
$GPGSA,A,3,05,06,07,10,16,21,23,24,30,31,,,1.9,1.3,1.3*3D
$GPGSV,3,1,11,01,06,230,34,05,16,114,44,06,65,063,48,07,72,061,46*77
$GPGSV,3,2,11,10,09,057,42,16,35,295,47,21,44,152,52,23,12,316,51*78
$GPGSV,3,3,11,24,51,097,54,30,32,110,51,31,60,229,46*4D
{"class":"SKY","tag":"GSV","xdop":0.52,"ydop":0.71,"vdop":1.30,"tdop":0.63,"hdop":1.30,"gdop":1.54,"pdop":1.90,"satellites":[{"PRN":1,"el":6,"az":230,"ss":34,"used":false},{"PRN":5,"el":16,"az":114,"ss":44,"used":true},{"PRN":6,"el":65,"az":63,"ss":48,"used":true},{"PRN":7,"el":72,"az":61,"ss":46,"used":true},{"PRN":10,"el":9,"az":57,"ss":42,"used":true},{"PRN":16,"el":35,"az":295,"ss":47,"used":true},{"PRN":21,"el":44,"az":152,"ss":52,"used":true},{"PRN":23,"el":12,"az":316,"ss":51,"used":true},{"PRN":24,"el":51,"az":97,"ss":54,"used":true},{"PRN":30,"el":32,"az":110,"ss":51,"used":true},{"PRN":31,"el":60,"az":229,"ss":46,"used":true}]}
$GPRMC,143819.79,A,4806.3729,N,00138.6247,W,0.00,266.1,121007,2.6,W,A*07
$GPGGA,143819.79,4806.3729,N,00138.6247,W,1,10,1.1,41.4,M,48.5,M,,*47
{"class":"TPV","tag":"GGA","mode":3,"time":"2007-10-12T14:38:19.790Z","ept":0.005,"lat":48.106215000,"lon":-1.643745000,"alt":41.400,"epx":7.849,"epy":10.678,"epv":29.900,"track":266.1000,"speed":0.000,"eps":21.14}
$PFST,FOM,5*60
$GPGSA,A,3,05,06,07,10,16,21,23,24,30,31,,,1.7,1.1,1.2*30
$GPGSV,3,1,11,01,06,230,00,05,16,114,44,06,65,063,48,07,72,061,46*70
$GPGSV,3,2,11,10,09,057,39,16,35,295,49,21,44,152,52,23,12,316,51*7A
$GPGSV,3,3,11,24,51,097,54,30,32,110,52,31,60,229,48*40
{"class":"SKY","tag":"GSV","xdop":0.52,"ydop":0.71,"vdop":1.20,"tdop":0.63,"hdop":1.10,"gdop":1.54,"pdop":1.70,"satellites":[{"PRN":1,"el":6,"az":230,"ss":0,"used":false},{"PRN":5,"el":16,"az":114,"ss":44,"used":true},{"PRN":6,"el":65,"az":63,"ss":48,"used":true},{"PRN":7,"el":72,"az":61,"ss":46,"used":true},{"PRN":10,"el":9,"az":57,"ss":39,"used":true},{"PRN":16,"el":35,"az":295,"ss":49,"used":true},{"PRN":21,"el":44,"az":152,"ss":52,"used":true},{"PRN":23,"el":12,"az":316,"ss":51,"used":true},{"PRN":24,"el":51,"az":97,"ss":54,"used":true},{"PRN":30,"el":32,"az":110,"ss":52,"used":true},{"PRN":31,"el":60,"az":229,"ss":48,"used":true}]}
$GPRMC,143820.79,A,4806.3730,N,00138.6251,W,0.00,266.1,121007,2.6,W,A*02
$GPGGA,143820.79,4806.3730,N,00138.6251,W,1,10,1.2,41.4,M,48.5,M,,*41
{"class":"TPV","tag":"GGA","mode":3,"time":"2007-10-12T14:38:20.790Z","ept":0.005,"lat":48.106216667,"lon":-1.643751667,"alt":41.400,"epx":7.849,"epy":10.678,"epv":27.600,"track":266.1000,"speed":0.000,"eps":21.36}
$PFST,FOM,4*61
$GPGSA,A,3,05,06,07,10,16,21,23,24,30,31,,,1.9,1.2,1.5*3A
$GPGSV,3,1,11,01,06,230,20,05,16,114,44,06,65,063,48,07,72,061,45*71
$GPGSV,3,2,11,10,09,057,40,16,35,295,50,21,44,152,53,23,12,316,51*7D
$GPGSV,3,3,11,24,51,097,54,30,32,110,52,31,60,229,47*4F
{"class":"SKY","tag":"GSV","xdop":0.52,"ydop":0.71,"vdop":1.50,"tdop":0.63,"hdop":1.20,"gdop":1.54,"pdop":1.90,"satellites":[{"PRN":1,"el":6,"az":230,"ss":20,"used":false},{"PRN":5,"el":16,"az":114,"ss":44,"used":true},{"PRN":6,"el":65,"az":63,"ss":48,"used":true},{"PRN":7,"el":72,"az":61,"ss":45,"used":true},{"PRN":10,"el":9,"az":57,"ss":40,"used":true},{"PRN":16,"el":35,"az":295,"ss":50,"used":true},{"PRN":21,"el":44,"az":152,"ss":53,"used":true},{"PRN":23,"el":12,"az":316,"ss":51,"used":true},{"PRN":24,"el":51,"az":97,"ss":54,"used":true},{"PRN":30,"el":32,"az":110,"ss":52,"used":true},{"PRN":31,"el":60,"az":229,"ss":47,"used":true}]}
$GPRMC,143821.79,A,4806.3732,N,00138.6265,W,2.31,266.8,121007,2.6,W,A*0F
$GPGGA,143821.79,4806.3732,N,00138.6265,W,1,10,1.2,41.4,M,48.5,M,,*45
{"class":"TPV","tag":"GGA","mode":3,"time":"2007-10-12T14:38:21.790Z","ept":0.005,"lat":48.106220000,"lon":-1.643775000,"alt":41.400,"epx":7.849,"epy":10.678,"epv":34.500,"track":266.8000,"speed":1.188,"eps":21.36}
$PFST,FOM,4*61
$GPGSA,A,3,05,06,07,10,16,21,23,24,30,31,,,1.9,1.2,1.5*3A
$GPGSV,3,1,11,01,06,230,34,05,16,114,45,06,65,063,48,07,72,061,46*76
$GPGSV,3,2,11,10,09,057,40,16,35,295,50,21,44,152,53,23,12,316,51*7D
$GPGSV,3,3,11,24,51,097,54,30,32,110,52,31,60,229,46*4E
{"class":"SKY","tag":"GSV","xdop":0.52,"ydop":0.71,"vdop":1.50,"tdop":0.63,"hdop":1.20,"gdop":1.54,"pdop":1.90,"satellites":[{"PRN":1,"el":6,"az":230,"ss":34,"used":false},{"PRN":5,"el":16,"az":114,"ss":45,"used":true},{"PRN":6,"el":65,"az":63,"ss":48,"used":true},{"PRN":7,"el":72,"az":61,"ss":46,"used":true},{"PRN":10,"el":9,"az":57,"ss":40,"used":true},{"PRN":16,"el":35,"az":295,"ss":50,"used":true},{"PRN":21,"el":44,"az":152,"ss":53,"used":true},{"PRN":23,"el":12,"az":316,"ss":51,"used":true},{"PRN":24,"el":51,"az":97,"ss":54,"used":true},{"PRN":30,"el":32,"az":110,"ss":52,"used":true},{"PRN":31,"el":60,"az":229,"ss":46,"used":true}]}
$GPRMC,143822.79,A,4806.3731,N,00138.6276,W,2.58,266.3,121007,2.6,W,A*09
$GPGGA,143822.79,4806.3731,N,00138.6276,W,1,10,1.2,41.4,M,48.5,M,,*47
{"class":"TPV","tag":"GGA","mode":3,"time":"2007-10-12T14:38:22.790Z","ept":0.005,"lat":48.106218333,"lon":-1.643793333,"alt":41.400,"epx":7.849,"epy":10.678,"epv":34.500,"track":266.3000,"speed":1.327,"eps":21.36}
$PFST,FOM,2*67
$GPGSA,A,3,05,06,07,10,16,21,23,24,30,31,,,1.7,1.2,1.3*32
$GPGSV,3,2,11,10,09,057,39,16,35,295,50,21,44,152,53,23,12,316,51*73
$GPGSV,3,3,11,24,51,097,54,30,32,110,52,31,60,229,45*4D
{"class":"SKY","tag":"GSV","xdop":0.52,"ydop":0.71,"vdop":1.30,"tdop":0.63,"hdop":1.20,"gdop":1.54,"pdop":1.70,"satellites":[{"PRN":1,"el":6,"az":230,"ss":34,"used":false},{"PRN":5,"el":16,"az":114,"ss":45,"used":true},{"PRN":6,"el":65,"az":63,"ss":48,"used":true},{"PRN":7,"el":72,"az":61,"ss":46,"used":true},{"PRN":10,"el":9,"az":57,"ss":40,"used":true},{"PRN":16,"el":35,"az":295,"ss":50,"used":true},{"PRN":21,"el":44,"az":152,"ss":53,"used":true},{"PRN":23,"el":12,"az":316,"ss":51,"used":true},{"PRN":24,"el":51,"az":97,"ss":54,"used":true},{"PRN":30,"el":32,"az":110,"ss":52,"used":true},{"PRN":31,"el":60,"az":229,"ss":46,"used":true},{"PRN":10,"el":9,"az":57,"ss":39,"used":true},{"PRN":16,"el":35,"az":295,"ss":50,"used":true},{"PRN":21,"el":44,"az":152,"ss":53,"used":true},{"PRN":23,"el":12,"az":316,"ss":51,"used":true},{"PRN":24,"el":51,"az":97,"ss":54,"used":true},{"PRN":30,"el":32,"az":110,"ss":52,"used":true},{"PRN":31,"el":60,"az":229,"ss":45,"used":true}]}
$GPRMC,143823.79,A,4806.3728,N,00138.6293,W,2.82,266.9,121007,2.6,W,A*06
$GPGGA,143823.79,4806.3728,N,00138.6293,W,1,10,1.1,41.4,M,48.5,M,,*46
{"class":"TPV","tag":"GGA","mode":3,"time":"2007-10-12T14:38:23.790Z","ept":0.005,"lat":48.106213333,"lon":-1.643821667,"alt":41.400,"epx":7.849,"epy":10.678,"epv":29.900,"track":266.9000,"speed":1.451,"eps":21.36}
$PFST,FOM,3*66
$GPGSA,A,3,05,06,07,10,16,21,23,24,30,31,,,1.7,1.1,1.2*30
$GPGSV,3,1,11,01,06,230,17,05,16,114,45,06,65,063,49,07,72,061,47*77
$GPGSV,3,2,11,10,09,057,42,16,35,295,49,21,44,152,52,23,12,316,51*76
$GPGSV,3,3,11,24,51,097,54,30,32,110,52,31,60,229,46*4E
{"class":"SKY","tag":"GSV","xdop":0.52,"ydop":0.71,"vdop":1.20,"tdop":0.63,"hdop":1.10,"gdop":1.54,"pdop":1.70,"satellites":[{"PRN":1,"el":6,"az":230,"ss":17,"used":false},{"PRN":5,"el":16,"az":114,"ss":45,"used":true},{"PRN":6,"el":65,"az":63,"ss":49,"used":true},{"PRN":7,"el":72,"az":61,"ss":47,"used":true},{"PRN":10,"el":9,"az":57,"ss":42,"used":true},{"PRN":16,"el":35,"az":295,"ss":49,"used":true},{"PRN":21,"el":44,"az":152,"ss":52,"used":true},{"PRN":23,"el":12,"az":316,"ss":51,"used":true},{"PRN":24,"el":51,"az":97,"ss":54,"used":true},{"PRN":30,"el":32,"az":110,"ss":52,"used":true},{"PRN":31,"el":60,"az":229,"ss":46,"used":true}]}
$GPRMC,143824.79,A,4806.3727,N,00138.6306,W,3.10,266.8,121007,2.6,W,A*08
$GPGGA,143824.79,4806.3727,N,00138.6306,W,1,10,1.1,41.4,M,48.5,M,,*43
{"class":"TPV","tag":"GGA","mode":3,"time":"2007-10-12T14:38:24.790Z","ept":0.005,"lat":48.106211667,"lon":-1.643843333,"alt":41.400,"epx":7.849,"epy":10.678,"epv":27.600,"track":266.8000,"speed":1.595,"eps":21.36}
$PFST,FOM,4*61
$GPGSA,A,3,05,06,07,10,16,21,23,24,30,31,,,1.7,1.1,1.2*30
$GPGSV,3,1,11,01,06,230,34,05,16,114,44,06,65,063,49,07,72,061,46*76
$GPGSV,3,2,11,10,09,057,42,16,35,295,50,21,44,152,52,23,12,316,50*7F
$GPGSV,3,3,11,24,51,097,55,30,32,110,51,31,60,229,47*4D
{"class":"SKY","tag":"GSV","xdop":0.52,"ydop":0.71,"vdop":1.20,"tdop":0.63,"hdop":1.10,"gdop":1.54,"pdop":1.70,"satellites":[{"PRN":1,"el":6,"az":230,"ss":34,"used":false},{"PRN":5,"el":16,"az":114,"ss":44,"used":true},{"PRN":6,"el":65,"az":63,"ss":49,"used":true},{"PRN":7,"el":72,"az":61,"ss":46,"used":true},{"PRN":10,"el":9,"az":57,"ss":42,"used":true},{"PRN":16,"el":35,"az":295,"ss":50,"used":true},{"PRN":21,"el":44,"az":152,"ss":52,"used":true},{"PRN":23,"el":12,"az":316,"ss":50,"used":true},{"PRN":24,"el":51,"az":97,"ss":55,"used":true},{"PRN":30,"el":32,"az":110,"ss":51,"used":true},{"PRN":31,"el":60,"az":229,"ss":47,"used":true}]}
$GPRMC,143825.79,A,4806.3725,N,00138.6321,W,3.34,267.0,121007,2.6,W,A*01
$GPGGA,143825.79,4806.3725,N,00138.6321,W,1,10,0.9,41.4,M,48.5,M,,*4C
{"class":"TPV","tag":"GGA","mode":3,"time":"2007-10-12T14:38:25.790Z","ept":0.005,"lat":48.106208333,"lon":-1.643868333,"alt":41.400,"epx":7.849,"epy":10.678,"epv":27.600,"track":267.0000,"speed":1.718,"eps":21.36}
$PFST,FOM,4*61
$GPGSA,A,3,01,06,07,10,16,21,23,24,30,31,,,1.4,0.9,1.1*3D
$GPGSV,3,1,11,01,06,230,35,05,16,114,45,06,65,063,48,07,72,061,48*79
$GPGSV,3,2,11,10,09,057,43,16,35,295,48,21,44,152,52,23,12,316,51*76
$GPGSV,3,3,11,24,51,097,55,30,32,110,53,31,60,229,46*4E
{"class":"SKY","tag":"GSV","xdop":0.52,"ydop":0.71,"vdop":1.10,"tdop":0.63,"hdop":0.90,"gdop":1.54,"pdop":1.40,"satellites":[{"PRN":1,"el":6,"az":230,"ss":35,"used":true},{"PRN":5,"el":16,"az":114,"ss":45,"used":false},{"PRN":6,"el":65,"az":63,"ss":48,"used":true},{"PRN":7,"el":72,"az":61,"ss":48,"used":true},{"PRN":10,"el":9,"az":57,"ss":43,"used":true},{"PRN":16,"el":35,"az":295,"ss":48,"used":true},{"PRN":21,"el":44,"az":152,"ss":52,"used":true},{"PRN":23,"el":12,"az":316,"ss":51,"used":true},{"PRN":24,"el":51,"az":97,"ss":55,"used":true},{"PRN":30,"el":32,"az":110,"ss":53,"used":true},{"PRN":31,"el":60,"az":229,"ss":46,"used":true}]}
$GPRMC,143826.79,A,4806.3724,N,00138.6335,W,3.61,266.8,121007,2.6,W,A*0F
$GPGGA,143826.79,4806.3724,N,00138.6335,W,1,10,1.1,41.4,M,48.5,M,,*42
{"class":"TPV","tag":"GGA","mode":3,"time":"2007-10-12T14:38:26.790Z","ept":0.005,"lat":48.106206667,"lon":-1.643891667,"alt":41.400,"epx":7.849,"epy":10.678,"epv":25.300,"track":266.8000,"speed":1.857,"eps":21.36}
$PFST,FOM,3*66
$GPGSA,A,3,05,06,07,10,16,21,23,24,30,31,,,1.7,1.1,1.2*30
$GPGSV,3,1,11,01,06,230,38,05,16,114,46,06,65,063,49,07,72,061,47*79
$GPGSV,3,2,11,10,09,057,42,16,35,295,49,21,44,152,53,23,12,316,50*76
$GPGSV,3,3,11,24,51,097,55,30,32,110,52,31,60,229,46*4F
{"class":"SKY","tag":"GSV","xdop":0.52,"ydop":0.71,"vdop":1.20,"tdop":0.63,"hdop":1.10,"gdop":1.54,"pdop":1.70,"satellites":[{"PRN":1,"el":6,"az":230,"ss":38,"used":false},{"PRN":5,"el":16,"az":114,"ss":46,"used":true},{"PRN":6,"el":65,"az":63,"ss":49,"used":true},{"PRN":7,"el":72,"az":61,"ss":47,"used":true},{"PRN":10,"el":9,"az":57,"ss":42,"used":true},{"PRN":16,"el":35,"az":295,"ss":49,"used":true},{"PRN":21,"el":44,"az":152,"ss":53,"used":true},{"PRN":23,"el":12,"az":316,"ss":50,"used":true},{"PRN":24,"el":51,"az":97,"ss":55,"used":true},{"PRN":30,"el":32,"az":110,"ss":52,"used":true},{"PRN":31,"el":60,"az":229,"ss":46,"used":true}]}
$GPRMC,143827.79,A,4806.3724,N,00138.6352,W,3.85,267.0,121007,2.6,W,A*0C
$GPGGA,143827.79,4806.3724,N,00138.6352,W,1,10,1.1,41.4,M,48.5,M,,*42
{"class":"TPV","tag":"GGA","mode":3,"time":"2007-10-12T14:38:27.790Z","ept":0.005,"lat":48.106206667,"lon":-1.643920000,"alt":41.400,"epx":7.849,"epy":10.678,"epv":27.600,"track":267.0000,"speed":1.981,"eps":21.36}
$PFST,FOM,4*61
$GPGSA,A,3,05,06,07,10,16,21,23,24,30,31,,,1.7,1.1,1.2*30
$GPGSV,3,1,11,01,06,230,37,05,16,114,46,06,65,063,49,07,72,061,46*77
$GPGSV,3,2,11,10,09,057,43,16,35,295,49,21,44,152,52,23,12,316,49*7E
$GPGSV,3,3,11,24,51,097,55,30,32,110,52,31,60,229,47*4E
{"class":"SKY","tag":"GSV","xdop":0.52,"ydop":0.71,"vdop":1.20,"tdop":0.63,"hdop":1.10,"gdop":1.54,"pdop":1.70,"satellites":[{"PRN":1,"el":6,"az":230,"ss":37,"used":false},{"PRN":5,"el":16,"az":114,"ss":46,"used":true},{"PRN":6,"el":65,"az":63,"ss":49,"used":true},{"PRN":7,"el":72,"az":61,"ss":46,"used":true},{"PRN":10,"el":9,"az":57,"ss":43,"used":true},{"PRN":16,"el":35,"az":295,"ss":49,"used":true},{"PRN":21,"el":44,"az":152,"ss":52,"used":true},{"PRN":23,"el":12,"az":316,"ss":49,"used":true},{"PRN":24,"el":51,"az":97,"ss":55,"used":true},{"PRN":30,"el":32,"az":110,"ss":52,"used":true},{"PRN":31,"el":60,"az":229,"ss":47,"used":true}]}
$GPRMC,143828.79,A,4806.3725,N,00138.6368,W,4.12,266.8,121007,2.6,W,A*0B
$GPGGA,143828.79,4806.3725,N,00138.6368,W,1,11,0.8,41.4,M,48.5,M,,*4C
{"class":"TPV","tag":"GGA","mode":3,"time":"2007-10-12T14:38:28.790Z","ept":0.005,"lat":48.106208333,"lon":-1.643946667,"alt":41.400,"epx":7.849,"epy":10.678,"epv":27.600,"track":266.8000,"speed":2.120,"eps":21.36}
$PFST,FOM,4*61
$GPGSA,A,3,01,05,06,07,10,16,21,23,24,30,31,,1.3,0.8,1.0*3F
$GPGSV,3,1,11,01,06,230,36,05,16,114,46,06,65,063,49,07,72,061,48*78
$GPGSV,3,2,11,10,09,057,42,16,35,295,49,21,44,152,51,23,12,316,49*7C
$GPGSV,3,3,11,24,51,097,55,30,32,110,53,31,60,229,47*4F
{"class":"SKY","tag":"GSV","xdop":0.52,"ydop":0.71,"vdop":1.00,"tdop":0.63,"hdop":0.80,"gdop":1.54,"pdop":1.30,"satellites":[{"PRN":1,"el":6,"az":230,"ss":36,"used":true},{"PRN":5,"el":16,"az":114,"ss":46,"used":true},{"PRN":6,"el":65,"az":63,"ss":49,"used":true},{"PRN":7,"el":72,"az":61,"ss":48,"used":true},{"PRN":10,"el":9,"az":57,"ss":42,"used":true},{"PRN":16,"el":35,"az":295,"ss":49,"used":true},{"PRN":21,"el":44,"az":152,"ss":51,"used":true},{"PRN":23,"el":12,"az":316,"ss":49,"used":true},{"PRN":24,"el":51,"az":97,"ss":55,"used":true},{"PRN":30,"el":32,"az":110,"ss":53,"used":true},{"PRN":31,"el":60,"az":229,"ss":47,"used":true}]}
$GPRMC,143829.79,A,4806.3724,N,00138.6386,W,4.39,266.7,121007,2.6,W,A*0D
$GPGGA,143829.79,4806.3724,N,00138.6386,W,1,10,1.1,41.4,M,48.5,M,,*45
{"class":"TPV","tag":"GGA","mode":3,"time":"2007-10-12T14:38:29.790Z","ept":0.005,"lat":48.106206667,"lon":-1.643976667,"alt":41.400,"epx":7.849,"epy":10.678,"epv":23.000,"track":266.7000,"speed":2.258,"eps":21.36}
$PFST,FOM,2*67
$GPGSA,A,3,05,06,07,10,16,21,23,24,30,31,,,1.7,1.1,1.2*30
$GPGSV,3,1,11,01,06,230,35,05,16,114,45,06,65,063,49,07,72,061,47*77
$GPGSV,3,2,11,10,09,057,40,16,35,295,48,21,44,152,52,23,12,316,50*74
$GPGSV,3,3,11,24,51,097,54,30,32,110,51,31,60,229,47*4C
{"class":"SKY","tag":"GSV","xdop":0.52,"ydop":0.71,"vdop":1.20,"tdop":0.63,"hdop":1.10,"gdop":1.54,"pdop":1.70,"satellites":[{"PRN":1,"el":6,"az":230,"ss":35,"used":false},{"PRN":5,"el":16,"az":114,"ss":45,"used":true},{"PRN":6,"el":65,"az":63,"ss":49,"used":true},{"PRN":7,"el":72,"az":61,"ss":47,"used":true},{"PRN":10,"el":9,"az":57,"ss":40,"used":true},{"PRN":16,"el":35,"az":295,"ss":48,"used":true},{"PRN":21,"el":44,"az":152,"ss":52,"used":true},{"PRN":23,"el":12,"az":316,"ss":50,"used":true},{"PRN":24,"el":51,"az":97,"ss":54,"used":true},{"PRN":30,"el":32,"az":110,"ss":51,"used":true},{"PRN":31,"el":60,"az":229,"ss":47,"used":true}]}
$GPRMC,143830.79,A,4806.3723,N,00138.6405,W,4.66,266.3,121007,2.6,W,A*00
$GPGGA,143830.79,4806.3723,N,00138.6405,W,1,10,1.1,41.4,M,48.5,M,,*46
{"class":"TPV","tag":"GGA","mode":3,"time":"2007-10-12T14:38:30.790Z","ept":0.005,"lat":48.106205000,"lon":-1.644008333,"alt":41.400,"epx":7.849,"epy":10.678,"epv":27.600,"track":266.3000,"speed":2.397,"eps":21.36}
$PFST,FOM,3*66
$GPGSA,A,3,05,06,07,10,16,21,23,24,30,31,,,1.7,1.1,1.2*30
$GPGSV,3,1,11,01,06,230,37,05,16,114,45,06,65,063,48,07,72,061,48*7B
$GPGSV,3,2,11,10,09,057,41,16,35,295,47,21,44,152,53,23,12,316,46*7C
$GPGSV,3,3,11,24,51,097,55,30,32,110,51,31,60,229,47*4D
{"class":"SKY","tag":"GSV","xdop":0.52,"ydop":0.71,"vdop":1.20,"tdop":0.63,"hdop":1.10,"gdop":1.54,"pdop":1.70,"satellites":[{"PRN":1,"el":6,"az":230,"ss":37,"used":false},{"PRN":5,"el":16,"az":114,"ss":45,"used":true},{"PRN":6,"el":65,"az":63,"ss":48,"used":true},{"PRN":7,"el":72,"az":61,"ss":48,"used":true},{"PRN":10,"el":9,"az":57,"ss":41,"used":true},{"PRN":16,"el":35,"az":295,"ss":47,"used":true},{"PRN":21,"el":44,"az":152,"ss":53,"used":true},{"PRN":23,"el":12,"az":316,"ss":46,"used":true},{"PRN":24,"el":51,"az":97,"ss":55,"used":true},{"PRN":30,"el":32,"az":110,"ss":51,"used":true},{"PRN":31,"el":60,"az":229,"ss":47,"used":true}]}
$GPRMC,143831.79,A,4806.3723,N,00138.6424,W,4.91,266.5,121007,2.6,W,A*0C
$GPGGA,143831.79,4806.3723,N,00138.6424,W,1,10,1.3,41.4,M,48.5,M,,*46
{"class":"TPV","tag":"GGA","mode":3,"time":"2007-10-12T14:38:31.790Z","ept":0.005,"lat":48.106205000,"lon":-1.644040000,"alt":41.400,"epx":7.849,"epy":10.678,"epv":27.600,"track":266.5000,"speed":2.526,"eps":21.36}
$PFST,FOM,7*62
$GPGSA,A,3,01,05,06,07,16,21,23,24,30,31,,,1.9,1.3,1.4*3A
$GPGSV,3,1,11,01,06,230,38,05,16,114,45,06,65,063,48,07,72,061,47*7B
$GPGSV,3,2,11,10,09,057,38,16,35,295,46,21,44,152,53,23,12,316,43*76
$GPGSV,3,3,11,24,51,097,55,30,32,110,51,31,60,229,47*4D
{"class":"SKY","tag":"GSV","xdop":0.52,"ydop":0.71,"vdop":1.40,"tdop":0.63,"hdop":1.30,"gdop":1.54,"pdop":1.90,"satellites":[{"PRN":1,"el":6,"az":230,"ss":38,"used":true},{"PRN":5,"el":16,"az":114,"ss":45,"used":true},{"PRN":6,"el":65,"az":63,"ss":48,"used":true},{"PRN":7,"el":72,"az":61,"ss":47,"used":true},{"PRN":10,"el":9,"az":57,"ss":38,"used":false},{"PRN":16,"el":35,"az":295,"ss":46,"used":true},{"PRN":21,"el":44,"az":152,"ss":53,"used":true},{"PRN":23,"el":12,"az":316,"ss":43,"used":true},{"PRN":24,"el":51,"az":97,"ss":55,"used":true},{"PRN":30,"el":32,"az":110,"ss":51,"used":true},{"PRN":31,"el":60,"az":229,"ss":47,"used":true}]}
$GPRMC,143832.79,A,4806.3723,N,00138.6444,W,5.05,266.3,121007,2.6,W,A*03
$GPGGA,143832.79,4806.3723,N,00138.6444,W,1,10,1.4,41.4,M,48.5,M,,*44
{"class":"TPV","tag":"GGA","mode":3,"time":"2007-10-12T14:38:32.790Z","ept":0.005,"lat":48.106205000,"lon":-1.644073333,"alt":41.400,"epx":7.849,"epy":10.678,"epv":32.200,"track":266.3000,"speed":2.598,"eps":21.36}
$PFST,FOM,3*66
$GPGSA,A,3,05,06,07,10,16,21,23,24,30,31,,,2.0,1.4,1.4*37
$GPGSV,3,1,11,01,06,230,37,05,16,114,44,06,65,063,48,07,72,061,48*7A
$GPGSV,3,2,11,10,09,057,37,16,35,295,47,21,44,152,53,23,12,316,44*7F
$GPGSV,3,3,11,24,51,097,55,30,32,110,52,31,60,229,47*4E
{"class":"SKY","tag":"GSV","xdop":0.52,"ydop":0.71,"vdop":1.40,"tdop":0.63,"hdop":1.40,"gdop":1.54,"pdop":2.00,"satellites":[{"PRN":1,"el":6,"az":230,"ss":37,"used":false},{"PRN":5,"el":16,"az":114,"ss":44,"used":true},{"PRN":6,"el":65,"az":63,"ss":48,"used":true},{"PRN":7,"el":72,"az":61,"ss":48,"used":true},{"PRN":10,"el":9,"az":57,"ss":37,"used":true},{"PRN":16,"el":35,"az":295,"ss":47,"used":true},{"PRN":21,"el":44,"az":152,"ss":53,"used":true},{"PRN":23,"el":12,"az":316,"ss":44,"used":true},{"PRN":24,"el":51,"az":97,"ss":55,"used":true},{"PRN":30,"el":32,"az":110,"ss":52,"used":true},{"PRN":31,"el":60,"az":229,"ss":47,"used":true}]}
$GPRMC,143833.79,A,4806.3721,N,00138.6464,W,5.13,265.8,121007,2.6,W,A*0D
$GPGGA,143833.79,4806.3721,N,00138.6464,W,1,09,1.3,41.4,M,48.5,M,,*4A
{"class":"TPV","tag":"GGA","mode":3,"time":"2007-10-12T14:38:33.790Z","ept":0.005,"lat":48.106201667,"lon":-1.644106667,"alt":41.400,"epx":7.849,"epy":10.678,"epv":32.200,"track":265.8000,"speed":2.639,"eps":21.36}
$PFST,FOM,3*66
$GPGSA,A,3,05,06,07,16,21,23,24,30,31,,,,1.9,1.3,1.3*3C
$GPGSV,3,1,11,01,06,230,38,05,16,114,43,06,65,063,48,07,72,061,48*72
$GPGSV,3,2,11,10,09,057,38,16,35,295,48,21,44,152,52,23,12,316,46*7C
$GPGSV,3,3,11,24,51,097,55,30,32,110,52,31,60,229,47*4E
{"class":"SKY","tag":"GSV","xdop":0.52,"ydop":0.71,"vdop":1.30,"tdop":0.63,"hdop":1.30,"gdop":1.54,"pdop":1.90,"satellites":[{"PRN":1,"el":6,"az":230,"ss":38,"used":false},{"PRN":5,"el":16,"az":114,"ss":43,"used":true},{"PRN":6,"el":65,"az":63,"ss":48,"used":true},{"PRN":7,"el":72,"az":61,"ss":48,"used":true},{"PRN":10,"el":9,"az":57,"ss":38,"used":false},{"PRN":16,"el":35,"az":295,"ss":48,"used":true},{"PRN":21,"el":44,"az":152,"ss":52,"used":true},{"PRN":23,"el":12,"az":316,"ss":46,"used":true},{"PRN":24,"el":51,"az":97,"ss":55,"used":true},{"PRN":30,"el":32,"az":110,"ss":52,"used":true},{"PRN":31,"el":60,"az":229,"ss":47,"used":true}]}
$GPRMC,143834.80,A,4806.3719,N,00138.6484,W,5.21,266.1,121007,2.6,W,A*02
$GPGGA,143834.80,4806.3719,N,00138.6484,W,1,09,1.5,41.3,M,48.5,M,,*4F
{"class":"TPV","tag":"GGA","mode":3,"time":"2007-10-12T14:38:34.800Z","ept":0.005,"lat":48.106198333,"lon":-1.644140000,"alt":41.300,"epx":7.849,"epy":10.678,"epv":29.900,"track":266.1000,"speed":2.680,"eps":21.14}
$PFST,FOM,3*66
$GPGSA,A,3,05,06,07,16,21,23,24,30,31,,,,2.3,1.5,1.8*38
$GPGSV,3,1,11,01,06,230,36,05,16,114,44,06,65,063,48,07,72,061,48*7B
