$GPZDA,153347.000,23,04,2010,,*57
$GPGGA,153347.000,3940.6986,N,07544.9356,W,1,09,1.3,75.2,M,-33.8,M,,0000*53
{"class":"TPV","tag":"GGA","mode":3,"time":"2010-04-23T15:33:47.000Z","ept":0.005,"lat":39.678310000,"lon":-75.748926667,"alt":75.200}
$GPGSA,A,3,26,15,21,27,24,09,18,05,29,,,,1.9,1.3,1.4*33
{"class":"TPV","tag":"GSA","mode":3,"time":"2010-04-23T15:33:47.000Z","ept":0.005,"lat":39.678310000,"lon":-75.748926667,"alt":75.200,"epv":32.200,"speed":0.000,"climb":0.000}
$GPRMC,153347.000,A,3940.6986,N,07544.9356,W,0.12,87.21,230410,,*29
{"class":"TPV","tag":"RMC","mode":3,"time":"2010-04-23T15:33:47.000Z","ept":0.005,"lat":39.678310000,"lon":-75.748926667,"alt":75.200,"epv":32.200,"track":87.2100,"speed":0.062,"climb":0.000}
$GPVTG,87.21,T,,M,0.12,N,0.2,K*5D
$GPZDA,153348.000,23,04,2010,,*58
$GPGGA,153348.000,3940.6986,N,07544.9356,W,1,09,1.3,75.0,M,-33.8,M,,0000*5E
$GPGSA,A,3,26,15,21,27,24,09,18,05,29,,,,1.9,1.3,1.4*33
$GPRMC,153348.000,A,3940.6986,N,07544.9356,W,0.12,82.56,230410,,*23
{"class":"TPV","tag":"RMC","mode":3,"time":"2010-04-23T15:33:48.000Z","ept":0.005,"lat":39.678310000,"lon":-75.748926667,"alt":75.000,"epv":32.200,"track":82.5600,"speed":0.062,"climb":0.000}
$GPVTG,82.56,T,,M,0.12,N,0.2,K*58
$GPZDA,153349.000,23,04,2010,,*59
$GPGGA,153349.000,3940.6986,N,07544.9357,W,1,09,1.3,74.6,M,-33.8,M,,0000*59
$GPGSA,A,3,26,15,21,27,24,09,18,05,29,,,,1.9,1.3,1.4*33
$GPRMC,153349.000,A,3940.6986,N,07544.9357,W,0.09,115.18,230410,,*1C
{"class":"TPV","tag":"RMC","mode":3,"time":"2010-04-23T15:33:49.000Z","ept":0.005,"lat":39.678310000,"lon":-75.748928333,"alt":74.600,"epv":32.200,"track":115.1800,"speed":0.046,"climb":0.000}
$GPVTG,115.18,T,,M,0.09,N,0.2,K*67
$GPZDA,153350.000,23,04,2010,,*51
$GPGGA,153350.000,3940.6986,N,07544.9357,W,1,09,1.3,74.4,M,-33.8,M,,0000*53
$GPGSA,A,3,26,15,21,27,24,09,18,05,29,,,,1.9,1.3,1.4*33
$GPGSV,3,1,12,26,82,270,40,21,73,256,40,24,66,289,38,18,58,312,45*7E
$GPGSV,3,2,12,27,51,116,44,15,47,048,40,09,46,136,40,22,26,291,22*76
$GPGSV,3,3,12,06,13,303,28,03,06,312,,29,06,199,20,05,05,096,25*77
{"class":"SKY","tag":"GSV","xdop":0.82,"ydop":1.32,"vdop":1.40,"tdop":1.30,"hdop":1.30,"gdop":2.59,"pdop":1.90,"satellites":[{"PRN":26,"el":82,"az":270,"ss":40,"used":true},{"PRN":21,"el":73,"az":256,"ss":40,"used":true},{"PRN":24,"el":66,"az":289,"ss":38,"used":true},{"PRN":18,"el":58,"az":312,"ss":45,"used":true},{"PRN":27,"el":51,"az":116,"ss":44,"used":true},{"PRN":15,"el":47,"az":48,"ss":40,"used":true},{"PRN":9,"el":46,"az":136,"ss":40,"used":true},{"PRN":22,"el":26,"az":291,"ss":22,"used":false},{"PRN":6,"el":13,"az":303,"ss":28,"used":false},{"PRN":3,"el":6,"az":312,"ss":0,"used":false},{"PRN":29,"el":6,"az":199,"ss":20,"used":true},{"PRN":5,"el":5,"az":96,"ss":25,"used":true}]}
$GPRMC,153350.000,A,3940.6986,N,07544.9357,W,0.09,87.19,230410,,*2F
{"class":"TPV","tag":"RMC","mode":3,"time":"2010-04-23T15:33:50.000Z","ept":0.005,"lat":39.678310000,"lon":-75.748928333,"alt":74.400,"epx":12.310,"epy":19.762,"epv":32.200,"track":87.1900,"speed":0.046,"climb":0.000}
$GPVTG,87.19,T,,M,0.09,N,0.2,K*5C
$GPZDA,153351.000,23,04,2010,,*50
$GPGGA,153351.000,3940.6985,N,07544.9358,W,1,09,1.3,74.1,M,-33.8,M,,0000*5B
$GPGSA,A,3,26,15,21,27,24,09,18,05,29,,,,1.9,1.3,1.4*33
$GPRMC,153351.000,A,3940.6985,N,07544.9358,W,0.09,91.11,230410,,*2D
{"class":"TPV","tag":"RMC","mode":3,"time":"2010-04-23T15:33:51.000Z","ept":0.005,"lat":39.678308333,"lon":-75.748930000,"alt":74.100,"epx":12.310,"epy":19.762,"epv":32.200,"track":91.1100,"speed":0.046,"climb":0.000}
$GPVTG,91.11,T,,M,0.09,N,0.2,K*53
$GPZDA,153352.000,23,04,2010,,*53
$GPGGA,153352.000,3940.6985,N,07544.9358,W,1,09,1.3,73.9,M,-33.8,M,,0000*57
$GPGSA,A,3,26,15,21,27,24,09,18,05,29,,,,1.9,1.3,1.4*33
$GPRMC,153352.000,A,3940.6985,N,07544.9358,W,0.07,136.11,230410,,*1C
{"class":"TPV","tag":"RMC","mode":3,"time":"2010-04-23T15:33:52.000Z","ept":0.005,"lat":39.678308333,"lon":-75.748930000,"alt":73.900,"epx":12.310,"epy":19.762,"epv":32.200,"track":136.1100,"speed":0.036,"climb":0.000}
$GPVTG,136.11,T,,M,0.07,N,0.1,K*62
$GPZDA,153353.000,23,04,2010,,*52
$GPGGA,153353.000,3940.6985,N,07544.9358,W,1,09,1.3,74.0,M,-33.8,M,,0000*58
$GPGSA,A,3,26,15,21,27,24,09,18,05,29,,,,1.9,1.3,1.4*33
$GPRMC,153353.000,A,3940.6985,N,07544.9358,W,0.10,73.57,230410,,*29
{"class":"TPV","tag":"RMC","mode":3,"time":"2010-04-23T15:33:53.000Z","ept":0.005,"lat":39.678308333,"lon":-75.748930000,"alt":74.000,"epx":12.310,"epy":19.762,"epv":32.200,"track":73.5700,"speed":0.051,"climb":0.000}
$GPVTG,73.57,T,,M,0.10,N,0.2,K*55
$GPZDA,153354.000,23,04,2010,,*55
$GPGGA,153354.000,3940.6985,N,07544.9358,W,1,09,1.3,73.9,M,-33.8,M,,0000*51
$GPGSA,A,3,26,15,21,27,24,09,18,05,29,,,,1.9,1.3,1.4*33
$GPRMC,153354.000,A,3940.6985,N,07544.9358,W,0.06,86.02,230410,,*23
{"class":"TPV","tag":"RMC","mode":3,"time":"2010-04-23T15:33:54.000Z","ept":0.005,"lat":39.678308333,"lon":-75.748930000,"alt":73.900,"epx":12.310,"epy":19.762,"epv":32.200,"track":86.0200,"speed":0.031,"climb":0.000}
$GPVTG,86.02,T,,M,0.06,N,0.1,K*5B
$GPZDA,153355.000,23,04,2010,,*54
$GPGGA,153355.000,3940.6985,N,07544.9358,W,1,09,1.3,73.9,M,-33.8,M,,0000*50
$GPGSA,A,3,26,15,21,27,24,09,18,05,29,,,,1.9,1.3,1.4*33
$GPGSV,3,1,12,26,82,270,40,21,73,256,40,24,66,289,38,18,58,312,45*7E
$GPGSV,3,2,12,27,51,116,44,15,47,048,40,09,46,136,40,22,26,291,19*7E
$GPGSV,3,3,12,06,13,303,,03,06,312,10,29,06,199,23,05,05,096,25*7F
{"class":"SKY","tag":"GSV","xdop":0.82,"ydop":1.32,"vdop":1.40,"tdop":1.30,"hdop":1.30,"gdop":2.59,"pdop":1.90,"satellites":[{"PRN":26,"el":82,"az":270,"ss":40,"used":true},{"PRN":21,"el":73,"az":256,"ss":40,"used":true},{"PRN":24,"el":66,"az":289,"ss":38,"used":true},{"PRN":18,"el":58,"az":312,"ss":45,"used":true},{"PRN":27,"el":51,"az":116,"ss":44,"used":true},{"PRN":15,"el":47,"az":48,"ss":40,"used":true},{"PRN":9,"el":46,"az":136,"ss":40,"used":true},{"PRN":22,"el":26,"az":291,"ss":19,"used":false},{"PRN":6,"el":13,"az":303,"ss":0,"used":false},{"PRN":3,"el":6,"az":312,"ss":10,"used":false},{"PRN":29,"el":6,"az":199,"ss":23,"used":true},{"PRN":5,"el":5,"az":96,"ss":25,"used":true}]}
$GPRMC,153355.000,A,3940.6985,N,07544.9358,W,0.11,71.30,230410,,*2D
{"class":"TPV","tag":"RMC","mode":3,"time":"2010-04-23T15:33:55.000Z","ept":0.005,"lat":39.678308333,"lon":-75.748930000,"alt":73.900,"epx":12.310,"epy":19.762,"epv":32.200,"track":71.3000,"speed":0.057,"climb":0.000}
$GPVTG,71.30,T,,M,0.11,N,0.2,K*57
$GPZDA,153356.000,23,04,2010,,*57
$GPGGA,153356.000,3940.6985,N,07544.9358,W,1,09,1.3,73.9,M,-33.8,M,,0000*53
$GPGSA,A,3,26,15,21,27,24,09,18,05,29,,,,1.9,1.3,1.4*33
$GPRMC,153356.000,A,3940.6985,N,07544.9358,W,0.04,127.06,230410,,*1D
{"class":"TPV","tag":"RMC","mode":3,"time":"2010-04-23T15:33:56.000Z","ept":0.005,"lat":39.678308333,"lon":-75.748930000,"alt":73.900,"epx":12.310,"epy":19.762,"epv":32.200,"track":127.0600,"speed":0.021,"climb":0.000}
$GPVTG,127.06,T,,M,0.04,N,0.1,K*67
$GPZDA,153357.000,23,04,2010,,*56
$GPGGA,153357.000,3940.6985,N,07544.9358,W,1,09,1.3,73.7,M,-33.8,M,,0000*5C
$GPGSA,A,3,26,15,21,27,24,09,18,05,29,,,,1.9,1.3,1.4*33
$GPRMC,153357.000,A,3940.6985,N,07544.9358,W,0.09,191.66,230410,,*1A
{"class":"TPV","tag":"RMC","mode":3,"time":"2010-04-23T15:33:57.000Z","ept":0.005,"lat":39.678308333,"lon":-75.748930000,"alt":73.700,"epx":12.310,"epy":19.762,"epv":32.200,"track":191.6600,"speed":0.046,"climb":0.000}
$GPVTG,191.66,T,,M,0.09,N,0.2,K*62
$GPZDA,153358.000,23,04,2010,,*59
$GPGGA,153358.000,3940.6985,N,07544.9358,W,1,09,1.3,73.7,M,-33.8,M,,0000*53
$GPGSA,A,3,26,15,21,27,24,09,18,05,29,,,,1.9,1.3,1.4*33
$GPRMC,153358.000,A,3940.6985,N,07544.9358,W,0.05,118.29,230410,,*13
{"class":"TPV","tag":"RMC","mode":3,"time":"2010-04-23T15:33:58.000Z","ept":0.005,"lat":39.678308333,"lon":-75.748930000,"alt":73.700,"epx":12.310,"epy":19.762,"epv":32.200,"track":118.2900,"speed":0.026,"climb":0.000}
$GPVTG,118.29,T,,M,0.05,N,0.1,K*67
$GPZDA,153359.000,23,04,2010,,*58
$GPGGA,153359.000,3940.6985,N,07544.9359,W,1,09,1.3,73.2,M,-33.8,M,,0000*56
$GPRMC,153359.000,A,3940.6985,N,07544.9359,W,0.12,206.85,230410,,*1F
{"class":"TPV","tag":"RMC","mode":3,"time":"2010-04-23T15:33:59.000Z","ept":0.005,"lat":39.678308333,"lon":-75.748931667,"alt":73.200,"epx":12.310,"epy":19.762,"epv":32.200,"track":206.8500,"speed":0.062,"climb":0.000}
$GPVTG,206.85,T,,M,0.12,N,0.2,K*68
$GPZDA,153400.000,23,04,2010,,*53
$GPGGA,153400.000,3940.6985,N,07544.9359,W,1,09,1.3,72.9,M,-33.8,M,,0000*57
$GPGSA,A,3,26,15,21,27,24,09,18,05,29,,,,1.9,1.3,1.4*33
$GPGSV,3,1,12,26,82,270,39,21,73,256,39,24,66,289,39,18,58,312,45*7F
$GPGSV,3,2,12,27,51,116,43,15,47,048,30,09,46,136,42,22,26,291,14*71
$GPGSV,3,3,12,06,13,303,27,03,06,312,,29,06,199,22,05,05,096,25*7A
{"class":"SKY","tag":"GSV","xdop":0.82,"ydop":1.32,"vdop":1.40,"tdop":1.30,"hdop":1.30,"gdop":2.59,"pdop":1.90,"satellites":[{"PRN":26,"el":82,"az":270,"ss":39,"used":true},{"PRN":21,"el":73,"az":256,"ss":39,"used":true},{"PRN":24,"el":66,"az":289,"ss":39,"used":true},{"PRN":18,"el":58,"az":312,"ss":45,"used":true},{"PRN":27,"el":51,"az":116,"ss":43,"used":true},{"PRN":15,"el":47,"az":48,"ss":30,"used":true},{"PRN":9,"el":46,"az":136,"ss":42,"used":true},{"PRN":22,"el":26,"az":291,"ss":14,"used":false},{"PRN":6,"el":13,"az":303,"ss":27,"used":false},{"PRN":3,"el":6,"az":312,"ss":0,"used":false},{"PRN":29,"el":6,"az":199,"ss":22,"used":true},{"PRN":5,"el":5,"az":96,"ss":25,"used":true}]}
$GPRMC,153400.000,A,3940.6985,N,07544.9359,W,0.19,205.81,230410,,*18
{"class":"TPV","tag":"RMC","mode":3,"time":"2010-04-23T15:34:00.000Z","ept":0.005,"lat":39.678308333,"lon":-75.748931667,"alt":72.900,"epx":12.310,"epy":19.762,"epv":32.200,"track":205.8100,"speed":0.098,"climb":0.000}
$GPVTG,205.81,T,,M,0.19,N,0.3,K*65
$GPZDA,153401.000,23,04,2010,,*52
$GPGGA,153401.000,3940.6985,N,07544.9360,W,1,09,1.3,72.6,M,-33.8,M,,0000*53
$GPGSA,A,3,26,15,21,27,24,09,18,05,29,,,,1.9,1.3,1.4*33
$GPRMC,153401.000,A,3940.6985,N,07544.9360,W,0.24,45.90,230410,,*2B
{"class":"TPV","tag":"RMC","mode":3,"time":"2010-04-23T15:34:01.000Z","ept":0.005,"lat":39.678308333,"lon":-75.748933333,"alt":72.600,"epx":12.310,"epy":19.762,"epv":32.200,"track":45.9000,"speed":0.123,"climb":0.000}
$GPVTG,45.90,T,,M,0.24,N,0.4,K*5A
$GPZDA,153402.000,23,04,2010,,*51
$GPGGA,153402.000,3940.6985,N,07544.9360,W,1,09,1.3,72.4,M,-33.8,M,,0000*52
$GPGSA,A,3,26,15,21,27,24,09,18,05,29,,,,1.9,1.3,1.4*33
$GPRMC,153402.000,A,3940.6985,N,07544.9360,W,0.14,217.87,230410,,*18
{"class":"TPV","tag":"RMC","mode":3,"time":"2010-04-23T15:34:02.000Z","ept":0.005,"lat":39.678308333,"lon":-75.748933333,"alt":72.400,"epx":12.310,"epy":19.762,"epv":32.200,"track":217.8700,"speed":0.072,"climb":0.000}
$GPVTG,217.87,T,,M,0.14,N,0.3,K*6D
$GPZDA,153403.000,23,04,2010,,*50
$GPGGA,153403.000,3940.6985,N,07544.9360,W,1,09,1.3,72.3,M,-33.8,M,,0000*54
$GPGSA,A,3,26,15,21,27,24,09,18,05,29,,,,1.9,1.3,1.4*33
$GPRMC,153403.000,A,3940.6985,N,07544.9360,W,0.17,48.77,230410,,*2D
{"class":"TPV","tag":"RMC","mode":3,"time":"2010-04-23T15:34:03.000Z","ept":0.005,"lat":39.678308333,"lon":-75.748933333,"alt":72.300,"epx":12.310,"epy":19.762,"epv":32.200,"track":48.7700,"speed":0.087,"climb":0.000}
$GPVTG,48.77,T,,M,0.17,N,0.3,K*59
$GPZDA,153404.000,23,04,2010,,*57
$GPGGA,153404.000,3940.6985,N,07544.9360,W,1,09,1.3,72.3,M,-33.8,M,,0000*53
$GPGSA,A,3,26,15,21,27,24,09,18,05,29,,,,1.9,1.3,1.4*33
$GPRMC,153404.000,A,3940.6985,N,07544.9360,W,0.12,198.25,230410,,*14
{"class":"TPV","tag":"RMC","mode":3,"time":"2010-04-23T15:34:04.000Z","ept":0.005,"lat":39.678308333,"lon":-75.748933333,"alt":72.300,"epx":12.310,"epy":19.762,"epv":32.200,"track":198.2500,"speed":0.062,"climb":0.000}
$GPVTG,198.25,T,,M,0.12,N,0.2,K*66
$GPZDA,153405.000,23,04,2010,,*56
$GPGGA,153405.000,3940.6985,N,07544.9360,W,1,09,1.3,72.4,M,-33.8,M,,0000*55
$GPGSA,A,3,26,15,21,27,24,09,18,05,29,,,,1.9,1.3,1.4*33
$GPGSV,3,1,12,26,82,270,39,21,73,256,38,24,66,289,39,18,58,312,44*7F
$GPGSV,3,2,12,27,51,116,43,15,47,048,37,09,46,136,41,22,26,291,11*70
$GPGSV,3,3,12,06,13,303,28,03,06,312,,29,06,199,23,05,05,096,25*74
{"class":"SKY","tag":"GSV","xdop":0.82,"ydop":1.32,"vdop":1.40,"tdop":1.30,"hdop":1.30,"gdop":2.59,"pdop":1.90,"satellites":[{"PRN":26,"el":82,"az":270,"ss":39,"used":true},{"PRN":21,"el":73,"az":256,"ss":38,"used":true},{"PRN":24,"el":66,"az":289,"ss":39,"used":true},{"PRN":18,"el":58,"az":312,"ss":44,"used":true},{"PRN":27,"el":51,"az":116,"ss":43,"used":true},{"PRN":15,"el":47,"az":48,"ss":37,"used":true},{"PRN":9,"el":46,"az":136,"ss":41,"used":true},{"PRN":22,"el":26,"az":291,"ss":11,"used":false},{"PRN":6,"el":13,"az":303,"ss":28,"used":false},{"PRN":3,"el":6,"az":312,"ss":0,"used":false},{"PRN":29,"el":6,"az":199,"ss":23,"used":true},{"PRN":5,"el":5,"az":96,"ss":25,"used":true}]}
$GPRMC,153405.000,A,3940.6985,N,07544.9360,W,0.21,205.69,230410,,*1A
{"class":"TPV","tag":"RMC","mode":3,"time":"2010-04-23T15:34:05.000Z","ept":0.005,"lat":39.678308333,"lon":-75.748933333,"alt":72.400,"epx":12.310,"epy":19.762,"epv":32.200,"track":205.6900,"speed":0.108,"climb":0.000}
$GPVTG,205.69,T,,M,0.21,N,0.4,K*6F
$GPZDA,153406.000,23,04,2010,,*55
$GPGGA,153406.000,3940.6984,N,07544.9360,W,1,09,1.3,72.5,M,-33.8,M,,0000*56
$GPGSA,A,3,26,15,21,27,24,09,18,05,29,,,,1.9,1.3,1.4*33
$GPRMC,153406.000,A,3940.6984,N,07544.9360,W,0.11,198.24,230410,,*15
{"class":"TPV","tag":"RMC","mode":3,"time":"2010-04-23T15:34:06.000Z","ept":0.005,"lat":39.678306667,"lon":-75.748933333,"alt":72.500,"epx":12.310,"epy":19.762,"epv":32.200,"track":198.2400,"speed":0.057,"climb":0.000}
$GPVTG,198.24,T,,M,0.11,N,0.2,K*64
$GPZDA,153407.000,23,04,2010,,*54
$GPGGA,153407.000,3940.6984,N,07544.9361,W,1,09,1.3,72.7,M,-33.8,M,,0000*54
$GPGSA,A,3,26,15,21,27,24,09,18,05,29,,,,1.9,1.3,1.4*33
$GPRMC,153407.000,A,3940.6984,N,07544.9361,W,0.09,185.69,230410,,*19
{"class":"TPV","tag":"RMC","mode":3,"time":"2010-04-23T15:34:07.000Z","ept":0.005,"lat":39.678306667,"lon":-75.748935000,"alt":72.700,"epx":12.310,"epy":19.762,"epv":32.200,"track":185.6900,"speed":0.046,"climb":0.000}
$GPVTG,185.69,T,,M,0.09,N,0.2,K*68
$GPZDA,153408.000,23,04,2010,,*5B
$GPGGA,153408.000,3940.6984,N,07544.9360,W,1,09,1.3,73.0,M,-33.8,M,,0000*5C
$GPGSA,A,3,26,15,21,27,24,09,18,05,29,,,,1.9,1.3,1.4*33
$GPRMC,153408.000,A,3940.6984,N,07544.9360,W,0.08,68.19,230410,,*23
{"class":"TPV","tag":"RMC","mode":3,"time":"2010-04-23T15:34:08.000Z","ept":0.005,"lat":39.678306667,"lon":-75.748933333,"alt":73.000,"epx":12.310,"epy":19.762,"epv":32.200,"track":68.1900,"speed":0.041,"climb":0.000}
$GPVTG,68.19,T,,M,0.08,N,0.1,K*5F
$GPZDA,153409.000,23,04,2010,,*5A
$GPGGA,153409.000,3940.6984,N,07544.9360,W,1,09,1.3,72.8,M,-33.8,M,,0000*54
$GPGSA,A,3,26,15,21,27,24,09,18,05,29,,,,1.9,1.3,1.4*33
$GPRMC,153409.000,A,3940.6984,N,07544.9360,W,0.03,136.94,230410,,*16
{"class":"TPV","tag":"RMC","mode":3,"time":"2010-04-23T15:34:09.000Z","ept":0.005,"lat":39.678306667,"lon":-75.748933333,"alt":72.800,"epx":12.310,"epy":19.762,"epv":32.200,"track":136.9400,"speed":0.015,"climb":0.000}
$GPVTG,136.94,T,,M,0.03,N,0.1,K*6B
$GPZDA,153410.000,23,04,2010,,*52
$GPGGA,153410.000,3940.6985,N,07544.9360,W,1,09,1.3,72.6,M,-33.8,M,,0000*53
$GPGSA,A,3,26,15,21,27,24,09,18,05,29,,,,1.9,1.3,1.4*33
$GPGSV,3,1,12,26,82,270,39,21,73,256,37,24,66,289,40,18,58,312,44*7E
$GPGSV,3,2,12,27,51,116,43,15,47,048,40,09,46,136,42,22,26,291,13*71
$GPGSV,3,3,12,06,13,303,,03,06,312,,29,06,199,24,05,05,096,24*78
{"class":"SKY","tag":"GSV","xdop":0.82,"ydop":1.32,"vdop":1.40,"tdop":1.30,"hdop":1.30,"gdop":2.59,"pdop":1.90,"satellites":[{"PRN":26,"el":82,"az":270,"ss":39,"used":true},{"PRN":21,"el":73,"az":256,"ss":37,"used":true},{"PRN":24,"el":66,"az":289,"ss":40,"used":true},{"PRN":18,"el":58,"az":312,"ss":44,"used":true},{"PRN":27,"el":51,"az":116,"ss":43,"used":true},{"PRN":15,"el":47,"az":48,"ss":40,"used":true},{"PRN":9,"el":46,"az":136,"ss":42,"used":true},{"PRN":22,"el":26,"az":291,"ss":13,"used":false},{"PRN":6,"el":13,"az":303,"ss":0,"used":false},{"PRN":3,"el":6,"az":312,"ss":0,"used":false},{"PRN":29,"el":6,"az":199,"ss":24,"used":true},{"PRN":5,"el":5,"az":96,"ss":24,"used":true}]}
$GPRMC,153410.000,A,3940.6985,N,07544.9360,W,0.04,163.02,230410,,*17
{"class":"TPV","tag":"RMC","mode":3,"time":"2010-04-23T15:34:10.000Z","ept":0.005,"lat":39.678308333,"lon":-75.748933333,"alt":72.600,"epx":12.310,"epy":19.762,"epv":32.200,"track":163.0200,"speed":0.021,"climb":0.000}
$GPZDA,153411.000,23,04,2010,,*53
$GPGGA,153411.000,3940.6985,N,07544.9360,W,1,09,1.3,72.5,M,-33.8,M,,0000*51
$GPGSA,A,3,26,15,21,27,24,09,18,05,29,,,,1.9,1.3,1.4*33
$GPRMC,153411.000,A,3940.6985,N,07544.9360,W,0.09,55.20,230410,,*2F
{"class":"TPV","tag":"RMC","mode":3,"time":"2010-04-23T15:34:11.000Z","ept":0.005,"lat":39.678308333,"lon":-75.748933333,"alt":72.500,"epx":12.310,"epy":19.762,"epv":32.200,"track":55.2000,"speed":0.046,"climb":0.000}
$GPVTG,55.20,T,,M,0.09,N,0.2,K*59
$GPZDA,153412.000,23,04,2010,,*50
$GPGGA,153412.000,3940.6985,N,07544.9359,W,1,09,1.3,72.3,M,-33.8,M,,0000*5E
$GPGSA,A,3,26,15,21,27,24,09,18,05,29,,,,1.9,1.3,1.4*33
$GPRMC,153412.000,A,3940.6985,N,07544.9359,W,0.09,58.22,230410,,*29
{"class":"TPV","tag":"RMC","mode":3,"time":"2010-04-23T15:34:12.000Z","ept":0.005,"lat":39.678308333,"lon":-75.748931667,"alt":72.300,"epx":12.310,"epy":19.762,"epv":32.200,"track":58.2200,"speed":0.046,"climb":0.000}
$GPVTG,58.22,T,,M,0.09,N,0.2,K*56
$GPZDA,153413.000,23,04,2010,,*51
$GPGGA,153413.000,3940.6986,N,07544.9359,W,1,09,1.3,72.1,M,-33.8,M,,0000*5E
$GPGSA,A,3,26,15,21,27,24,09,18,05,29,,,,1.9,1.3,1.4*33
$GPRMC,153413.000,A,3940.6986,N,07544.9359,W,0.13,65.66,230410,,*2E
{"class":"TPV","tag":"RMC","mode":3,"time":"2010-04-23T15:34:13.000Z","ept":0.005,"lat":39.678310000,"lon":-75.748931667,"alt":72.100,"epx":12.310,"epy":19.762,"epv":32.200,"track":65.6600,"speed":0.067,"climb":0.000}
$GPVTG,65.66,T,,M,0.13,N,0.2,K*53
$GPZDA,153414.000,23,04,2010,,*56
$GPGGA,153414.000,3940.6986,N,07544.9359,W,1,09,1.3,71.8,M,-33.8,M,,0000*53
$GPGSA,A,3,26,15,21,27,24,09,18,05,29,,,,1.9,1.3,1.4*33
$GPRMC,153414.000,A,3940.6986,N,07544.9359,W,0.06,72.14,230410,,*2E
{"class":"TPV","tag":"RMC","mode":3,"time":"2010-04-23T15:34:14.000Z","ept":0.005,"lat":39.678310000,"lon":-75.748931667,"alt":71.800,"epx":12.310,"epy":19.762,"epv":32.200,"track":72.1400,"speed":0.031,"climb":0.000}
$GPVTG,72.14,T,,M,0.06,N,0.1,K*57
$GPZDA,153415.000,23,04,2010,,*57
$GPGGA,153415.000,3940.6986,N,07544.9359,W,1,08,1.9,71.8,M,-33.8,M,,0000*59
$GPGSA,A,3,26,15,21,27,24,09,18,05,,,,,3.0,1.9,2.4*3A
$GPGSV,3,1,12,26,82,270,39,21,73,256,37,24,66,289,39,18,58,312,44*70
$GPGSV,3,2,12,27,51,116,42,15,47,048,40,09,46,136,42,22,26,291,*72
$GPGSV,3,3,12,06,13,303,27,03,06,312,,29,06,199,17,05,05,096,19*73
{"class":"SKY","tag":"GSV","xdop":0.82,"ydop":1.32,"vdop":2.40,"tdop":1.30,"hdop":1.90,"gdop":2.59,"pdop":3.00,"satellites":[{"PRN":26,"el":82,"az":270,"ss":39,"used":true},{"PRN":21,"el":73,"az":256,"ss":37,"used":true},{"PRN":24,"el":66,"az":289,"ss":39,"used":true},{"PRN":18,"el":58,"az":312,"ss":44,"used":true},{"PRN":27,"el":51,"az":116,"ss":42,"used":true},{"PRN":15,"el":47,"az":48,"ss":40,"used":true},{"PRN":9,"el":46,"az":136,"ss":42,"used":true},{"PRN":22,"el":26,"az":291,"ss":0,"used":false},{"PRN":6,"el":13,"az":303,"ss":27,"used":false},{"PRN":3,"el":6,"az":312,"ss":0,"used":false},{"PRN":29,"el":6,"az":199,"ss":17,"used":false},{"PRN":5,"el":5,"az":96,"ss":19,"used":true}]}
$GPRMC,153415.000,A,3940.6986,N,07544.9359,W,0.07,71.45,230410,,*29
{"class":"TPV","tag":"RMC","mode":3,"time":"2010-04-23T15:34:15.000Z","ept":0.005,"lat":39.678310000,"lon":-75.748931667,"alt":71.800,"epx":12.310,"epy":19.762,"epv":32.200,"track":71.4500,"speed":0.036,"climb":0.000}
$GPVTG,71.45,T,,M,0.07,N,0.1,K*51
$GPZDA,153416.000,23,04,2010,,*54
$GPGGA,153416.000,3940.6986,N,07544.9359,W,1,08,1.9,71.9,M,-33.8,M,,0000*5B
$GPGSA,A,3,26,15,21,27,24,09,18,05,,,,,3.0,1.9,2.4*3A
$GPRMC,153416.000,A,3940.6986,N,07544.9359,W,0.04,125.99,230410,,*18
{"class":"TPV","tag":"RMC","mode":3,"time":"2010-04-23T15:34:16.000Z","ept":0.005,"lat":39.678310000,"lon":-75.748931667,"alt":71.900,"epx":12.310,"epy":19.762,"epv":55.200,"track":125.9900,"speed":0.021,"climb":0.000}
$GPVTG,125.99,T,,M,0.04,N,0.1,K*63
$GPZDA,153417.000,23,04,2010,,*55
$GPGGA,153417.000,3940.6986,N,07544.9359,W,1,09,1.3,71.6,M,-33.8,M,,0000*5E
$GPGSA,A,3,26,15,21,27,24,09,18,05,29,,,,1.9,1.3,1.4*33
$GPRMC,153417.000,A,3940.6986,N,07544.9359,W,0.16,60.22,230410,,*2A
{"class":"TPV","tag":"RMC","mode":3,"time":"2010-04-23T15:34:17.000Z","ept":0.005,"lat":39.678310000,"lon":-75.748931667,"alt":71.600,"epx":12.310,"epy":19.762,"epv":55.200,"track":60.2200,"speed":0.082,"climb":0.000}
$GPVTG,60.22,T,,M,0.16,N,0.3,K*52
$GPZDA,153418.000,23,04,2010,,*5A
$GPGGA,153418.000,3940.6986,N,07544.9359,W,1,09,1.3,71.5,M,-33.8,M,,0000*52
$GPGSA,A,3,26,15,21,27,24,09,18,05,29,,,,1.9,1.3,1.4*33
$GPRMC,153418.000,A,3940.6986,N,07544.9359,W,0.04,108.21,230410,,*1A
{"class":"TPV","tag":"RMC","mode":3,"time":"2010-04-23T15:34:18.000Z","ept":0.005,"lat":39.678310000,"lon":-75.748931667,"alt":71.500,"epx":12.310,"epy":19.762,"epv":32.200,"track":108.2100,"speed":0.021,"climb":0.000}
$GPVTG,108.21,T,,M,0.04,N,0.1,K*6F
$GPZDA,153419.000,23,04,2010,,*5B
$GPGGA,153419.000,3940.6987,N,07544.9359,W,1,09,1.3,71.6,M,-33.8,M,,0000*51
$GPGSA,A,3,26,15,21,27,24,09,18,05,29,,,,1.9,1.3,1.4*33
$GPRMC,153419.000,A,3940.6987,N,07544.9359,W,0.32,53.50,230410,,*26
{"class":"TPV","tag":"RMC","mode":3,"time":"2010-04-23T15:34:19.000Z","ept":0.005,"lat":39.678311667,"lon":-75.748931667,"alt":71.600,"epx":12.310,"epy":19.762,"epv":32.200,"track":53.5000,"speed":0.165,"climb":0.000}
$GPVTG,53.50,T,,M,0.32,N,0.6,K*54
$GPZDA,153420.000,23,04,2010,,*51
$GPGGA,153420.000,3940.6987,N,07544.9358,W,1,09,1.3,71.8,M,-33.8,M,,0000*54
$GPGSA,A,3,26,15,21,27,24,09,18,05,29,,,,1.9,1.3,1.4*33
$GPGSV,3,1,12,26,82,272,39,21,73,256,35,24,67,288,39,18,59,312,37*75
$GPGSV,3,2,12,27,51,115,43,15,47,048,40,09,46,136,43,22,26,291,11*71
$GPGSV,3,3,12,06,13,303,27,03,06,312,,29,06,199,17,14,05,232,*77
{"class":"SKY","tag":"GSV","xdop":0.82,"ydop":1.32,"vdop":1.40,"tdop":1.30,"hdop":1.30,"gdop":2.59,"pdop":1.90,"satellites":[{"PRN":26,"el":82,"az":272,"ss":39,"used":true},{"PRN":21,"el":73,"az":256,"ss":35,"used":true},{"PRN":24,"el":67,"az":288,"ss":39,"used":true},{"PRN":18,"el":59,"az":312,"ss":37,"used":true},{"PRN":27,"el":51,"az":115,"ss":43,"used":true},{"PRN":15,"el":47,"az":48,"ss":40,"used":true},{"PRN":9,"el":46,"az":136,"ss":43,"used":true},{"PRN":22,"el":26,"az":291,"ss":11,"used":false},{"PRN":6,"el":13,"az":303,"ss":27,"used":false},{"PRN":3,"el":6,"az":312,"ss":0,"used":false},{"PRN":29,"el":6,"az":199,"ss":17,"used":true},{"PRN":14,"el":5,"az":232,"ss":0,"used":false}]}
$GPRMC,153420.000,A,3940.6987,N,07544.9358,W,0.31,53.43,230410,,*2C
{"class":"TPV","tag":"RMC","mode":3,"time":"2010-04-23T15:34:20.000Z","ept":0.005,"lat":39.678311667,"lon":-75.748930000,"alt":71.800,"epx":12.310,"epy":19.762,"epv":32.200,"track":53.4300,"speed":0.159,"climb":0.000}
$GPVTG,53.43,T,,M,0.31,N,0.6,K*55
$GPZDA,153421.000,23,04,2010,,*50
$GPGGA,153421.000,3940.6988,N,07544.9357,W,1,09,1.3,71.6,M,-33.8,M,,0000*5B
$GPGSA,A,3,26,15,21,27,24,09,18,05,29,,,,1.9,1.3,1.4*33
$GPRMC,153421.000,A,3940.6988,N,07544.9357,W,0.31,59.72,230410,,*25
{"class":"TPV","tag":"RMC","mode":3,"time":"2010-04-23T15:34:21.000Z","ept":0.005,"lat":39.678313333,"lon":-75.748928333,"alt":71.600,"epx":12.310,"epy":19.762,"epv":32.200,"track":59.7200,"speed":0.159,"climb":0.000}
$GPVTG,59.72,T,,M,0.31,N,0.6,K*5D
$GPZDA,153422.000,23,04,2010,,*53
$GPGGA,153422.000,3940.6988,N,07544.9357,W,1,09,1.3,71.5,M,-33.8,M,,0000*5B
$GPGSA,A,3,26,15,21,27,24,09,18,05,29,,,,1.9,1.3,1.4*33
$GPRMC,153422.000,A,3940.6988,N,07544.9357,W,0.06,123.72,230410,,*1E
{"class":"TPV","tag":"RMC","mode":3,"time":"2010-04-23T15:34:22.000Z","ept":0.005,"lat":39.678313333,"lon":-75.748928333,"alt":71.500,"epx":12.310,"epy":19.762,"epv":32.200,"track":123.7200,"speed":0.031,"climb":0.000}
$GPVTG,123.72,T,,M,0.06,N,0.1,K*62
$GPZDA,153423.000,23,04,2010,,*52
$GPGGA,153423.000,3940.6988,N,07544.9358,W,1,09,1.3,71.2,M,-33.8,M,,0000*52
$GPGSA,A,3,26,15,21,27,24,09,18,05,29,,,,1.9,1.3,1.4*33
$GPVTG,129.63,T,,M,0.08,N,0.1,K*66
$GPZDA,153424.000,23,04,2010,,*55
$GPGGA,153424.000,3940.6987,N,07544.9358,W,1,09,1.3,71.1,M,-33.8,M,,0000*59
{"class":"TPV","tag":"GGA","mode":3,"time":"2010-04-23T15:34:24.000Z","ept":0.005,"lat":39.678311667,"lon":-75.748930000,"alt":71.100,"epx":12.310,"epy":19.762,"epv":32.200,"speed":0.000,"climb":0.000}
$GPGSA,A,3,26,15,21,27,24,09,18,05,29,,,,1.9,1.3,1.4*33
$GPRMC,153424.000,A,3940.6987,N,07544.9358,W,0.07,100.77,230410,,*1D
{"class":"TPV","tag":"RMC","mode":3,"time":"2010-04-23T15:34:24.000Z","ept":0.005,"lat":39.678311667,"lon":-75.748930000,"alt":71.100,"epx":12.310,"epy":19.762,"epv":32.200,"track":100.7700,"speed":0.036,"climb":0.000}
$GPVTG,100.77,T,,M,0.07,N,0.1,K*67
$GPZDA,153425.000,23,04,2010,,*54
$GPGGA,153425.000,3940.6987,N,07544.9359,W,1,09,1.3,70.9,M,-33.8,M,,0000*50
{"class":"TPV","tag":"GGA","mode":3,"time":"2010-04-23T15:34:25.000Z","ept":0.005,"lat":39.678311667,"lon":-75.748931667,"alt":70.900,"epx":12.310,"epy":19.762,"epv":32.200,"speed":0.000,"climb":0.000}
$GPGSA,A,3,26,15,21,27,24,09,18,05,29,,,,1.9,1.3,1.4*33
$GPGSV,3,1,12,26,82,272,39,21,73,256,36,24,67,288,38,18,59,312,42*75
$GPGSV,3,2,12,27,51,115,42,15,47,048,40,09,46,136,43,22,26,291,07*77
$GPGSV,3,3,12,06,13,303,,03,06,312,12,29,06,199,25,14,05,232,*70
{"class":"SKY","tag":"GSV","xdop":0.82,"ydop":1.32,"vdop":1.40,"tdop":1.30,"hdop":1.30,"gdop":2.59,"pdop":1.90,"satellites":[{"PRN":26,"el":82,"az":272,"ss":39,"used":true},{"PRN":21,"el":73,"az":256,"ss":36,"used":true},{"PRN":24,"el":67,"az":288,"ss":38,"used":true},{"PRN":18,"el":59,"az":312,"ss":42,"used":true},{"PRN":27,"el":51,"az":115,"ss":42,"used":true},{"PRN":15,"el":47,"az":48,"ss":40,"used":true},{"PRN":9,"el":46,"az":136,"ss":43,"used":true},{"PRN":22,"el":26,"az":291,"ss":7,"used":false},{"PRN":6,"el":13,"az":303,"ss":0,"used":false},{"PRN":3,"el":6,"az":312,"ss":12,"used":false},{"PRN":29,"el":6,"az":199,"ss":25,"used":true},{"PRN":14,"el":5,"az":232,"ss":0,"used":false}]}
$GPRMC,153425.000,A,3940.6987,N,07544.9359,W,0.10,89.40,230410,,*2F
{"class":"TPV","tag":"RMC","mode":3,"time":"2010-04-23T15:34:25.000Z","ept":0.005,"lat":39.678311667,"lon":-75.748931667,"alt":70.900,"epx":12.310,"epy":19.762,"epv":32.200,"track":89.4000,"speed":0.051,"climb":0.000}
$GPVTG,89.40,T,,M,0.10,N,0.2,K*56
$GPZDA,153426.000,23,04,2010,,*57
$GPGGA,153426.000,3940.6987,N,07544.9359,W,1,09,1.3,70.4,M,-33.8,M,,0000*5E
{"class":"TPV","tag":"GGA","mode":3,"time":"2010-04-23T15:34:26.000Z","ept":0.005,"lat":39.678311667,"lon":-75.748931667,"alt":70.400,"epx":12.310,"epy":19.762,"epv":32.200,"speed":0.000,"climb":0.000}
$GPGSA,A,3,26,15,21,27,24,09,18,05,29,,,,1.9,1.3,1.4*33
$GPRMC,153426.000,A,3940.6987,N,07544.9359,W,0.15,63.07,230410,,*2E
{"class":"TPV","tag":"RMC","mode":3,"time":"2010-04-23T15:34:26.000Z","ept":0.005,"lat":39.678311667,"lon":-75.748931667,"alt":70.400,"epx":12.310,"epy":19.762,"epv":32.200,"track":63.0700,"speed":0.077,"climb":0.000}
$GPVTG,63.07,T,,M,0.15,N,0.3,K*55
$GPZDA,153427.000,23,04,2010,,*56
$GPGGA,153427.000,3940.6987,N,07544.9359,W,1,08,1.9,70.5,M,-33.8,M,,0000*55
{"class":"TPV","tag":"GGA","mode":3,"time":"2010-04-23T15:34:27.000Z","ept":0.005,"lat":39.678311667,"lon":-75.748931667,"alt":70.500,"epx":12.310,"epy":19.762,"epv":32.200,"speed":0.000,"climb":0.000}
$GPGSA,A,3,26,15,21,27,24,09,18,05,,,,,3.0,1.9,2.4*3A
$GPRMC,153427.000,A,3940.6987,N,07544.9359,W,0.14,65.26,230410,,*2B
{"class":"TPV","tag":"RMC","mode":3,"time":"2010-04-23T15:34:27.000Z","ept":0.005,"lat":39.678311667,"lon":-75.748931667,"alt":70.500,"epx":12.310,"epy":19.762,"epv":32.200,"track":65.2600,"speed":0.072,"climb":0.000}
$GPVTG,65.26,T,,M,0.14,N,0.3,K*51
$GPZDA,153428.000,23,04,2010,,*59
$GPGGA,153428.000,3940.6987,N,07544.9359,W,1,08,1.9,70.7,M,-33.8,M,,0000*58
{"class":"TPV","tag":"GGA","mode":3,"time":"2010-04-23T15:34:28.000Z","ept":0.005,"lat":39.678311667,"lon":-75.748931667,"alt":70.700,"epx":12.310,"epy":19.762,"epv":55.200,"speed":0.000,"climb":0.000}
$GPGSA,A,3,26,15,21,27,24,09,18,05,,,,,3.0,1.9,2.4*3A
$GPRMC,153428.000,A,3940.6987,N,07544.9359,W,0.10,75.11,230410,,*25
{"class":"TPV","tag":"RMC","mode":3,"time":"2010-04-23T15:34:28.000Z","ept":0.005,"lat":39.678311667,"lon":-75.748931667,"alt":70.700,"epx":12.310,"epy":19.762,"epv":55.200,"track":75.1100,"speed":0.051,"climb":0.000}
$GPVTG,75.11,T,,M,0.10,N,0.2,K*51
$GPZDA,153429.000,23,04,2010,,*58
$GPGGA,153429.000,3940.6987,N,07544.9359,W,1,09,1.3,70.1,M,-33.8,M,,0000*54
{"class":"TPV","tag":"GGA","mode":3,"time":"2010-04-23T15:34:29.000Z","ept":0.005,"lat":39.678311667,"lon":-75.748931667,"alt":70.100,"epx":12.310,"epy":19.762,"epv":55.200,"speed":0.000,"climb":0.000}
$GPGSA,A,3,26,15,21,27,24,09,18,05,29,,,,1.9,1.3,1.4*33
$GPRMC,153429.000,A,3940.6987,N,07544.9359,W,0.13,65.02,230410,,*24
{"class":"TPV","tag":"RMC","mode":3,"time":"2010-04-23T15:34:29.000Z","ept":0.005,"lat":39.678311667,"lon":-75.748931667,"alt":70.100,"epx":12.310,"epy":19.762,"epv":55.200,"track":65.0200,"speed":0.067,"climb":0.000}
$GPVTG,65.02,T,,M,0.13,N,0.2,K*51
$GPZDA,153430.000,23,04,2010,,*50
$GPGGA,153430.000,3940.6987,N,07544.9360,W,1,09,1.3,69.6,M,-33.8,M,,0000*59
{"class":"TPV","tag":"GGA","mode":3,"time":"2010-04-23T15:34:30.000Z","ept":0.005,"lat":39.678311667,"lon":-75.748933333,"alt":69.600,"epx":12.310,"epy":19.762,"epv":32.200,"speed":0.000,"climb":0.000}
$GPGSA,A,3,26,15,21,27,24,09,18,05,29,,,,1.9,1.3,1.4*33
$GPGSV,3,1,12,26,82,272,39,21,73,256,36,24,67,288,37,18,59,312,42*7A
$GPGSV,3,2,12,27,51,115,42,15,47,048,39,09,46,136,43,22,26,291,*7E
$GPGSV,3,3,12,06,13,303,27,03,06,312,,29,06,199,13,14,05,232,*73
{"class":"SKY","tag":"GSV","xdop":0.82,"ydop":1.32,"vdop":1.40,"tdop":1.30,"hdop":1.30,"gdop":2.59,"pdop":1.90,"satellites":[{"PRN":26,"el":82,"az":272,"ss":39,"used":true},{"PRN":21,"el":73,"az":256,"ss":36,"used":true},{"PRN":24,"el":67,"az":288,"ss":37,"used":true},{"PRN":18,"el":59,"az":312,"ss":42,"used":true},{"PRN":27,"el":51,"az":115,"ss":42,"used":true},{"PRN":15,"el":47,"az":48,"ss":39,"used":true},{"PRN":9,"el":46,"az":136,"ss":43,"used":true},{"PRN":22,"el":26,"az":291,"ss":0,"used":false},{"PRN":6,"el":13,"az":303,"ss":27,"used":false},{"PRN":3,"el":6,"az":312,"ss":0,"used":false},{"PRN":29,"el":6,"az":199,"ss":13,"used":true},{"PRN":14,"el":5,"az":232,"ss":0,"used":false}]}
$GPRMC,153430.000,A,3940.6987,N,07544.9360,W,0.09,67.21,230410,,*2E
{"class":"TPV","tag":"RMC","mode":3,"time":"2010-04-23T15:34:30.000Z","ept":0.005,"lat":39.678311667,"lon":-75.748933333,"alt":69.600,"epx":12.310,"epy":19.762,"epv":32.200,"track":67.2100,"speed":0.046,"climb":0.000}
$GPVTG,67.21,T,,M,0.09,N,0.2,K*59
$GPZDA,153431.000,23,04,2010,,*51
$GPGGA,153431.000,3940.6987,N,07544.9361,W,1,09,1.3,69.4,M,-33.8,M,,0000*5B
{"class":"TPV","tag":"GGA","mode":3,"time":"2010-04-23T15:34:31.000Z","ept":0.005,"lat":39.678311667,"lon":-75.748935000,"alt":69.400,"epx":12.310,"epy":19.762,"epv":32.200,"speed":0.000,"climb":0.000}
$GPGSA,A,3,26,15,21,27,24,09,18,05,29,,,,1.9,1.3,1.4*33
$GPRMC,153431.000,A,3940.6987,N,07544.9361,W,0.06,167.61,230410,,*14
{"class":"TPV","tag":"RMC","mode":3,"time":"2010-04-23T15:34:31.000Z","ept":0.005,"lat":39.678311667,"lon":-75.748935000,"alt":69.400,"epx":12.310,"epy":19.762,"epv":32.200,"track":167.6100,"speed":0.031,"climb":0.000}
$GPVTG,167.61,T,,M,0.06,N,0.1,K*60
$GPZDA,153432.000,23,04,2010,,*52
$GPGGA,153432.000,3940.6986,N,07544.9362,W,1,09,1.3,68.9,M,-33.8,M,,0000*56
{"class":"TPV","tag":"GGA","mode":3,"time":"2010-04-23T15:34:32.000Z","ept":0.005,"lat":39.678310000,"lon":-75.748936667,"alt":68.900,"epx":12.310,"epy":19.762,"epv":32.200,"speed":0.000,"climb":0.000}
$GPGSA,A,3,26,15,21,27,24,09,18,05,29,,,,1.9,1.3,1.4*33
$GPRMC,153432.000,A,3940.6986,N,07544.9362,W,0.15,61.34,230410,,*20
{"class":"TPV","tag":"RMC","mode":3,"time":"2010-04-23T15:34:32.000Z","ept":0.005,"lat":39.678310000,"lon":-75.748936667,"alt":68.900,"epx":12.310,"epy":19.762,"epv":32.200,"track":61.3400,"speed":0.077,"climb":0.000}
$GPVTG,61.34,T,,M,0.15,N,0.3,K*57
$GPZDA,153433.000,23,04,2010,,*53
$GPGGA,153433.000,3940.6987,N,07544.9362,W,1,08,1.9,69.0,M,-33.8,M,,0000*55
{"class":"TPV","tag":"GGA","mode":3,"time":"2010-04-23T15:34:33.000Z","ept":0.005,"lat":39.678311667,"lon":-75.748936667,"alt":69.000,"epx":12.310,"epy":19.762,"epv":32.200,"speed":0.000,"climb":0.000}
$GPGSA,A,3,26,15,21,27,24,09,18,05,,,,,3.0,1.9,2.4*3A
$GPRMC,153433.000,A,3940.6987,N,07544.9362,W,0.06,83.09,230410,,*20
{"class":"TPV","tag":"RMC","mode":3,"time":"2010-04-23T15:34:33.000Z","ept":0.005,"lat":39.678311667,"lon":-75.748936667,"alt":69.000,"epx":12.310,"epy":19.762,"epv":32.200,"track":83.0900,"speed":0.031,"climb":0.000}
$GPVTG,83.09,T,,M,0.06,N,0.1,K*55
$GPZDA,153434.000,23,04,2010,,*54
$GPGGA,153434.000,3940.6987,N,07544.9361,W,1,08,1.9,69.2,M,-33.8,M,,0000*53
{"class":"TPV","tag":"GGA","mode":3,"time":"2010-04-23T15:34:34.000Z","ept":0.005,"lat":39.678311667,"lon":-75.748935000,"alt":69.200,"epx":12.310,"epy":19.762,"epv":55.200,"speed":0.000,"climb":0.000}
$GPGSA,A,3,26,15,21,27,24,09,18,05,,,,,3.0,1.9,2.4*3A
$GPRMC,153434.000,A,3940.6987,N,07544.9361,W,0.09,68.77,230410,,*27
{"class":"TPV","tag":"RMC","mode":3,"time":"2010-04-23T15:34:34.000Z","ept":0.005,"lat":39.678311667,"lon":-75.748935000,"alt":69.200,"epx":12.310,"epy":19.762,"epv":55.200,"track":68.7700,"speed":0.046,"climb":0.000}
$GPVTG,68.77,T,,M,0.09,N,0.2,K*55
$GPZDA,153435.000,23,04,2010,,*55
$GPGGA,153435.000,3940.6987,N,07544.9361,W,1,08,1.9,69.5,M,-33.8,M,,0000*55
{"class":"TPV","tag":"GGA","mode":3,"time":"2010-04-23T15:34:35.000Z","ept":0.005,"lat":39.678311667,"lon":-75.748935000,"alt":69.500,"epx":12.310,"epy":19.762,"epv":55.200,"speed":0.000,"climb":0.000}
$GPGSA,A,3,26,15,21,27,24,09,18,05,,,,,3.0,1.9,2.4*3A
$GPGSV,3,1,12,26,82,272,39,21,73,256,37,24,67,288,38,18,59,312,42*74
$GPGSV,3,2,12,27,51,115,42,15,47,048,39,09,46,136,43,22,26,291,*7E
$GPGSV,3,3,12,06,13,303,27,03,06,312,12,29,06,199,,14,05,232,*72
{"class":"SKY","tag":"GSV","xdop":0.82,"ydop":1.32,"vdop":2.40,"tdop":1.30,"hdop":1.90,"gdop":2.59,"pdop":3.00,"satellites":[{"PRN":26,"el":82,"az":272,"ss":39,"used":true},{"PRN":21,"el":73,"az":256,"ss":37,"used":true},{"PRN":24,"el":67,"az":288,"ss":38,"used":true},{"PRN":18,"el":59,"az":312,"ss":42,"used":true},{"PRN":27,"el":51,"az":115,"ss":42,"used":true},{"PRN":15,"el":47,"az":48,"ss":39,"used":true},{"PRN":9,"el":46,"az":136,"ss":43,"used":true},{"PRN":22,"el":26,"az":291,"ss":0,"used":false},{"PRN":6,"el":13,"az":303,"ss":27,"used":false},{"PRN":3,"el":6,"az":312,"ss":12,"used":false},{"PRN":29,"el":6,"az":199,"ss":0,"used":false},{"PRN":14,"el":5,"az":232,"ss":0,"used":false}]}
