# Name: Garmin Mobile 10
# Description: Garmin Mobile 10 for laptops
# Submitter: David Ludlow <davel@adsllc.com>
# Date: 2010-07-18
# Location: Toledo, OH 41.7 N 83.6 W
#
# Notes: Device is moved between a marginal, indoors location
#        with a 3D fix to a location with no view of the sky (inside a grounded
#        computer case).
$GPGGA,165006.000,4143.6052,N,08338.0775,W,1,06,1.5,203.5,M,-33.7,M,,0000*60
$GPGSA,A,3,31,16,29,23,20,32,,,,,,,2.8,1.5,2.4*36
$GPGSV,3,1,10,16,74,173,27,23,42,310,21,31,40,066,23,32,39,218,22*7F
$GPGSV,3,2,10,20,38,248,21,13,16,310,,06,15,156,,29,15,048,16*7E
$GPGSV,3,3,10,03,08,171,,14,06,129,*7D
$GPRMC,165006.000,A,4143.6052,N,08338.0775,W,1.91,34.35,180710,,,A*49
$GPGGA,165007.000,4143.6058,N,08338.0778,W,1,06,1.5,204.3,M,-33.7,M,,0000*67
$GPGSA,A,3,31,16,29,23,20,32,,,,,,,2.8,1.5,2.4*36
$GPGSV,3,1,10,16,74,173,27,23,42,310,21,31,40,066,23,32,39,218,22*7F
$GPGSV,3,2,10,20,38,248,21,13,16,310,,06,15,156,,29,15,048,16*7E
$GPGSV,3,3,10,03,08,171,,14,06,129,*7D
$GPRMC,165007.000,A,4143.6058,N,08338.0778,W,0.55,36.58,180710,,,A*4F
$GPGGA,165008.000,4143.6059,N,08338.0786,W,1,06,1.5,204.1,M,-33.7,M,,0000*6A
$GPGSA,A,3,31,16,29,23,20,32,,,,,,,2.8,1.5,2.4*36
$GPGSV,3,1,10,16,74,173,27,23,42,310,21,31,40,066,23,32,39,218,22*7F
$GPGSV,3,2,10,20,38,248,21,13,16,310,,06,15,156,,29,15,048,16*7E
$GPGSV,3,3,10,03,08,171,,14,06,129,*7D
$GPRMC,165008.000,A,4143.6059,N,08338.0786,W,0.32,172.38,180710,,,A*76
$GPGGA,165009.000,4143.6058,N,08338.0787,W,1,03,7.2,203.9,M,-33.7,M,,0000*60
$GPGSA,A,2,31,16,29,,,,,,,,,,7.3,7.2,1.0*3D
$GPGSV,3,1,10,16,74,173,20,23,42,310,17,31,40,066,18,32,39,218,15*71
$GPGSV,3,2,10,20,38,248,17,13,16,310,,06,15,156,,29,15,048,15*78
$GPGSV,3,3,10,03,08,171,,14,06,129,*7D
$GPRMC,165009.000,A,4143.6058,N,08338.0787,W,0.60,231.03,180710,,,A*7C
$GPGGA,165010.000,4143.6057,N,08338.0788,W,6,00,50.0,203.8,M,-33.7,M,,0000*5D
$GPGSA,A,2,,,,,,,,,,,,,50.0,50.0,50.0*06
$GPGSV,3,1,10,16,74,173,09,23,42,310,07,31,40,066,13,32,39,218,07*73
$GPGSV,3,2,10,20,38,248,09,13,16,310,,06,15,156,,29,15,048,12*70
$GPGSV,3,3,10,03,08,171,,14,06,129,*7D
$GPRMC,165010.000,V,4143.6057,N,08338.0788,W,0.60,231.03,180710,,,E*67
$GPGGA,165011.000,4143.6056,N,08338.0790,W,6,00,50.0,203.8,M,-33.7,M,,0000*54
$GPGSA,A,2,,,,,,,,,,,,,50.0,50.0,50.0*06
$GPGSV,3,1,10,16,74,173,08,23,42,310,,31,40,066,12,32,39,218,07*74
$GPGSV,3,2,10,20,38,248,08,13,16,310,,06,15,156,,29,15,048,08*7A
$GPGSV,3,3,10,03,08,171,,14,06,129,*7D
$GPRMC,165011.000,V,4143.6056,N,08338.0790,W,0.60,231.03,180710,,,E*6E
$GPGGA,165012.000,4143.6055,N,08338.0792,W,6,00,50.0,203.8,M,-33.7,M,,0000*56
$GPGSA,A,2,,,,,,,,,,,,,50.0,50.0,50.0*06
$GPGSV,3,1,10,16,74,173,09,23,42,310,,31,40,066,11,32,39,218,*71
$GPGSV,3,2,10,20,38,248,,13,16,310,,06,15,156,,29,15,048,*7A
$GPGSV,3,3,10,03,08,171,,14,06,129,*7D
$GPRMC,165012.000,V,4143.6055,N,08338.0792,W,0.60,231.03,180710,,,E*6C
$GPGGA,165013.000,4143.6054,N,08338.0794,W,6,00,50.0,203.8,M,-33.7,M,,0000*50
$GPGSA,A,2,,,,,,,,,,,,,50.0,50.0,50.0*06
$GPGSV,3,1,10,16,74,173,,23,42,310,,31,40,066,11,32,39,218,*78
$GPGSV,3,2,10,20,38,248,,13,16,310,,06,15,156,,29,15,048,*7A
$GPGSV,3,3,10,03,08,171,,14,06,129,*7D
$GPRMC,165013.000,V,4143.6054,N,08338.0794,W,0.60,231.03,180710,,,E*6A
$GPGGA,165014.000,4143.6053,N,08338.0795,W,6,00,50.0,203.8,M,-33.7,M,,0000*51
$GPGSA,A,2,,,,,,,,,,,,,50.0,50.0,50.0*06
$GPGSV,3,1,10,16,74,173,,23,42,310,,31,40,066,11,32,39,218,*78
$GPGSV,3,2,10,20,38,248,,13,16,310,,06,15,156,,29,15,048,*7A
$GPGSV,3,3,10,03,08,171,,14,06,129,*7D
$GPRMC,165014.000,V,4143.6053,N,08338.0795,W,0.60,231.03,180710,,,E*6B
$GPGGA,165015.000,4143.6052,N,08338.0797,W,6,00,50.0,203.8,M,-33.7,M,,0000*53
$GPGSA,A,2,,,,,,,,,,,,,50.0,50.0,50.0*06
$GPGSV,3,1,10,16,74,173,,23,42,310,,31,40,066,11,32,39,218,*78
$GPGSV,3,2,10,20,38,248,,13,16,310,,06,15,156,,29,15,048,*7A
$GPGSV,3,3,10,03,08,171,,14,06,129,*7D
$GPRMC,165015.000,V,4143.6052,N,08338.0797,W,0.60,231.03,180710,,,E*69
$GPGGA,165016.000,4143.6051,N,08338.0799,W,6,00,50.0,203.8,M,-33.7,M,,0000*5D
$GPGSA,A,2,,,,,,,,,,,,,50.0,50.0,50.0*06
$GPGSV,3,1,10,16,74,173,,23,42,310,,31,40,066,11,32,39,218,*78
$GPGSV,3,2,10,20,38,248,,13,16,310,,06,15,156,,29,15,048,*7A
$GPGSV,3,3,10,03,08,171,,14,06,129,*7D
$GPRMC,165016.000,V,4143.6051,N,08338.0799,W,0.60,231.03,180710,,,E*67
$GPGGA,165017.000,4143.6050,N,08338.0801,W,6,00,50.0,203.8,M,-33.7,M,,0000*53
$GPGSA,A,2,,,,,,,,,,,,,50.0,50.0,50.0*06
$GPGSV,3,1,10,16,74,173,,23,42,310,,31,40,066,12,32,39,218,*7B
$GPGSV,3,2,10,20,38,248,,13,16,310,,06,15,156,,29,15,048,*7A
$GPGSV,3,3,10,03,08,171,,14,06,129,*7D
$GPRMC,165017.000,V,4143.6050,N,08338.0801,W,0.60,231.03,180710,,,E*69
$GPGGA,165018.000,4143.6049,N,08338.0802,W,6,00,50.0,203.8,M,-33.7,M,,0000*57
$GPGSA,A,2,,,,,,,,,,,,,50.0,50.0,50.0*06
$GPGSV,3,1,10,16,74,173,,23,42,310,,31,40,066,12,32,39,218,*7B
$GPGSV,3,2,10,20,38,248,,13,16,310,,06,15,156,,29,15,048,*7A
$GPGSV,3,3,10,03,08,171,,14,06,129,*7D
$GPRMC,165018.000,V,4143.6049,N,08338.0802,W,0.60,231.03,180710,,,E*6D
$GPGGA,165019.000,,,,,0,00,,,M,0.0,M,,0000*5C
$GPGSA,A,1,,,,,,,,,,,,,,,*1E
$GPGSV,3,1,10,16,74,173,,23,42,310,,31,40,066,12,32,39,218,*7B
$GPGSV,3,2,10,20,38,248,,13,16,310,,06,15,156,,29,15,048,*7A
$GPGSV,3,3,10,03,08,171,,14,06,129,*7D
$GPRMC,165019.000,V,,,,,,,180710,,,N*48
$GPGGA,165020.000,,,,,0,00,,,M,0.0,M,,0000*56
$GPGSA,A,1,,,,,,,,,,,,,,,*1E
$GPGSV,3,1,10,16,74,173,,23,42,310,,31,40,066,12,32,39,218,*7B
$GPGSV,3,2,10,20,38,248,,13,16,310,,06,15,156,,29,15,048,*7A
$GPGSV,3,3,10,03,08,171,,14,06,129,*7D
$GPRMC,165020.000,V,,,,,,,180710,,,N*42
$GPGGA,165021.000,,,,,0,00,,,M,0.0,M,,0000*57
$GPGSA,A,1,,,,,,,,,,,,,,,*1E
$GPGSV,3,1,10,16,74,173,,23,42,310,,31,40,066,12,32,39,218,*7B
$GPGSV,3,2,10,20,38,248,,13,16,310,,06,15,156,,29,15,048,*7A
$GPGSV,3,3,10,03,08,171,,14,06,129,*7D
$GPRMC,165021.000,V,,,,,,,180710,,,N*43
$GPGGA,165022.000,,,,,0,00,,,M,0.0,M,,0000*54
$GPGSA,A,1,,,,,,,,,,,,,,,*1E
$GPGSV,3,1,10,16,74,173,,23,42,310,,31,40,066,12,32,39,218,*7B
$GPGSV,3,2,10,20,38,248,,13,16,310,,06,15,156,,29,15,048,*7A
$GPGSV,3,3,10,03,08,171,,14,06,129,*7D
$GPRMC,165022.000,V,,,,,,,180710,,,N*40
$GPGGA,165023.000,,,,,0,00,,,M,0.0,M,,0000*55
$GPGSA,A,1,,,,,,,,,,,,,,,*1E
$GPGSV,3,1,10,16,74,173,,23,42,310,,31,40,066,12,32,39,218,*7B
$GPGSV,3,2,10,20,38,248,,13,16,310,,06,15,156,,29,15,048,*7A
$GPGSV,3,3,10,03,08,171,,14,06,129,*7D
$GPRMC,165023.000,V,,,,,,,180710,,,N*41
$GPGGA,165024.000,,,,,0,00,,,M,0.0,M,,0000*52
$GPGSA,A,1,,,,,,,,,,,,,,,*1E
$GPGSV,3,1,10,16,74,173,,23,42,310,,31,40,066,13,32,39,218,*7A
$GPGSV,3,2,10,20,38,248,,13,16,310,,06,15,156,,29,15,048,*7A
$GPGSV,3,3,10,03,08,171,,14,06,129,*7D
$GPRMC,165024.000,V,,,,,,,180710,,,N*46
$GPGGA,165025.000,,,,,0,00,,,M,0.0,M,,0000*53
$GPGSA,A,1,,,,,,,,,,,,,,,*1E
$GPGSV,3,1,10,16,74,173,,23,42,310,,31,40,066,13,32,39,218,*7A
$GPGSV,3,2,10,20,38,248,,13,16,310,,06,15,156,,29,15,048,*7A
$GPGSV,3,3,10,03,08,171,,14,06,129,*7D
$GPRMC,165025.000,V,,,,,,,180710,,,N*47
$GPGGA,165026.000,,,,,0,00,,,M,0.0,M,,0000*50
$GPGSA,A,1,,,,,,,,,,,,,,,*1E
$GPGSV,3,1,10,16,74,173,,23,42,310,,31,40,066,13,32,39,218,*7A
$GPGSV,3,2,10,20,38,248,,13,16,310,,06,15,156,,29,15,048,*7A
$GPGSV,3,3,10,03,08,171,,14,06,129,*7D
$GPRMC,165026.000,V,,,,,,,180710,,,N*44
$GPGGA,165027.000,,,,,0,00,,,M,0.0,M,,0000*51
$GPGSA,A,1,,,,,,,,,,,,,,,*1E
$GPGSV,3,1,10,16,74,173,,23,42,310,,31,40,066,13,32,39,218,*7A
$GPGSV,3,2,10,20,38,248,,13,16,310,,06,15,156,,29,15,048,*7A
$GPGSV,3,3,10,03,08,171,,14,06,129,*7D
$GPRMC,165027.000,V,,,,,,,180710,,,N*45
$GPGGA,165028.000,,,,,0,00,,,M,0.0,M,,0000*5E
$GPGSA,A,1,,,,,,,,,,,,,,,*1E
$GPGSV,3,1,10,16,74,173,,23,42,310,,31,40,066,13,32,39,218,*7A
$GPGSV,3,2,10,20,38,248,,13,16,310,,06,15,156,,29,15,048,*7A
$GPGSV,3,3,10,03,08,171,,14,06,129,*7D
$GPRMC,165028.000,V,,,,,,,180710,,,N*4A
$GPGGA,165029.000,,,,,0,00,,,M,0.0,M,,0000*5F
$GPGSA,A,1,,,,,,,,,,,,,,,*1E
$GPGSV,3,1,10,16,74,173,,23,42,310,,31,40,066,14,32,39,218,*7D
$GPGSV,3,2,10,20,38,248,,13,16,310,,06,15,156,,29,15,048,*7A
$GPGSV,3,3,10,03,08,171,,14,06,129,*7D
$GPRMC,165029.000,V,,,,,,,180710,,,N*4B
$GPGGA,165030.000,,,,,0,00,,,M,0.0,M,,0000*57
$GPGSA,A,1,,,,,,,,,,,,,,,*1E
$GPGSV,3,1,10,16,74,173,,23,42,310,,31,40,066,13,32,39,218,*7A
$GPGSV,3,2,10,20,38,248,,13,16,310,,06,15,156,,29,15,048,*7A
$GPGSV,3,3,10,03,08,171,,14,06,129,*7D
$GPRMC,165030.000,V,,,,,,,180710,,,N*43
$GPGGA,165031.000,,,,,0,00,,,M,0.0,M,,0000*56
$GPGSA,A,1,,,,,,,,,,,,,,,*1E
$GPGSV,3,1,10,16,74,173,,23,42,310,,31,40,066,15,32,39,218,*7C
$GPGSV,3,2,10,20,38,248,,13,16,310,,06,15,156,,29,15,048,*7A
$GPGSV,3,3,10,03,08,171,,14,06,129,*7D
$GPRMC,165031.000,V,,,,,,,180710,,,N*42
$GPGGA,165032.000,,,,,0,00,,,M,0.0,M,,0000*55
$GPGSA,A,1,,,,,,,,,,,,,,,*1E
$GPGSV,3,1,10,16,74,173,,23,42,310,,31,40,066,15,32,39,218,*7C
$GPGSV,3,2,10,20,38,248,,13,16,310,,06,15,156,,29,15,048,*7A
$GPGSV,3,3,10,03,08,171,,14,06,129,*7D
$GPRMC,165032.000,V,,,,,,,180710,,,N*41
$PGRMT,GPS 10x Software v2.20 BT v2.50,,,,,,,*7F
$GPGGA,165033.000,,,,,0,00,,,M,0.0,M,,0000*54
$GPGSA,A,1,,,,,,,,,,,,,,,*1E
$GPGSV,3,1,10,16,74,173,,23,42,310,,31,40,066,14,32,39,218,*7D
$GPGSV,3,2,10,20,38,248,,13,16,310,,06,15,156,,29,15,048,*7A
$GPGSV,3,3,10,03,08,171,,14,06,129,*7D
$GPRMC,165033.000,V,,,,,,,180710,,,N*40
$GPGGA,165034.000,,,,,0,00,,,M,0.0,M,,0000*53
$GPGSA,A,1,,,,,,,,,,,,,,,*1E
$GPGSV,3,1,10,16,74,173,,23,42,310,,31,40,066,15,32,39,218,*7C
$GPGSV,3,2,10,20,38,248,,13,16,310,,06,15,156,,29,15,048,*7A
$GPGSV,3,3,10,03,08,171,,14,06,129,*7D
$GPRMC,165034.000,V,,,,,,,180710,,,N*47
$GPGGA,165035.000,,,,,0,00,,,M,0.0,M,,0000*52
$GPGSA,A,1,,,,,,,,,,,,,,,*1E
$GPGSV,3,1,10,16,74,173,,23,42,310,,31,40,066,15,32,39,218,17*7A
$GPGSV,3,2,10,20,38,248,,13,16,310,,06,15,156,,29,15,048,*7A
$GPGSV,3,3,10,03,08,171,,14,06,129,*7D
$GPRMC,165035.000,V,,,,,,,180710,,,N*46
$GPGGA,165036.000,,,,,0,00,,,M,0.0,M,,0000*51
$GPGSA,A,1,,,,,,,,,,,,,,,*1E
$GPGSV,3,1,10,16,74,173,,23,42,310,,31,40,066,15,32,39,218,17*7A
$GPGSV,3,2,10,20,38,248,,13,16,310,,06,15,156,,29,15,048,*7A
$GPGSV,3,3,10,03,08,171,,14,06,129,*7D
$GPRMC,165036.000,V,,,,,,,180710,,,N*45
$GPGGA,165037.000,,,,,0,00,,,M,0.0,M,,0000*50
$GPGSA,A,1,,,,,,,,,,,,,,,*1E
$GPGSV,3,1,10,16,74,173,,23,42,310,,31,40,066,15,32,39,218,17*7A
$GPGSV,3,2,10,20,38,248,,13,16,310,,06,15,156,,29,15,048,*7A
$GPGSV,3,3,10,03,08,171,,14,06,129,*7D
$GPRMC,165037.000,V,,,,,,,180710,,,N*44
$GPGGA,165038.000,,,,,0,00,,,M,0.0,M,,0000*5F
$GPGSA,A,1,,,,,,,,,,,,,,,*1E
$GPGSV,3,1,10,16,74,173,,23,42,310,,31,40,066,15,32,39,218,16*7B
$GPGSV,3,2,10,20,38,248,,13,16,310,,06,15,156,,29,15,048,*7A
$GPGSV,3,3,10,03,08,171,,14,06,129,*7D
$GPRMC,165038.000,V,,,,,,,180710,,,N*4B
$GPGGA,165039.000,,,,,0,00,,,M,0.0,M,,0000*5E
$GPGSA,A,1,,,,,,,,,,,,,,,*1E
$GPGSV,3,1,10,16,74,173,,23,42,310,,31,40,066,15,32,39,218,16*7B
$GPGSV,3,2,10,20,38,248,,13,16,310,,06,15,156,,29,15,048,*7A
$GPGSV,3,3,10,03,08,171,,14,06,129,*7D
$GPRMC,165039.000,V,,,,,,,180710,,,N*4A
$GPGGA,165040.000,,,,,0,00,,,M,0.0,M,,0000*50
$GPGSA,A,1,,,,,,,,,,,,,,,*1E
$GPGSV,3,1,10,16,74,173,,23,42,310,,31,40,066,14,32,39,218,17*7B
$GPGSV,3,2,10,20,38,248,,13,16,310,,06,15,156,,29,15,048,*7A
$GPGSV,3,3,10,03,08,171,,14,06,129,*7D
$GPRMC,165040.000,V,,,,,,,180710,,,N*44
$GPGGA,165041.000,,,,,0,00,,,M,0.0,M,,0000*51
$GPGSA,A,1,,,,,,,,,,,,,,,*1E
$GPGSV,3,1,10,16,74,173,,23,42,310,,31,40,066,14,32,39,218,12*7E
$GPGSV,3,2,10,20,38,248,,13,16,310,,06,15,156,,29,15,048,*7A
$GPGSV,3,3,10,03,08,171,,14,06,129,*7D
$GPRMC,165041.000,V,,,,,,,180710,,,N*45
$GPGGA,165042.000,,,,,0,00,,,M,0.0,M,,0000*52
$GPGSA,A,1,,,,,,,,,,,,,,,*1E
$GPGSV,3,1,10,16,74,173,,23,42,310,,31,40,066,14,32,39,218,08*75
$GPGSV,3,2,10,20,38,248,,13,16,310,,06,15,156,,29,15,048,*7A
$GPGSV,3,3,10,03,08,171,,14,06,129,*7D
$GPRMC,165042.000,V,,,,,,,180710,,,N*46
$GPGGA,165043.000,,,,,0,00,,,M,0.0,M,,0000*53
$GPGSA,A,1,,,,,,,,,,,,,,,*1E
$GPGSV,3,1,10,16,74,173,27,23,42,310,,31,40,066,16,32,39,218,07*7D
$GPGSV,3,2,10,20,38,248,,13,16,310,,06,15,156,,29,15,048,*7A
$GPGSV,3,3,10,03,08,171,,14,06,129,*7D
$GPRMC,165043.000,V,,,,,,,180710,,,N*47
$GPGGA,165044.000,4143.5985,N,08338.0820,W,1,03,2.2,204.1,M,-33.7,M,,0000*6B
$GPGSA,A,2,31,23,16,,,,,,,,,,2.4,2.2,1.0*30
$GPGSV,3,1,10,16,74,173,26,23,42,310,21,31,40,066,23,32,39,218,*7E
$GPGSV,3,2,10,20,38,248,,13,16,310,,06,15,156,,29,15,048,*7A
$GPGSV,3,3,10,03,08,171,,14,06,129,*7D
$GPRMC,165044.000,A,4143.5985,N,08338.0820,W,0.00,,180710,,,A*66
$GPGGA,165045.000,4143.6024,N,08338.0864,W,1,04,2.0,183.5,M,-33.7,M,,0000*66
$GPGSA,A,3,31,23,16,20,,,,,,,,,4.6,2.0,4.2*32
$GPGSV,3,1,10,16,74,173,27,23,42,310,19,31,40,066,23,32,39,218,*74
$GPGSV,3,2,10,20,38,248,19,13,16,310,,06,15,156,,29,15,048,*72
$GPGSV,3,3,10,03,08,171,,14,06,129,*7D
$GPRMC,165045.000,A,4143.6024,N,08338.0864,W,2.19,176.03,180710,,,A*71
$GPGGA,165046.000,4143.6110,N,08338.0897,W,1,05,1.5,200.1,M,-33.7,M,,0000*64
$GPGSA,A,3,31,23,16,20,32,,,,,,,,4.0,1.5,3.6*30
$GPGSV,3,1,10,16,74,173,27,23,42,310,21,31,40,066,24,32,39,218,24*7E
$GPGSV,3,2,10,20,38,248,19,13,16,310,,06,15,156,,29,15,048,*72
$GPGSV,3,3,10,03,08,171,,14,06,129,*7D
$GPRMC,165046.000,A,4143.6110,N,08338.0897,W,0.44,323.72,180710,,,A*76
$GPGGA,165047.000,4143.6116,N,08338.0889,W,1,05,1.5,219.6,M,-33.7,M,,0000*63
$GPGSA,A,3,31,23,16,20,32,,,,,,,,4.0,1.5,3.6*30
$GPGSV,3,1,10,16,74,173,28,23,42,310,19,31,40,066,25,32,39,218,21*7E
$GPGSV,3,2,10,20,38,248,19,13,16,310,,06,15,156,,29,15,048,*72
$GPGSV,3,3,10,03,08,171,,14,06,129,*7D
$GPRMC,165047.000,A,4143.6116,N,08338.0889,W,0.76,13.73,180710,,,A*4E
$GPGGA,165048.000,4143.6118,N,08338.0890,W,1,05,1.5,210.3,M,-33.7,M,,0000*66
$GPGSA,A,3,31,23,16,20,32,,,,,,,,4.0,1.5,3.6*30
$GPGSV,3,1,10,16,74,173,27,23,42,310,18,31,40,066,25,32,39,218,23*72
$GPGSV,3,2,10,20,38,248,20,13,16,310,,06,15,156,,29,15,048,*78
$GPGSV,3,3,10,03,08,171,,14,06,129,*7D
$GPRMC,165048.000,A,4143.6118,N,08338.0890,W,0.71,20.56,180710,,,A*47
$GPGGA,165049.000,4143.6110,N,08338.0882,W,1,05,1.5,212.3,M,-33.7,M,,0000*6E
$GPGSA,A,3,31,23,16,20,32,,,,,,,,4.0,1.5,3.6*30
$GPGSV,3,1,10,16,74,173,27,23,42,310,19,31,40,066,24,32,39,218,23*72
$GPGSV,3,2,10,20,38,248,20,13,16,310,,06,15,156,,29,15,048,*78
$GPGSV,3,3,10,03,08,171,,14,06,129,*7D
$GPRMC,165049.000,A,4143.6110,N,08338.0882,W,0.60,126.88,180710,,,A*79
