$PGRME,19.2,M,28.7,M,34.6,M*18
$GPGLL,3348.452,N,11821.142,W,142214,A*3B
{"class":"TPV","tag":"GLL","mode":2,"lat":33.807533333,"lon":-118.352366667}
$PGRMZ,125,f,3*1D
$PGRMM,NAD83*29
$GPBOD,,T,,M,,*47
$GPRTE,1,1,c,0*07
$GPRMC,142216,A,3348.452,N,11821.143,W,000.0,353.6,081002,013.8,E*66
$GPRMB,A,,,,,,,,,,,,V*71
$GPGGA,142216,3348.452,N,11821.143,W,1,05,1.8,38.4,M,-32.4,M,,*4B
$GPGSA,A,3,03,,11,14,,,25,31,,,,,3.3,1.8,2.8*32
$GPGSV,2,1,08,03,23,224,38,09,06,037,00,11,17,314,41,14,75,015,44*72
$GPGSV,2,2,08,15,18,138,00,18,20,079,00,25,27,172,46,31,27,263,38*7C
{"class":"SKY","tag":"GSV","xdop":0.79,"ydop":0.70,"vdop":2.80,"tdop":0.79,"hdop":1.80,"gdop":2.04,"pdop":3.30,"satellites":[{"PRN":3,"el":23,"az":224,"ss":38,"used":true},{"PRN":9,"el":6,"az":37,"ss":0,"used":false},{"PRN":11,"el":17,"az":314,"ss":41,"used":true},{"PRN":14,"el":75,"az":15,"ss":44,"used":true},{"PRN":15,"el":18,"az":138,"ss":0,"used":false},{"PRN":18,"el":20,"az":79,"ss":0,"used":false},{"PRN":25,"el":27,"az":172,"ss":46,"used":true},{"PRN":31,"el":27,"az":263,"ss":38,"used":true}]}
$PGRME,19.2,M,28.7,M,34.6,M*18
$GPGLL,3348.452,N,11821.143,W,142216,A*38
{"class":"TPV","tag":"GLL","mode":3,"time":"2002-10-08T14:22:16.000Z","ept":0.005,"lat":33.807533333,"lon":-118.352383333,"alt":38.400,"epx":28.188,"epy":28.188,"epv":59.589,"track":353.6000,"speed":0.000,"climb":0.000}
$PGRMZ,126,f,3*1E
$PGRMM,NAD83*29
$GPBOD,,T,,M,,*47
$GPRTE,1,1,c,0*07
$GPRMC,142218,A,3348.451,N,11821.144,W,000.0,353.6,081002,013.8,E*6C
$GPRMB,A,,,,,,,,,,,,V*71
$GPGGA,142218,3348.451,N,11821.144,W,1,05,1.8,38.4,M,-32.4,M,,*41
$GPGSA,A,3,03,,11,14,,,25,31,,,,,3.3,1.8,2.8*32
$GPGSV,2,1,08,03,23,224,43,09,06,037,00,11,17,314,38,14,75,015,44*70
$GPGSV,2,2,08,15,18,138,00,18,20,079,00,25,27,172,39,31,27,263,42*79
{"class":"SKY","tag":"GSV","xdop":0.79,"ydop":0.70,"vdop":2.80,"tdop":0.79,"hdop":1.80,"gdop":2.04,"pdop":3.30,"satellites":[{"PRN":3,"el":23,"az":224,"ss":43,"used":true},{"PRN":9,"el":6,"az":37,"ss":0,"used":false},{"PRN":11,"el":17,"az":314,"ss":38,"used":true},{"PRN":14,"el":75,"az":15,"ss":44,"used":true},{"PRN":15,"el":18,"az":138,"ss":0,"used":false},{"PRN":18,"el":20,"az":79,"ss":0,"used":false},{"PRN":25,"el":27,"az":172,"ss":39,"used":true},{"PRN":31,"el":27,"az":263,"ss":42,"used":true}]}
$PGRME,19.2,M,28.7,M,34.6,M*18
$GPGLL,3348.451,N,11821.144,W,142218,A*32
{"class":"TPV","tag":"GLL","mode":3,"time":"2002-10-08T14:22:18.000Z","ept":0.005,"lat":33.807516667,"lon":-118.352400000,"alt":38.400,"epx":28.188,"epy":28.188,"epv":59.589,"track":353.6000,"speed":0.000,"climb":0.000,"eps":19.99}
$PGRMZ,126,f,3*1E
$PGRMM,NAD83*29
$GPBOD,,T,,M,,*47
$GPRTE,1,1,c,0*07
$GPRMC,142220,A,3348.451,N,11821.142,W,000.0,353.6,081002,013.8,E*61
$GPRMB,A,,,,,,,,,,,,V*71
$GPGGA,142220,3348.451,N,11821.142,W,1,05,1.8,37.6,M,-32.4,M,,*41
$GPGSA,A,3,03,,11,14,,,25,31,,,,,3.3,1.8,2.8*32
$GPGSV,2,1,08,03,23,224,43,09,06,037,00,11,17,314,38,14,75,015,43*77
$GPGSV,2,2,08,15,18,138,00,18,20,079,00,25,27,172,39,31,27,263,41*7A
{"class":"SKY","tag":"GSV","xdop":0.79,"ydop":0.70,"vdop":2.80,"tdop":0.79,"hdop":1.80,"gdop":2.04,"pdop":3.30,"satellites":[{"PRN":3,"el":23,"az":224,"ss":43,"used":true},{"PRN":9,"el":6,"az":37,"ss":0,"used":false},{"PRN":11,"el":17,"az":314,"ss":38,"used":true},{"PRN":14,"el":75,"az":15,"ss":43,"used":true},{"PRN":15,"el":18,"az":138,"ss":0,"used":false},{"PRN":18,"el":20,"az":79,"ss":0,"used":false},{"PRN":25,"el":27,"az":172,"ss":39,"used":true},{"PRN":31,"el":27,"az":263,"ss":41,"used":true}]}
$PGRME,19.2,M,28.7,M,34.6,M*18
$GPGLL,3348.451,N,11821.142,W,142220,A*3F
{"class":"TPV","tag":"GLL","mode":3,"time":"2002-10-08T14:22:20.000Z","ept":0.005,"lat":33.807516667,"lon":-118.352366667,"alt":37.600,"epx":28.188,"epy":28.188,"epv":59.589,"track":353.6000,"speed":0.000,"climb":0.000,"eps":19.99}
$PGRMZ,123,f,3*1B
$PGRMM,NAD83*29
$GPBOD,,T,,M,,*47
$GPRTE,1,1,c,0*07
$GPRMC,142222,A,3348.451,N,11821.143,W,000.0,353.6,081002,013.8,E*62
$GPRMB,A,,,,,,,,,,,,V*71
$GPGGA,142222,3348.451,N,11821.143,W,1,05,1.8,38.0,M,-32.4,M,,*4B
$GPGSA,A,3,03,,11,14,,,25,31,,,,,3.3,1.8,2.8*32
$GPGSV,2,1,08,03,23,224,42,09,06,037,00,11,17,314,38,14,75,015,43*76
$GPGSV,2,2,08,15,18,138,00,18,20,079,00,25,27,172,40,31,27,263,41*74
{"class":"SKY","tag":"GSV","xdop":0.79,"ydop":0.70,"vdop":2.80,"tdop":0.79,"hdop":1.80,"gdop":2.04,"pdop":3.30,"satellites":[{"PRN":3,"el":23,"az":224,"ss":42,"used":true},{"PRN":9,"el":6,"az":37,"ss":0,"used":false},{"PRN":11,"el":17,"az":314,"ss":38,"used":true},{"PRN":14,"el":75,"az":15,"ss":43,"used":true},{"PRN":15,"el":18,"az":138,"ss":0,"used":false},{"PRN":18,"el":20,"az":79,"ss":0,"used":false},{"PRN":25,"el":27,"az":172,"ss":40,"used":true},{"PRN":31,"el":27,"az":263,"ss":41,"used":true}]}
$PGRME,19.2,M,28.9,M,34.7,M*17
$GPGLL,3348.451,N,11821.143,W,142222,A*3C
{"class":"TPV","tag":"GLL","mode":3,"time":"2002-10-08T14:22:22.000Z","ept":0.005,"lat":33.807516667,"lon":-118.352383333,"alt":38.000,"epx":28.188,"epy":28.188,"epv":60.004,"track":353.6000,"speed":0.000,"climb":0.000,"eps":19.99}
$PGRMZ,125,f,3*1D
$PGRMM,NAD83*29
$GPBOD,,T,,M,,*47
$GPRTE,1,1,c,0*07
$GPRMC,142224,A,3348.451,N,11821.143,W,000.0,353.6,081002,013.8,E*64
$GPRMB,A,,,,,,,,,,,,V*71
$GPGGA,142224,3348.451,N,11821.143,W,1,05,1.8,38.0,M,-32.4,M,,*4D
$GPGSA,A,3,03,,11,14,,,25,31,,,,,3.3,1.8,2.8*32
$GPGSV,2,1,08,03,23,224,43,09,06,037,00,11,17,314,39,14,75,015,44*71
$GPGSV,2,2,08,15,18,138,00,18,20,079,00,25,27,172,39,31,27,263,40*7B
{"class":"SKY","tag":"GSV","xdop":0.79,"ydop":0.70,"vdop":2.80,"tdop":0.79,"hdop":1.80,"gdop":2.04,"pdop":3.30,"satellites":[{"PRN":3,"el":23,"az":224,"ss":43,"used":true},{"PRN":9,"el":6,"az":37,"ss":0,"used":false},{"PRN":11,"el":17,"az":314,"ss":39,"used":true},{"PRN":14,"el":75,"az":15,"ss":44,"used":true},{"PRN":15,"el":18,"az":138,"ss":0,"used":false},{"PRN":18,"el":20,"az":79,"ss":0,"used":false},{"PRN":25,"el":27,"az":172,"ss":39,"used":true},{"PRN":31,"el":27,"az":263,"ss":40,"used":true}]}
$PGRME,19.2,M,28.9,M,34.7,M*17
$GPGLL,3348.451,N,11821.143,W,142224,A*3A
{"class":"TPV","tag":"GLL","mode":3,"time":"2002-10-08T14:22:24.000Z","ept":0.005,"lat":33.807516667,"lon":-118.352383333,"alt":38.000,"epx":28.188,"epy":28.188,"epv":60.004,"track":353.6000,"speed":0.000,"climb":0.000,"eps":19.99}
$PGRMZ,125,f,3*1D
