# Name: Garmin 48
# Chipset: Garmin proprietary
# Description: a handheld from about 2000.
#
# Note that the GPGLL timestamp has a 1-second offset
# from the GPRMC and GPGGA timestamps. Appears to take 2 fixes
# per cycle, GLL can include a fix update!
#
# Submitter: Hamish <hamish_nospam@yahoo.com>
# Date: 2005-03-11
#
# This file is Copyright (c) 2010 by the GPSD project
# BSD terms apply: see the file COPYING in the distribution root for details.
#
$GPRMC,225308,A,4527.458,S,16709.165,E,000.0,094.5,060601,024.1,E*6D
$GPRMB,A,,,,,,,,,,,,V*71
$GPGGA,225308,4527.458,S,16709.165,E,1,05,2.1,14.7,M,1.1,M,,*53
$GPGSA,A,3,01,,,,13,20,22,,,,28,,3.1,2.1,2.0*3A
$GPGSV,3,1,11,01,78,221,47,03,09,042,00,04,05,242,00,06,04,149,00*70
$GPGSV,3,2,11,13,37,235,48,20,41,333,46,22,65,081,46,24,02,205,00*7B
$GPGSV,3,3,11,25,20,108,00,27,08,281,00,28,17,339,39,,,,*4C
$PGRME,9.1,M,15.0,M,12.0,M*21
$GPGLL,4527.458,S,16709.165,E,225309,A*3E
$PGRMZ,48,f,3*27
$PGRMM,WGS 84*06
$GPBOD,,T,,M,,*47
$GPRTE,1,1,c,0*07
$GPRMC,225310,A,4527.458,S,16709.165,E,000.0,094.5,060601,024.1,E*64
$GPRMB,A,,,,,,,,,,,,V*71
$GPGGA,225310,4527.458,S,16709.165,E,1,05,2.1,14.6,M,1.1,M,,*5B
$GPGSA,A,3,01,,,,13,20,22,,,,28,,3.1,2.1,2.0*3A
$GPGSV,3,1,11,01,78,221,47,03,09,042,00,04,05,242,00,06,04,149,00*70
$GPGSV,3,2,11,13,37,235,48,20,41,333,46,22,65,081,46,24,02,205,00*7B
$GPGSV,3,3,11,25,20,108,00,27,08,281,00,28,17,339,39,,,,*4C
$PGRME,9.1,M,15.0,M,12.0,M*21
$GPGLL,4527.458,S,16709.165,E,225311,A*37
$PGRMZ,48,f,3*27
$PGRMM,WGS 84*06
$GPBOD,,T,,M,,*47
$GPRTE,1,1,c,0*07
$GPRMC,225312,A,4527.458,S,16709.165,E,000.0,094.5,060601,024.1,E*66
$GPRMB,A,,,,,,,,,,,,V*71
$GPGGA,225312,4527.458,S,16709.165,E,1,05,2.2,14.7,M,1.1,M,,*5B
$GPGSA,A,3,01,,,,13,20,22,,,,28,,3.2,2.2,2.1*3B
$GPGSV,3,1,11,01,78,221,47,03,09,042,00,04,05,242,00,06,04,149,00*70
$GPGSV,3,2,11,13,37,235,49,20,41,333,46,22,65,081,46,24,02,205,00*7A
$GPGSV,3,3,11,25,20,108,00,27,08,281,00,28,17,339,39,,,,*4C
$PGRME,9.2,M,15.0,M,12.6,M*24
$GPGLL,4527.458,S,16709.165,E,225313,A*35
$PGRMZ,48,f,3*27
$PGRMM,WGS 84*06
$GPBOD,,T,,M,,*47
$GPRTE,1,1,c,0*07
$GPRMC,225314,A,4527.458,S,16709.165,E,000.0,094.5,060601,024.1,E*60
$GPRMB,A,,,,,,,,,,,,V*71
$GPGGA,225314,4527.458,S,16709.165,E,1,05,2.2,14.6,M,1.1,M,,*5C
$GPGSA,A,3,01,,,,13,20,22,,,,28,,3.2,2.2,2.1*3B
$GPGSV,3,1,11,01,78,221,47,03,09,042,00,04,05,242,00,06,04,149,00*70
$GPGSV,3,2,11,13,37,235,49,20,41,333,46,22,65,081,46,24,02,205,00*7A
$GPGSV,3,3,11,25,20,108,00,27,08,281,00,28,17,339,39,,,,*4C
$PGRME,9.2,M,15.0,M,12.6,M*24
$GPGLL,4527.458,S,16709.165,E,225315,A*33
$PGRMZ,48,f,3*27
$PGRMM,WGS 84*06
$GPBOD,,T,,M,,*47
$GPRTE,1,1,c,0*07
$GPRMC,225316,A,4527.458,S,16709.165,E,000.0,094.5,060601,024.1,E*62
$GPRMB,A,,,,,,,,,,,,V*71
$GPGGA,225316,4527.458,S,16709.165,E,1,05,2.2,14.4,M,1.1,M,,*5C
$GPGSA,A,3,01,,,,13,20,22,,,,28,,3.2,2.2,2.1*3B
$GPGSV,3,1,11,01,78,221,47,03,09,042,00,04,05,242,00,06,04,149,00*70
$GPGSV,3,2,11,13,37,235,49,20,40,333,46,22,65,081,46,24,02,205,00*7B
$GPGSV,3,3,11,25,20,108,00,27,08,281,00,28,17,339,39,,,,*4C
$PGRME,9.2,M,15.0,M,12.6,M*24
$GPGLL,4527.458,S,16709.165,E,225317,A*31
$PGRMZ,46,f,3*29
$PGRMM,WGS 84*06
$GPBOD,,T,,M,,*47
$GPRTE,1,1,c,0*07
$GPRMC,225318,A,4527.458,S,16709.165,E,000.0,094.5,060601,024.1,E*6C
$GPRMB,A,,,,,,,,,,,,V*71
$GPGGA,225318,4527.458,S,16709.165,E,1,05,2.2,14.0,M,1.1,M,,*56
$GPGSA,A,3,01,,,,13,20,22,,,,28,,3.2,2.2,2.1*3B
$GPGSV,3,1,11,01,78,221,47,03,09,042,00,04,05,242,00,06,04,149,00*7
$GPGSV,3,1,11,01,78,221,47,03,09,042,00,04,05,242,00,06,04,149,00*70
$GPGSV,3,2,11,13,37,235,49,20,40,333,46,22,65,083,46,24,02,205,00*79
$GPGSV,3,3,11,25,20,108,00,27,08,281,00,28,17,339,40,,,,*42
$PGRME,10.3,M,15.2,M,16.7,M*1A
$GPGLL,4527.458,S,16709.165,E,225333,A*37
$PGRMZ,41,f,3*2E
$PGRMM,WGS 84*06
$GPBOD,,T,,M,,*47
$GPRTE,1,1,c,0*07
$GPRMC,225334,A,4527.458,S,16709.165,E,000.0,094.5,060601,024.1,E*62
$GPRMB,A,,,,,,,,,,,,V*71
$GPGGA,225334,4527.458,S,16709.165,E,1,05,2.4,12.5,M,1.1,M,,*5D
$GPGSA,A,3,01,,,,13,20,22,,,,28,,4.1,2.4,3.0*39
$GPGSV,3,1,11,01,78,221,47,03,09,042,00,04,05,242,00,06,04,149,00*70
$GPGSV,3,2,11,13,37,235,49,20,40,333,46,22,65,083,46,24,02,205,00*79
$GPGSV,3,3,11,25,20,108,00,27,08,281,00,28,17,339,41,,,,*43
$PGRME,10.3,M,15.2,M,16.7,M*1A
$GPGLL,4527.458,S,16709.165,E,225335,A*31
$PGRMZ,41,f,3*2E
$PGRMM,WGS 84*06
$GPBOD,,T,,M,,*47
$GPRTE,1,1,c,0*07
