$GPGSV,6,1,21,67,12,002,40,68,22,053,51,69,08,102,40,74,38,187,00*73
$GPGSV,6,2,21,75,63,278,00,83,15,057,41,84,69,039,44,85,51,252,00*79
$GPGSV,6,3,21,86,01,243,00,02,43,065,50,04,11,040,45,05,09,115,39*74
$GPGSV,6,4,21,10,17,076,42,12,47,124,41,14,02,251,24,21,02,200,00*7E
$GPGSV,6,5,21,23,02,002,45,25,80,156,25,29,58,246,00,30,82,177,00*7D
$GPGSV,6,6,21,31,39,300,00*41
{"class":"SKY","tag":"ID22","satellites":[{"PRN":67,"el":12,"az":2,"ss":40,"used":false},{"PRN":68,"el":22,"az":53,"ss":51,"used":false},{"PRN":69,"el":8,"az":102,"ss":40,"used":false},{"PRN":74,"el":38,"az":187,"ss":0,"used":false},{"PRN":75,"el":63,"az":278,"ss":0,"used":false},{"PRN":83,"el":15,"az":57,"ss":41,"used":false},{"PRN":84,"el":69,"az":39,"ss":44,"used":false},{"PRN":85,"el":51,"az":252,"ss":0,"used":false},{"PRN":86,"el":1,"az":243,"ss":0,"used":false},{"PRN":2,"el":43,"az":65,"ss":50,"used":false},{"PRN":4,"el":11,"az":40,"ss":45,"used":false},{"PRN":5,"el":9,"az":115,"ss":39,"used":false},{"PRN":10,"el":17,"az":76,"ss":42,"used":false},{"PRN":12,"el":47,"az":124,"ss":41,"used":false},{"PRN":14,"el":2,"az":251,"ss":24,"used":false},{"PRN":21,"el":2,"az":200,"ss":0,"used":false},{"PRN":23,"el":2,"az":2,"ss":45,"used":false},{"PRN":25,"el":80,"az":156,"ss":25,"used":false},{"PRN":29,"el":58,"az":246,"ss":0,"used":false},{"PRN":30,"el":82,"az":177,"ss":0,"used":false},{"PRN":31,"el":39,"az":300,"ss":0,"used":false}]}
$GPGGA,125026,5355.1637,N,02730.0245,E,1,10,1.57,273.92,M,23.270,M,,*4B
$GPRMC,125026,A,5355.1637,N,02730.0245,E,0.0319,207.214,070910,,*29
{"class":"TPV","tag":"ID20","mode":3,"time":"2010-09-07T12:50:26.000Z","ept":0.005,"lat":53.919395650,"lon":27.500408874,"alt":273.924,"epv":39.833,"track":207.2138,"speed":0.016}
$GPGSV,6,1,21,67,12,002,40,68,22,053,52,69,08,102,40,74,38,187,00*70
$GPGSV,6,2,21,75,63,278,00,83,15,057,41,84,69,039,45,85,51,252,00*78
$GPGSV,6,3,21,86,01,243,00,02,43,065,50,04,11,040,46,05,09,115,38*76
$GPGSV,6,4,21,10,17,076,42,12,47,124,41,14,02,251,24,21,02,200,00*7E
$GPGSV,6,5,21,23,02,002,45,25,80,156,26,29,58,246,00,30,82,177,00*7E
$GPGSV,6,6,21,31,39,300,00*41
{"class":"SKY","tag":"ID22","xdop":0.58,"ydop":0.70,"vdop":1.73,"tdop":1.62,"hdop":1.57,"gdop":2.85,"pdop":2.34,"satellites":[{"PRN":67,"el":12,"az":2,"ss":40,"used":true},{"PRN":68,"el":22,"az":53,"ss":52,"used":true},{"PRN":69,"el":8,"az":102,"ss":40,"used":true},{"PRN":74,"el":38,"az":187,"ss":0,"used":false},{"PRN":75,"el":63,"az":278,"ss":0,"used":false},{"PRN":83,"el":15,"az":57,"ss":41,"used":true},{"PRN":84,"el":69,"az":39,"ss":45,"used":true},{"PRN":85,"el":51,"az":252,"ss":0,"used":false},{"PRN":86,"el":1,"az":243,"ss":0,"used":false},{"PRN":2,"el":43,"az":65,"ss":50,"used":true},{"PRN":4,"el":11,"az":40,"ss":46,"used":true},{"PRN":5,"el":9,"az":115,"ss":38,"used":true},{"PRN":10,"el":17,"az":76,"ss":42,"used":true},{"PRN":12,"el":47,"az":124,"ss":41,"used":true},{"PRN":14,"el":2,"az":251,"ss":24,"used":false},{"PRN":21,"el":2,"az":200,"ss":0,"used":false},{"PRN":23,"el":2,"az":2,"ss":45,"used":false},{"PRN":25,"el":80,"az":156,"ss":26,"used":false},{"PRN":29,"el":58,"az":246,"ss":0,"used":false},{"PRN":30,"el":82,"az":177,"ss":0,"used":false},{"PRN":31,"el":39,"az":300,"ss":0,"used":false}]}
$GPGGA,125027,5355.1638,N,02730.0245,E,1,10,1.57,273.77,M,23.270,M,,*4E
$GPRMC,125027,A,5355.1638,N,02730.0245,E,0.0338,208.578,070910,,*26
$GPGBS,125027,8.68,M,10.56,M,39.83,M*38
{"class":"TPV","tag":"ID20","mode":3,"time":"2010-09-07T12:50:27.000Z","ept":0.005,"lat":53.919396388,"lon":27.500408124,"alt":273.773,"epx":8.678,"epy":10.558,"epv":39.833,"track":208.5776,"speed":0.017,"climb":0.000,"eps":21.12}
$GPGSV,6,1,21,67,12,002,41,68,22,053,52,69,08,102,40,74,38,187,00*71
$GPGSV,6,2,21,75,63,278,00,83,15,057,41,84,69,039,44,85,51,252,00*79
$GPGSV,6,3,21,86,01,243,00,02,43,065,50,04,11,040,46,05,09,115,38*76
$GPGSV,6,4,21,10,17,076,41,12,47,124,41,14,02,251,22,21,02,200,00*7B
$GPGSV,6,5,21,23,02,002,45,25,80,156,25,29,58,246,00,30,82,177,00*7D
$GPGSV,6,6,21,31,39,300,00*41
{"class":"SKY","tag":"ID22","xdop":0.58,"ydop":0.70,"vdop":1.73,"tdop":1.62,"hdop":1.57,"gdop":2.85,"pdop":2.34,"satellites":[{"PRN":67,"el":12,"az":2,"ss":41,"used":true},{"PRN":68,"el":22,"az":53,"ss":52,"used":true},{"PRN":69,"el":8,"az":102,"ss":40,"used":true},{"PRN":74,"el":38,"az":187,"ss":0,"used":false},{"PRN":75,"el":63,"az":278,"ss":0,"used":false},{"PRN":83,"el":15,"az":57,"ss":41,"used":true},{"PRN":84,"el":69,"az":39,"ss":44,"used":true},{"PRN":85,"el":51,"az":252,"ss":0,"used":false},{"PRN":86,"el":1,"az":243,"ss":0,"used":false},{"PRN":2,"el":43,"az":65,"ss":50,"used":true},{"PRN":4,"el":11,"az":40,"ss":46,"used":true},{"PRN":5,"el":9,"az":115,"ss":38,"used":true},{"PRN":10,"el":17,"az":76,"ss":41,"used":true},{"PRN":12,"el":47,"az":124,"ss":41,"used":true},{"PRN":14,"el":2,"az":251,"ss":22,"used":false},{"PRN":21,"el":2,"az":200,"ss":0,"used":false},{"PRN":23,"el":2,"az":2,"ss":45,"used":false},{"PRN":25,"el":80,"az":156,"ss":25,"used":false},{"PRN":29,"el":58,"az":246,"ss":0,"used":false},{"PRN":30,"el":82,"az":177,"ss":0,"used":false},{"PRN":31,"el":39,"az":300,"ss":0,"used":false}]}
$GPGGA,125028,5355.1638,N,02730.0246,E,1,10,1.57,273.77,M,23.260,M,,*43
$GPRMC,125028,A,5355.1638,N,02730.0246,E,0.0304,198.298,070910,,*26
$GPGBS,125028,8.68,M,10.56,M,39.83,M*37
{"class":"TPV","tag":"ID20","mode":3,"time":"2010-09-07T12:50:28.000Z","ept":0.005,"lat":53.919396987,"lon":27.500409347,"alt":273.769,"epx":8.678,"epy":10.558,"epv":39.833,"track":198.2983,"speed":0.016,"climb":0.000,"eps":21.12}
$GPGSV,6,1,21,67,12,002,41,68,22,053,52,69,08,102,40,74,38,187,00*71
$GPGSV,6,2,21,75,63,278,00,83,15,058,41,84,69,039,44,85,51,252,00*76
$GPGSV,6,3,21,86,01,243,00,02,43,065,50,04,11,040,46,05,09,115,38*76
$GPGSV,6,4,21,10,17,076,41,12,47,124,41,14,02,251,23,21,02,200,00*7A
$GPGSV,6,5,21,23,02,002,45,25,80,156,25,29,58,246,00,30,82,177,00*7D
$GPGSV,6,6,21,31,39,300,00*41
{"class":"SKY","tag":"ID22","xdop":0.58,"ydop":0.70,"vdop":1.73,"tdop":1.62,"hdop":1.57,"gdop":2.85,"pdop":2.34,"satellites":[{"PRN":67,"el":12,"az":2,"ss":41,"used":true},{"PRN":68,"el":22,"az":53,"ss":52,"used":true},{"PRN":69,"el":8,"az":102,"ss":40,"used":true},{"PRN":74,"el":38,"az":187,"ss":0,"used":false},{"PRN":75,"el":63,"az":278,"ss":0,"used":false},{"PRN":83,"el":15,"az":58,"ss":41,"used":true},{"PRN":84,"el":69,"az":39,"ss":44,"used":true},{"PRN":85,"el":51,"az":252,"ss":0,"used":false},{"PRN":86,"el":1,"az":243,"ss":0,"used":false},{"PRN":2,"el":43,"az":65,"ss":50,"used":true},{"PRN":4,"el":11,"az":40,"ss":46,"used":true},{"PRN":5,"el":9,"az":115,"ss":38,"used":true},{"PRN":10,"el":17,"az":76,"ss":41,"used":true},{"PRN":12,"el":47,"az":124,"ss":41,"used":true},{"PRN":14,"el":2,"az":251,"ss":23,"used":false},{"PRN":21,"el":2,"az":200,"ss":0,"used":false},{"PRN":23,"el":2,"az":2,"ss":45,"used":false},{"PRN":25,"el":80,"az":156,"ss":25,"used":false},{"PRN":29,"el":58,"az":246,"ss":0,"used":false},{"PRN":30,"el":82,"az":177,"ss":0,"used":false},{"PRN":31,"el":39,"az":300,"ss":0,"used":false}]}
$GPGGA,125029,5355.1639,N,02730.0248,E,1,10,1.57,273.92,M,23.252,M,,*47
$GPRMC,125029,A,5355.1639,N,02730.0248,E,0.0266,178.518,070910,,*2C
$GPGBS,125029,8.68,M,10.56,M,39.83,M*36
{"class":"TPV","tag":"ID20","mode":3,"time":"2010-09-07T12:50:29.000Z","ept":0.005,"lat":53.919397821,"lon":27.500413011,"alt":273.924,"epx":8.678,"epy":10.558,"epv":39.833,"track":178.5179,"speed":0.014,"climb":0.000,"eps":21.12}
$GPGSV,6,1,21,67,12,002,41,68,22,053,51,69,08,102,40,74,38,187,00*72
$GPGSV,6,2,21,75,63,278,00,83,15,058,41,84,68,039,44,85,51,252,00*77
$GPGSV,6,3,21,86,01,243,00,02,43,065,50,04,11,040,46,05,09,115,37*79
$GPGSV,6,4,21,10,17,076,41,12,47,124,42,14,02,251,23,21,02,200,00*79
$GPGSV,6,5,21,23,02,002,45,25,80,156,26,29,58,246,00,30,82,177,00*7E
$GPGSV,6,6,21,31,39,300,00*41
{"class":"SKY","tag":"ID22","xdop":0.58,"ydop":0.70,"vdop":1.73,"tdop":1.62,"hdop":1.57,"gdop":2.85,"pdop":2.34,"satellites":[{"PRN":67,"el":12,"az":2,"ss":41,"used":true},{"PRN":68,"el":22,"az":53,"ss":51,"used":true},{"PRN":69,"el":8,"az":102,"ss":40,"used":true},{"PRN":74,"el":38,"az":187,"ss":0,"used":false},{"PRN":75,"el":63,"az":278,"ss":0,"used":false},{"PRN":83,"el":15,"az":58,"ss":41,"used":true},{"PRN":84,"el":68,"az":39,"ss":44,"used":true},{"PRN":85,"el":51,"az":252,"ss":0,"used":false},{"PRN":86,"el":1,"az":243,"ss":0,"used":false},{"PRN":2,"el":43,"az":65,"ss":50,"used":true},{"PRN":4,"el":11,"az":40,"ss":46,"used":true},{"PRN":5,"el":9,"az":115,"ss":37,"used":true},{"PRN":10,"el":17,"az":76,"ss":41,"used":true},{"PRN":12,"el":47,"az":124,"ss":42,"used":true},{"PRN":14,"el":2,"az":251,"ss":23,"used":false},{"PRN":21,"el":2,"az":200,"ss":0,"used":false},{"PRN":23,"el":2,"az":2,"ss":45,"used":false},{"PRN":25,"el":80,"az":156,"ss":26,"used":false},{"PRN":29,"el":58,"az":246,"ss":0,"used":false},{"PRN":30,"el":82,"az":177,"ss":0,"used":false},{"PRN":31,"el":39,"az":300,"ss":0,"used":false}]}
$GPGGA,125030,5355.1639,N,02730.0248,E,1,10,1.57,273.96,M,23.252,M,,*4B
$GPRMC,125030,A,5355.1639,N,02730.0248,E,0.0264,159.626,070910,,*2B
$GPGBS,125030,8.68,M,10.56,M,39.83,M*3E
{"class":"TPV","tag":"ID20","mode":3,"time":"2010-09-07T12:50:30.000Z","ept":0.005,"lat":53.919397886,"lon":27.500413420,"alt":273.958,"epx":8.678,"epy":10.558,"epv":39.833,"track":159.6258,"speed":0.014,"climb":0.000,"eps":21.12}
$GPGSV,6,1,21,67,12,002,41,68,22,053,51,69,08,102,40,74,38,187,00*72
$GPGSV,6,2,21,75,63,278,00,83,15,058,41,84,68,039,44,85,51,253,00*76
$GPGSV,6,3,21,86,01,243,00,02,43,065,50,04,11,040,46,05,09,115,37*79
$GPGSV,6,4,21,10,17,076,42,12,47,124,41,14,02,251,23,21,02,200,00*79
$GPGSV,6,5,21,23,02,002,45,25,80,156,25,29,58,246,00,30,82,177,00*7D
$GPGSV,6,6,21,31,39,300,00*41
{"class":"SKY","tag":"ID22","xdop":0.58,"ydop":0.70,"vdop":1.73,"tdop":1.62,"hdop":1.57,"gdop":2.85,"pdop":2.34,"satellites":[{"PRN":67,"el":12,"az":2,"ss":41,"used":true},{"PRN":68,"el":22,"az":53,"ss":51,"used":true},{"PRN":69,"el":8,"az":102,"ss":40,"used":true},{"PRN":74,"el":38,"az":187,"ss":0,"used":false},{"PRN":75,"el":63,"az":278,"ss":0,"used":false},{"PRN":83,"el":15,"az":58,"ss":41,"used":true},{"PRN":84,"el":68,"az":39,"ss":44,"used":true},{"PRN":85,"el":51,"az":253,"ss":0,"used":false},{"PRN":86,"el":1,"az":243,"ss":0,"used":false},{"PRN":2,"el":43,"az":65,"ss":50,"used":true},{"PRN":4,"el":11,"az":40,"ss":46,"used":true},{"PRN":5,"el":9,"az":115,"ss":37,"used":true},{"PRN":10,"el":17,"az":76,"ss":42,"used":true},{"PRN":12,"el":47,"az":124,"ss":41,"used":true},{"PRN":14,"el":2,"az":251,"ss":23,"used":false},{"PRN":21,"el":2,"az":200,"ss":0,"used":false},{"PRN":23,"el":2,"az":2,"ss":45,"used":false},{"PRN":25,"el":80,"az":156,"ss":25,"used":false},{"PRN":29,"el":58,"az":246,"ss":0,"used":false},{"PRN":30,"el":82,"az":177,"ss":0,"used":false},{"PRN":31,"el":39,"az":300,"ss":0,"used":false}]}
$GPGGA,125031,5355.1638,N,02730.0247,E,1,10,1.57,273.92,M,23.320,M,,*44
$GPRMC,125031,A,5355.1638,N,02730.0247,E,0.0267,153.565,070910,,*29
$GPGBS,125031,8.68,M,10.56,M,39.83,M*3F
{"class":"TPV","tag":"ID20","mode":3,"time":"2010-09-07T12:50:31.000Z","ept":0.005,"lat":53.919397367,"lon":27.500411527,"alt":273.917,"epx":8.678,"epy":10.558,"epv":39.833,"track":153.5651,"speed":0.014,"climb":0.000,"eps":21.12}
$GPGSV,6,1,21,67,12,002,41,68,22,053,51,69,08,102,40,74,38,187,00*72
$GPGSV,6,2,21,75,63,278,00,83,15,058,41,84,68,039,44,85,51,253,00*76
$GPGSV,6,3,21,86,01,243,00,02,43,065,50,04,11,040,46,05,09,115,36*78
$GPGSV,6,4,21,10,17,076,42,12,47,124,41,14,02,251,24,21,02,200,00*7E
$GPGSV,6,5,21,23,02,002,45,25,80,156,26,29,58,246,00,30,82,177,00*7E
$GPGSV,6,6,21,31,39,300,00*41
{"class":"SKY","tag":"ID22","xdop":0.58,"ydop":0.70,"vdop":1.73,"tdop":1.62,"hdop":1.57,"gdop":2.85,"pdop":2.34,"satellites":[{"PRN":67,"el":12,"az":2,"ss":41,"used":true},{"PRN":68,"el":22,"az":53,"ss":51,"used":true},{"PRN":69,"el":8,"az":102,"ss":40,"used":true},{"PRN":74,"el":38,"az":187,"ss":0,"used":false},{"PRN":75,"el":63,"az":278,"ss":0,"used":false},{"PRN":83,"el":15,"az":58,"ss":41,"used":true},{"PRN":84,"el":68,"az":39,"ss":44,"used":true},{"PRN":85,"el":51,"az":253,"ss":0,"used":false},{"PRN":86,"el":1,"az":243,"ss":0,"used":false},{"PRN":2,"el":43,"az":65,"ss":50,"used":true},{"PRN":4,"el":11,"az":40,"ss":46,"used":true},{"PRN":5,"el":9,"az":115,"ss":36,"used":true},{"PRN":10,"el":17,"az":76,"ss":42,"used":true},{"PRN":12,"el":47,"az":124,"ss":41,"used":true},{"PRN":14,"el":2,"az":251,"ss":24,"used":false},{"PRN":21,"el":2,"az":200,"ss":0,"used":false},{"PRN":23,"el":2,"az":2,"ss":45,"used":false},{"PRN":25,"el":80,"az":156,"ss":26,"used":false},{"PRN":29,"el":58,"az":246,"ss":0,"used":false},{"PRN":30,"el":82,"az":177,"ss":0,"used":false},{"PRN":31,"el":39,"az":300,"ss":0,"used":false}]}
$GPGGA,125032,5355.1638,N,02730.0245,E,1,10,1.57,273.73,M,23.270,M,,*4E
$GPRMC,125032,A,5355.1638,N,02730.0245,E,0.0290,163.342,070910,,*20
$GPGBS,125032,8.68,M,10.56,M,39.83,M*3C
{"class":"TPV","tag":"ID20","mode":3,"time":"2010-09-07T12:50:32.000Z","ept":0.005,"lat":53.919396279,"lon":27.500408324,"alt":273.735,"epx":8.678,"epy":10.558,"epv":39.833,"track":163.3422,"speed":0.015,"climb":0.000,"eps":21.12}
$GPGSV,6,1,21,67,12,002,41,68,22,053,52,69,08,102,41,74,38,187,00*70
$GPGSV,6,2,21,75,63,278,00,83,15,058,41,84,68,039,44,85,51,253,00*76
$GPGSV,6,3,21,86,01,243,00,02,43,065,49,04,11,040,46,05,09,115,36*70
$GPGSV,6,4,21,10,17,076,42,12,47,124,41,14,02,251,23,21,02,200,00*79
$GPGSV,6,5,21,23,02,002,45,25,80,156,26,29,58,246,00,30,82,177,00*7E
$GPGSV,6,6,21,31,39,300,00*41
{"class":"SKY","tag":"ID22","xdop":0.58,"ydop":0.70,"vdop":1.73,"tdop":1.62,"hdop":1.57,"gdop":2.85,"pdop":2.34,"satellites":[{"PRN":67,"el":12,"az":2,"ss":41,"used":true},{"PRN":68,"el":22,"az":53,"ss":52,"used":true},{"PRN":69,"el":8,"az":102,"ss":41,"used":true},{"PRN":74,"el":38,"az":187,"ss":0,"used":false},{"PRN":75,"el":63,"az":278,"ss":0,"used":false},{"PRN":83,"el":15,"az":58,"ss":41,"used":true},{"PRN":84,"el":68,"az":39,"ss":44,"used":true},{"PRN":85,"el":51,"az":253,"ss":0,"used":false},{"PRN":86,"el":1,"az":243,"ss":0,"used":false},{"PRN":2,"el":43,"az":65,"ss":49,"used":true},{"PRN":4,"el":11,"az":40,"ss":46,"used":true},{"PRN":5,"el":9,"az":115,"ss":36,"used":true},{"PRN":10,"el":17,"az":76,"ss":42,"used":true},{"PRN":12,"el":47,"az":124,"ss":41,"used":true},{"PRN":14,"el":2,"az":251,"ss":23,"used":false},{"PRN":21,"el":2,"az":200,"ss":0,"used":false},{"PRN":23,"el":2,"az":2,"ss":45,"used":false},{"PRN":25,"el":80,"az":156,"ss":26,"used":false},{"PRN":29,"el":58,"az":246,"ss":0,"used":false},{"PRN":30,"el":82,"az":177,"ss":0,"used":false},{"PRN":31,"el":39,"az":300,"ss":0,"used":false}]}
$GPGGA,125033,5355.1637,N,02730.0242,E,1,10,1.57,273.59,M,23.275,M,,*4A
$GPRMC,125033,A,5355.1637,N,02730.0242,E,0.0313,167.365,070910,,*22
$GPGBS,125033,8.68,M,10.56,M,39.83,M*3D
{"class":"TPV","tag":"ID20","mode":3,"time":"2010-09-07T12:50:33.000Z","ept":0.005,"lat":53.919394865,"lon":27.500403960,"alt":273.591,"epx":8.678,"epy":10.558,"epv":39.833,"track":167.3652,"speed":0.016,"climb":0.000,"eps":21.12}
$GPGSV,6,1,21,67,12,002,41,68,22,053,52,69,08,102,40,74,38,187,00*71
$GPGSV,6,2,21,75,63,278,00,83,15,058,41,84,68,039,44,85,51,253,00*76
$GPGSV,6,3,21,86,01,243,00,02,43,065,50,04,11,040,46,05,09,115,36*78
$GPGSV,6,4,21,10,17,076,42,12,47,124,41,14,02,251,23,21,02,200,00*79
$GPGSV,6,5,21,23,02,002,45,25,80,156,25,29,58,246,00,30,82,177,00*7D
$GPGSV,6,6,21,31,39,300,00*41
{"class":"SKY","tag":"ID22","xdop":0.58,"ydop":0.70,"vdop":1.73,"tdop":1.62,"hdop":1.57,"gdop":2.85,"pdop":2.34,"satellites":[{"PRN":67,"el":12,"az":2,"ss":41,"used":true},{"PRN":68,"el":22,"az":53,"ss":52,"used":true},{"PRN":69,"el":8,"az":102,"ss":40,"used":true},{"PRN":74,"el":38,"az":187,"ss":0,"used":false},{"PRN":75,"el":63,"az":278,"ss":0,"used":false},{"PRN":83,"el":15,"az":58,"ss":41,"used":true},{"PRN":84,"el":68,"az":39,"ss":44,"used":true},{"PRN":85,"el":51,"az":253,"ss":0,"used":false},{"PRN":86,"el":1,"az":243,"ss":0,"used":false},{"PRN":2,"el":43,"az":65,"ss":50,"used":true},{"PRN":4,"el":11,"az":40,"ss":46,"used":true},{"PRN":5,"el":9,"az":115,"ss":36,"used":true},{"PRN":10,"el":17,"az":76,"ss":42,"used":true},{"PRN":12,"el":47,"az":124,"ss":41,"used":true},{"PRN":14,"el":2,"az":251,"ss":23,"used":false},{"PRN":21,"el":2,"az":200,"ss":0,"used":false},{"PRN":23,"el":2,"az":2,"ss":45,"used":false},{"PRN":25,"el":80,"az":156,"ss":25,"used":false},{"PRN":29,"el":58,"az":246,"ss":0,"used":false},{"PRN":30,"el":82,"az":177,"ss":0,"used":false},{"PRN":31,"el":39,"az":300,"ss":0,"used":false}]}
$GPGGA,125034,5355.1636,N,02730.0239,E,1,10,1.57,273.37,M,23.270,M,,*4D
$GPRMC,125034,A,5355.1636,N,02730.0239,E,0.0331,173.708,070910,,*22
$GPGBS,125034,8.68,M,10.56,M,39.83,M*3A
{"class":"TPV","tag":"ID20","mode":3,"time":"2010-09-07T12:50:34.000Z","ept":0.005,"lat":53.919392817,"lon":27.500398751,"alt":273.373,"epx":8.678,"epy":10.558,"epv":39.833,"track":173.7081,"speed":0.017,"climb":0.000,"eps":21.12}
$GPGSV,6,1,21,67,12,002,41,68,22,053,52,69,08,102,41,74,38,187,00*70
$GPGSV,6,2,21,75,63,278,00,83,15,058,40,84,68,039,44,85,51,253,00*77
$GPGSV,6,3,21,86,01,243,00,02,43,065,49,04,11,040,45,05,09,115,36*73
$GPGSV,6,4,21,10,17,076,42,12,47,124,40,14,02,251,22,21,02,200,00*79
$GPGSV,6,5,21,23,02,002,45,25,80,156,25,29,58,246,00,30,82,177,00*7D
$GPGSV,6,6,21,31,39,300,00*41
{"class":"SKY","tag":"ID22","xdop":0.58,"ydop":0.70,"vdop":1.73,"tdop":1.62,"hdop":1.57,"gdop":2.85,"pdop":2.34,"satellites":[{"PRN":67,"el":12,"az":2,"ss":41,"used":true},{"PRN":68,"el":22,"az":53,"ss":52,"used":true},{"PRN":69,"el":8,"az":102,"ss":41,"used":true},{"PRN":74,"el":38,"az":187,"ss":0,"used":false},{"PRN":75,"el":63,"az":278,"ss":0,"used":false},{"PRN":83,"el":15,"az":58,"ss":40,"used":true},{"PRN":84,"el":68,"az":39,"ss":44,"used":true},{"PRN":85,"el":51,"az":253,"ss":0,"used":false},{"PRN":86,"el":1,"az":243,"ss":0,"used":false},{"PRN":2,"el":43,"az":65,"ss":49,"used":true},{"PRN":4,"el":11,"az":40,"ss":45,"used":true},{"PRN":5,"el":9,"az":115,"ss":36,"used":true},{"PRN":10,"el":17,"az":76,"ss":42,"used":true},{"PRN":12,"el":47,"az":124,"ss":40,"used":true},{"PRN":14,"el":2,"az":251,"ss":22,"used":false},{"PRN":21,"el":2,"az":200,"ss":0,"used":false},{"PRN":23,"el":2,"az":2,"ss":45,"used":false},{"PRN":25,"el":80,"az":156,"ss":25,"used":false},{"PRN":29,"el":58,"az":246,"ss":0,"used":false},{"PRN":30,"el":82,"az":177,"ss":0,"used":false},{"PRN":31,"el":39,"az":300,"ss":0,"used":false}]}
$GPGGA,125035,5355.1635,N,02730.0237,E,1,10,1.57,273.19,M,23.309,M,,*42
$GPRMC,125035,A,5355.1635,N,02730.0237,E,0.0336,181.518,070910,,*27
$GPGBS,125035,8.68,M,10.56,M,39.83,M*3B
{"class":"TPV","tag":"ID20","mode":3,"time":"2010-09-07T12:50:35.000Z","ept":0.005,"lat":53.919391514,"lon":27.500394261,"alt":273.192,"epx":8.678,"epy":10.558,"epv":39.833,"track":181.5176,"speed":0.017,"climb":0.000,"eps":21.12}
$GPGSV,6,1,21,67,12,002,42,68,22,053,51,69,08,102,40,74,38,187,00*71
$GPGSV,6,2,21,75,63,278,00,83,15,058,41,84,68,039,44,85,51,253,00*76
$GPGSV,6,3,21,86,01,243,00,02,42,065,50,04,11,040,45,05,09,115,37*7B
$GPGSV,6,4,21,10,17,076,42,12,47,124,40,14,02,251,23,21,02,200,00*78
$GPGSV,6,5,21,23,02,002,46,25,80,156,25,29,58,246,00,30,82,177,00*7E
$GPGSV,6,6,21,31,39,300,00*41
{"class":"SKY","tag":"ID22","xdop":0.58,"ydop":0.70,"vdop":1.73,"tdop":1.62,"hdop":1.57,"gdop":2.85,"pdop":2.34,"satellites":[{"PRN":67,"el":12,"az":2,"ss":42,"used":true},{"PRN":68,"el":22,"az":53,"ss":51,"used":true},{"PRN":69,"el":8,"az":102,"ss":40,"used":true},{"PRN":74,"el":38,"az":187,"ss":0,"used":false},{"PRN":75,"el":63,"az":278,"ss":0,"used":false},{"PRN":83,"el":15,"az":58,"ss":41,"used":true},{"PRN":84,"el":68,"az":39,"ss":44,"used":true},{"PRN":85,"el":51,"az":253,"ss":0,"used":false},{"PRN":86,"el":1,"az":243,"ss":0,"used":false},{"PRN":2,"el":42,"az":65,"ss":50,"used":true},{"PRN":4,"el":11,"az":40,"ss":45,"used":true},{"PRN":5,"el":9,"az":115,"ss":37,"used":true},{"PRN":10,"el":17,"az":76,"ss":42,"used":true},{"PRN":12,"el":47,"az":124,"ss":40,"used":true},{"PRN":14,"el":2,"az":251,"ss":23,"used":false},{"PRN":21,"el":2,"az":200,"ss":0,"used":false},{"PRN":23,"el":2,"az":2,"ss":46,"used":false},{"PRN":25,"el":80,"az":156,"ss":25,"used":false},{"PRN":29,"el":58,"az":246,"ss":0,"used":false},{"PRN":30,"el":82,"az":177,"ss":0,"used":false},{"PRN":31,"el":39,"az":300,"ss":0,"used":false}]}
$GPGGA,125036,5355.1634,N,02730.0235,E,1,10,1.57,273.14,M,23.289,M,,*46
$GPRMC,125036,A,5355.1634,N,02730.0235,E,0.0313,179.821,070910,,*20
$GPGBS,125036,8.68,M,10.56,M,39.83,M*38
{"class":"TPV","tag":"ID20","mode":3,"time":"2010-09-07T12:50:36.000Z","ept":0.005,"lat":53.919390770,"lon":27.500392434,"alt":273.139,"epx":8.678,"epy":10.558,"epv":39.833,"track":179.8206,"speed":0.016,"climb":0.000,"eps":21.12}
$GPGSV,6,1,21,67,12,002,42,68,22,053,51,69,08,102,41,74,38,187,00*70
$GPGSV,6,2,21,75,63,278,00,83,15,058,41,84,68,039,44,85,51,253,00*76
$GPGSV,6,3,21,86,01,243,00,02,42,065,49,04,11,040,45,05,09,115,36*72
$GPGSV,6,4,21,10,17,076,42,12,47,124,40,14,02,251,23,21,02,200,00*78
$GPGSV,6,5,21,23,02,002,46,25,80,156,25,29,58,246,00,30,82,177,00*7E
$GPGSV,6,6,21,31,39,300,00*41
{"class":"SKY","tag":"ID22","xdop":0.58,"ydop":0.70,"vdop":1.73,"tdop":1.62,"hdop":1.57,"gdop":2.85,"pdop":2.34,"satellites":[{"PRN":67,"el":12,"az":2,"ss":42,"used":true},{"PRN":68,"el":22,"az":53,"ss":51,"used":true},{"PRN":69,"el":8,"az":102,"ss":41,"used":true},{"PRN":74,"el":38,"az":187,"ss":0,"used":false},{"PRN":75,"el":63,"az":278,"ss":0,"used":false},{"PRN":83,"el":15,"az":58,"ss":41,"used":true},{"PRN":84,"el":68,"az":39,"ss":44,"used":true},{"PRN":85,"el":51,"az":253,"ss":0,"used":false},{"PRN":86,"el":1,"az":243,"ss":0,"used":false},{"PRN":2,"el":42,"az":65,"ss":49,"used":true},{"PRN":4,"el":11,"az":40,"ss":45,"used":true},{"PRN":5,"el":9,"az":115,"ss":36,"used":true},{"PRN":10,"el":17,"az":76,"ss":42,"used":true},{"PRN":12,"el":47,"az":124,"ss":40,"used":true},{"PRN":14,"el":2,"az":251,"ss":23,"used":false},{"PRN":21,"el":2,"az":200,"ss":0,"used":false},{"PRN":23,"el":2,"az":2,"ss":46,"used":false},{"PRN":25,"el":80,"az":156,"ss":25,"used":false},{"PRN":29,"el":58,"az":246,"ss":0,"used":false},{"PRN":30,"el":82,"az":177,"ss":0,"used":false},{"PRN":31,"el":39,"az":300,"ss":0,"used":false}]}
$GPGGA,125037,5355.1634,N,02730.0234,E,1,10,1.57,273.07,M,23.281,M,,*4C
$GPRMC,125037,A,5355.1634,N,02730.0234,E,0.0285,177.261,070910,,*2E
$GPGBS,125037,8.68,M,10.56,M,39.83,M*39
{"class":"TPV","tag":"ID20","mode":3,"time":"2010-09-07T12:50:37.000Z","ept":0.005,"lat":53.919390171,"lon":27.500390212,"alt":273.070,"epx":8.678,"epy":10.558,"epv":39.833,"track":177.2605,"speed":0.015,"climb":0.000,"eps":21.12}
$GPGSV,6,1,21,67,12,002,42,68,22,053,52,69,08,102,41,74,38,187,00*73
$GPGSV,6,2,21,75,63,278,00,83,15,058,41,84,68,039,44,85,51,253,00*76
$GPGSV,6,3,21,86,01,243,00,02,42,065,50,04,11,040,46,05,09,115,37*78
$GPGSV,6,4,21,10,17,076,42,12,47,124,41,14,02,251,24,21,02,200,00*7E
$GPGSV,6,5,21,23,02,002,46,25,80,156,26,29,58,246,00,30,82,177,00*7D
$GPGSV,6,6,21,31,39,300,00*41
{"class":"SKY","tag":"ID22","xdop":0.58,"ydop":0.70,"vdop":1.73,"tdop":1.62,"hdop":1.57,"gdop":2.85,"pdop":2.34,"satellites":[{"PRN":67,"el":12,"az":2,"ss":42,"used":true},{"PRN":68,"el":22,"az":53,"ss":52,"used":true},{"PRN":69,"el":8,"az":102,"ss":41,"used":true},{"PRN":74,"el":38,"az":187,"ss":0,"used":false},{"PRN":75,"el":63,"az":278,"ss":0,"used":false},{"PRN":83,"el":15,"az":58,"ss":41,"used":true},{"PRN":84,"el":68,"az":39,"ss":44,"used":true},{"PRN":85,"el":51,"az":253,"ss":0,"used":false},{"PRN":86,"el":1,"az":243,"ss":0,"used":false},{"PRN":2,"el":42,"az":65,"ss":50,"used":true},{"PRN":4,"el":11,"az":40,"ss":46,"used":true},{"PRN":5,"el":9,"az":115,"ss":37,"used":true},{"PRN":10,"el":17,"az":76,"ss":42,"used":true},{"PRN":12,"el":47,"az":124,"ss":41,"used":true},{"PRN":14,"el":2,"az":251,"ss":24,"used":false},{"PRN":21,"el":2,"az":200,"ss":0,"used":false},{"PRN":23,"el":2,"az":2,"ss":46,"used":false},{"PRN":25,"el":80,"az":156,"ss":26,"used":false},{"PRN":29,"el":58,"az":246,"ss":0,"used":false},{"PRN":30,"el":82,"az":177,"ss":0,"used":false},{"PRN":31,"el":39,"az":300,"ss":0,"used":false}]}
$GPGGA,125038,5355.1634,N,02730.0234,E,1,10,1.57,273.00,M,23.295,M,,*41
$GPRMC,125038,A,5355.1634,N,02730.0234,E,0.0229,167.311,070910,,*20
$GPGBS,125038,8.68,M,10.56,M,39.83,M*36
{"class":"TPV","tag":"ID20","mode":3,"time":"2010-09-07T12:50:38.000Z","ept":0.005,"lat":53.919390262,"lon":27.500389371,"alt":273.001,"epx":8.678,"epy":10.558,"epv":39.833,"track":167.3112,"speed":0.012,"climb":0.000,"eps":21.12}
$GPGSV,6,1,21,67,12,002,42,68,22,053,51,69,08,102,40,74,38,187,00*71
$GPGSV,6,2,21,75,63,278,00,83,15,058,40,84,68,039,44,85,51,253,00*77
$GPGSV,6,3,21,86,01,243,00,02,42,065,50,04,11,040,45,05,09,115,37*7B
$GPGSV,6,4,21,10,17,076,42,12,47,124,40,14,02,251,24,21,02,200,00*7F
$GPGSV,6,5,21,23,02,002,46,25,80,156,26,29,58,246,00,30,82,177,00*7D
$GPGSV,6,6,21,31,39,300,00*41
{"class":"SKY","tag":"ID22","xdop":0.58,"ydop":0.70,"vdop":1.73,"tdop":1.62,"hdop":1.57,"gdop":2.85,"pdop":2.34,"satellites":[{"PRN":67,"el":12,"az":2,"ss":42,"used":true},{"PRN":68,"el":22,"az":53,"ss":51,"used":true},{"PRN":69,"el":8,"az":102,"ss":40,"used":true},{"PRN":74,"el":38,"az":187,"ss":0,"used":false},{"PRN":75,"el":63,"az":278,"ss":0,"used":false},{"PRN":83,"el":15,"az":58,"ss":40,"used":true},{"PRN":84,"el":68,"az":39,"ss":44,"used":true},{"PRN":85,"el":51,"az":253,"ss":0,"used":false},{"PRN":86,"el":1,"az":243,"ss":0,"used":false},{"PRN":2,"el":42,"az":65,"ss":50,"used":true},{"PRN":4,"el":11,"az":40,"ss":45,"used":true},{"PRN":5,"el":9,"az":115,"ss":37,"used":true},{"PRN":10,"el":17,"az":76,"ss":42,"used":true},{"PRN":12,"el":47,"az":124,"ss":40,"used":true},{"PRN":14,"el":2,"az":251,"ss":24,"used":false},{"PRN":21,"el":2,"az":200,"ss":0,"used":false},{"PRN":23,"el":2,"az":2,"ss":46,"used":false},{"PRN":25,"el":80,"az":156,"ss":26,"used":false},{"PRN":29,"el":58,"az":246,"ss":0,"used":false},{"PRN":30,"el":82,"az":177,"ss":0,"used":false},{"PRN":31,"el":39,"az":300,"ss":0,"used":false}]}
$GPGGA,125039,5355.1635,N,02730.0235,E,1,10,1.57,273.01,M,23.281,M,,*44
$GPRMC,125039,A,5355.1635,N,02730.0235,E,0.0223,151.281,070910,,*26
$GPGBS,125039,8.68,M,10.56,M,39.83,M*37
{"class":"TPV","tag":"ID20","mode":3,"time":"2010-09-07T12:50:39.000Z","ept":0.005,"lat":53.919390858,"lon":27.500390835,"alt":273.010,"epx":8.678,"epy":10.558,"epv":39.833,"track":151.2810,"speed":0.011,"climb":0.000,"eps":21.12}
$GPGSV,6,1,21,67,12,002,43,68,22,053,52,69,08,102,41,74,38,187,00*72
$GPGSV,6,2,21,75,63,278,00,83,15,058,40,84,68,039,44,85,51,253,00*77
$GPGSV,6,3,21,86,01,243,00,02,42,065,50,04,11,040,45,05,09,115,37*7B
$GPGSV,6,4,21,10,17,076,42,12,47,124,41,14,02,251,23,21,02,200,00*79
$GPGSV,6,5,21,23,02,002,46,25,80,156,25,29,58,246,00,30,82,177,00*7E
$GPGSV,6,6,21,31,39,300,00*41
{"class":"SKY","tag":"ID22","xdop":0.58,"ydop":0.70,"vdop":1.73,"tdop":1.62,"hdop":1.57,"gdop":2.85,"pdop":2.34,"satellites":[{"PRN":67,"el":12,"az":2,"ss":43,"used":true},{"PRN":68,"el":22,"az":53,"ss":52,"used":true},{"PRN":69,"el":8,"az":102,"ss":41,"used":true},{"PRN":74,"el":38,"az":187,"ss":0,"used":false},{"PRN":75,"el":63,"az":278,"ss":0,"used":false},{"PRN":83,"el":15,"az":58,"ss":40,"used":true},{"PRN":84,"el":68,"az":39,"ss":44,"used":true},{"PRN":85,"el":51,"az":253,"ss":0,"used":false},{"PRN":86,"el":1,"az":243,"ss":0,"used":false},{"PRN":2,"el":42,"az":65,"ss":50,"used":true},{"PRN":4,"el":11,"az":40,"ss":45,"used":true},{"PRN":5,"el":9,"az":115,"ss":37,"used":true},{"PRN":10,"el":17,"az":76,"ss":42,"used":true},{"PRN":12,"el":47,"az":124,"ss":41,"used":true},{"PRN":14,"el":2,"az":251,"ss":23,"used":false},{"PRN":21,"el":2,"az":200,"ss":0,"used":false},{"PRN":23,"el":2,"az":2,"ss":46,"used":false},{"PRN":25,"el":80,"az":156,"ss":25,"used":false},{"PRN":29,"el":58,"az":246,"ss":0,"used":false},{"PRN":30,"el":82,"az":177,"ss":0,"used":false},{"PRN":31,"el":39,"az":300,"ss":0,"used":false}]}
$GPGGA,125040,5355.1635,N,02730.0235,E,1,10,1.57,273.05,M,23.281,M,,*4E
$GPRMC,125040,A,5355.1635,N,02730.0235,E,0.0209,134.972,070910,,*24
$GPGBS,125040,8.68,M,10.56,M,39.83,M*39
{"class":"TPV","tag":"ID20","mode":3,"time":"2010-09-07T12:50:40.000Z","ept":0.005,"lat":53.919391886,"lon":27.500391191,"alt":273.055,"epx":8.678,"epy":10.558,"epv":39.833,"track":134.9718,"speed":0.011,"climb":0.000,"eps":21.12}
$GPGSV,6,1,21,67,12,002,43,68,22,053,52,69,08,102,40,74,38,187,00*73
$GPGSV,6,2,21,75,63,278,00,83,15,058,40,84,68,039,44,85,51,253,00*77
$GPGSV,6,3,21,86,01,243,00,02,42,065,49,04,11,040,45,05,09,115,37*73
$GPGSV,6,4,21,10,17,076,42,12,47,124,40,14,02,251,23,21,02,200,00*78
$GPGSV,6,5,21,23,02,002,45,25,80,156,25,29,58,246,00,30,82,177,00*7D
$GPGSV,6,6,21,31,39,300,00*41
{"class":"SKY","tag":"ID22","xdop":0.58,"ydop":0.70,"vdop":1.73,"tdop":1.62,"hdop":1.57,"gdop":2.85,"pdop":2.34,"satellites":[{"PRN":67,"el":12,"az":2,"ss":43,"used":true},{"PRN":68,"el":22,"az":53,"ss":52,"used":true},{"PRN":69,"el":8,"az":102,"ss":40,"used":true},{"PRN":74,"el":38,"az":187,"ss":0,"used":false},{"PRN":75,"el":63,"az":278,"ss":0,"used":false},{"PRN":83,"el":15,"az":58,"ss":40,"used":true},{"PRN":84,"el":68,"az":39,"ss":44,"used":true},{"PRN":85,"el":51,"az":253,"ss":0,"used":false},{"PRN":86,"el":1,"az":243,"ss":0,"used":false},{"PRN":2,"el":42,"az":65,"ss":49,"used":true},{"PRN":4,"el":11,"az":40,"ss":45,"used":true},{"PRN":5,"el":9,"az":115,"ss":37,"used":true},{"PRN":10,"el":17,"az":76,"ss":42,"used":true},{"PRN":12,"el":47,"az":124,"ss":40,"used":true},{"PRN":14,"el":2,"az":251,"ss":23,"used":false},{"PRN":21,"el":2,"az":200,"ss":0,"used":false},{"PRN":23,"el":2,"az":2,"ss":45,"used":false},{"PRN":25,"el":80,"az":156,"ss":25,"used":false},{"PRN":29,"el":58,"az":246,"ss":0,"used":false},{"PRN":30,"el":82,"az":177,"ss":0,"used":false},{"PRN":31,"el":39,"az":300,"ss":0,"used":false}]}
$GPGGA,125041,5355.1636,N,02730.0237,E,1,10,1.57,273.13,M,23.309,M,,*48
$GPRMC,125041,A,5355.1636,N,02730.0237,E,0.0210,136.137,070910,,*27
$GPGBS,125041,8.68,M,10.56,M,39.83,M*38
{"class":"TPV","tag":"ID20","mode":3,"time":"2010-09-07T12:50:41.000Z","ept":0.005,"lat":53.919393081,"lon":27.500394345,"alt":273.131,"epx":8.678,"epy":10.558,"epv":39.833,"track":136.1373,"speed":0.011,"climb":0.000,"eps":21.12}
$GPGSV,6,1,21,67,12,002,43,68,22,053,52,69,08,102,40,74,38,187,00*73
$GPGSV,6,2,21,75,63,278,00,83,15,058,40,84,68,039,44,85,51,253,00*77
$GPGSV,6,3,21,86,01,243,00,02,42,065,49,04,11,040,44,05,09,115,37*72
$GPGSV,6,4,21,10,17,076,42,12,47,124,40,14,02,251,22,21,02,200,00*79
$GPGSV,6,5,21,23,02,002,45,25,80,156,25,29,58,246,00,30,82,177,00*7D
$GPGSV,6,6,21,31,39,300,00*41
{"class":"SKY","tag":"ID22","xdop":0.58,"ydop":0.70,"vdop":1.73,"tdop":1.62,"hdop":1.57,"gdop":2.85,"pdop":2.34,"satellites":[{"PRN":67,"el":12,"az":2,"ss":43,"used":true},{"PRN":68,"el":22,"az":53,"ss":52,"used":true},{"PRN":69,"el":8,"az":102,"ss":40,"used":true},{"PRN":74,"el":38,"az":187,"ss":0,"used":false},{"PRN":75,"el":63,"az":278,"ss":0,"used":false},{"PRN":83,"el":15,"az":58,"ss":40,"used":true},{"PRN":84,"el":68,"az":39,"ss":44,"used":true},{"PRN":85,"el":51,"az":253,"ss":0,"used":false},{"PRN":86,"el":1,"az":243,"ss":0,"used":false},{"PRN":2,"el":42,"az":65,"ss":49,"used":true},{"PRN":4,"el":11,"az":40,"ss":44,"used":true},{"PRN":5,"el":9,"az":115,"ss":37,"used":true},{"PRN":10,"el":17,"az":76,"ss":42,"used":true},{"PRN":12,"el":47,"az":124,"ss":40,"used":true},{"PRN":14,"el":2,"az":251,"ss":22,"used":false},{"PRN":21,"el":2,"az":200,"ss":0,"used":false},{"PRN":23,"el":2,"az":2,"ss":45,"used":false},{"PRN":25,"el":80,"az":156,"ss":25,"used":false},{"PRN":29,"el":58,"az":246,"ss":0,"used":false},{"PRN":30,"el":82,"az":177,"ss":0,"used":false},{"PRN":31,"el":39,"az":300,"ss":0,"used":false}]}
$GPGGA,125042,5355.1637,N,02730.0238,E,1,10,1.57,273.20,M,23.289,M,,*4C
$GPRMC,125042,A,5355.1637,N,02730.0238,E,0.0182,140.402,070910,,*20
$GPGBS,125042,8.68,M,10.56,M,39.83,M*3B
{"class":"TPV","tag":"ID20","mode":3,"time":"2010-09-07T12:50:42.000Z","ept":0.005,"lat":53.919394591,"lon":27.500396185,"alt":273.204,"epx":8.678,"epy":10.558,"epv":39.833,"track":140.4021,"speed":0.009,"climb":0.000,"eps":21.12}
$GPGSV,6,1,21,67,12,002,43,68,22,053,52,69,08,102,40,74,38,187,00*73
$GPGSV,6,2,21,75,63,278,00,83,15,058,40,84,68,039,45,85,51,253,00*76
$GPGSV,6,3,21,86,01,243,00,02,42,065,50,04,11,040,45,05,09,115,37*7B
$GPGSV,6,4,21,10,17,076,42,12,47,124,40,14,02,251,22,21,02,200,00*79
$GPGSV,6,5,21,23,02,002,45,25,80,156,24,29,58,246,00,30,82,177,00*7C
$GPGSV,6,6,21,31,39,300,00*41
{"class":"SKY","tag":"ID22","xdop":0.58,"ydop":0.70,"vdop":1.73,"tdop":1.62,"hdop":1.57,"gdop":2.85,"pdop":2.34,"satellites":[{"PRN":67,"el":12,"az":2,"ss":43,"used":true},{"PRN":68,"el":22,"az":53,"ss":52,"used":true},{"PRN":69,"el":8,"az":102,"ss":40,"used":true},{"PRN":74,"el":38,"az":187,"ss":0,"used":false},{"PRN":75,"el":63,"az":278,"ss":0,"used":false},{"PRN":83,"el":15,"az":58,"ss":40,"used":true},{"PRN":84,"el":68,"az":39,"ss":45,"used":true},{"PRN":85,"el":51,"az":253,"ss":0,"used":false},{"PRN":86,"el":1,"az":243,"ss":0,"used":false},{"PRN":2,"el":42,"az":65,"ss":50,"used":true},{"PRN":4,"el":11,"az":40,"ss":45,"used":true},{"PRN":5,"el":9,"az":115,"ss":37,"used":true},{"PRN":10,"el":17,"az":76,"ss":42,"used":true},{"PRN":12,"el":47,"az":124,"ss":40,"used":true},{"PRN":14,"el":2,"az":251,"ss":22,"used":false},{"PRN":21,"el":2,"az":200,"ss":0,"used":false},{"PRN":23,"el":2,"az":2,"ss":45,"used":false},{"PRN":25,"el":80,"az":156,"ss":24,"used":false},{"PRN":29,"el":58,"az":246,"ss":0,"used":false},{"PRN":30,"el":82,"az":177,"ss":0,"used":false},{"PRN":31,"el":39,"az":300,"ss":0,"used":false}]}
$GPGGA,125043,5355.1637,N,02730.0239,E,1,10,1.57,273.43,M,23.264,M,,*4A
$GPRMC,125043,A,5355.1637,N,02730.0239,E,0.0195,156.159,070910,,*2A
$GPGBS,125043,8.68,M,10.56,M,39.83,M*3A
{"class":"TPV","tag":"ID20","mode":3,"time":"2010-09-07T12:50:43.000Z","ept":0.005,"lat":53.919395253,"lon":27.500398405,"alt":273.430,"epx":8.678,"epy":10.558,"epv":39.833,"track":156.1585,"speed":0.010,"climb":0.000,"eps":21.12}
$GPGSV,6,1,21,67,12,002,44,68,22,053,52,69,08,102,40,74,38,187,00*74
$GPGSV,6,2,21,75,63,278,00,83,15,058,40,84,68,039,45,85,51,253,00*76
$GPGSV,6,3,21,86,01,243,00,02,42,065,50,04,11,040,45,05,09,115,37*7B
$GPGSV,6,4,21,10,17,075,43,12,47,124,40,14,02,251,23,21,02,200,00*7A
$GPGSV,6,5,21,23,02,002,45,25,80,156,25,29,58,246,00,30,82,177,00*7D
$GPGSV,6,6,21,31,39,300,00*41
{"class":"SKY","tag":"ID22","xdop":0.58,"ydop":0.70,"vdop":1.73,"tdop":1.62,"hdop":1.57,"gdop":2.85,"pdop":2.34,"satellites":[{"PRN":67,"el":12,"az":2,"ss":44,"used":true},{"PRN":68,"el":22,"az":53,"ss":52,"used":true},{"PRN":69,"el":8,"az":102,"ss":40,"used":true},{"PRN":74,"el":38,"az":187,"ss":0,"used":false},{"PRN":75,"el":63,"az":278,"ss":0,"used":false},{"PRN":83,"el":15,"az":58,"ss":40,"used":true},{"PRN":84,"el":68,"az":39,"ss":45,"used":true},{"PRN":85,"el":51,"az":253,"ss":0,"used":false},{"PRN":86,"el":1,"az":243,"ss":0,"used":false},{"PRN":2,"el":42,"az":65,"ss":50,"used":true},{"PRN":4,"el":11,"az":40,"ss":45,"used":true},{"PRN":5,"el":9,"az":115,"ss":37,"used":true},{"PRN":10,"el":17,"az":75,"ss":43,"used":true},{"PRN":12,"el":47,"az":124,"ss":40,"used":true},{"PRN":14,"el":2,"az":251,"ss":23,"used":false},{"PRN":21,"el":2,"az":200,"ss":0,"used":false},{"PRN":23,"el":2,"az":2,"ss":45,"used":false},{"PRN":25,"el":80,"az":156,"ss":25,"used":false},{"PRN":29,"el":58,"az":246,"ss":0,"used":false},{"PRN":30,"el":82,"az":177,"ss":0,"used":false},{"PRN":31,"el":39,"az":300,"ss":0,"used":false}]}
$GPGGA,125044,5355.1637,N,02730.0240,E,1,10,1.57,273.50,M,23.264,M,,*41
$GPRMC,125044,A,5355.1637,N,02730.0240,E,0.0196,163.111,070910,,*2A
$GPGBS,125044,8.68,M,10.56,M,39.83,M*3D
{"class":"TPV","tag":"ID20","mode":3,"time":"2010-09-07T12:50:44.000Z","ept":0.005,"lat":53.919394767,"lon":27.500399183,"alt":273.498,"epx":8.678,"epy":10.558,"epv":39.833,"track":163.1112,"speed":0.010,"climb":0.000,"eps":21.12}
$GPGSV,6,1,21,67,12,002,44,68,22,053,52,69,08,102,39,74,38,187,00*7A
$GPGSV,6,2,21,75,63,278,00,83,15,058,40,84,68,039,45,85,51,253,00*76
$GPGSV,6,3,21,86,01,243,00,02,42,065,50,04,11,040,45,05,09,115,38*74
$GPGSV,6,4,21,10,17,075,42,12,47,124,38,14,02,251,22,21,02,200,00*75
$GPGSV,6,5,21,23,02,002,45,25,80,156,25,29,58,246,00,30,82,177,00*7D
$GPGSV,6,6,21,31,39,300,00*41
{"class":"SKY","tag":"ID22","xdop":0.58,"ydop":0.70,"vdop":1.73,"tdop":1.62,"hdop":1.57,"gdop":2.85,"pdop":2.34,"satellites":[{"PRN":67,"el":12,"az":2,"ss":44,"used":true},{"PRN":68,"el":22,"az":53,"ss":52,"used":true},{"PRN":69,"el":8,"az":102,"ss":39,"used":true},{"PRN":74,"el":38,"az":187,"ss":0,"used":false},{"PRN":75,"el":63,"az":278,"ss":0,"used":false},{"PRN":83,"el":15,"az":58,"ss":40,"used":true},{"PRN":84,"el":68,"az":39,"ss":45,"used":true},{"PRN":85,"el":51,"az":253,"ss":0,"used":false},{"PRN":86,"el":1,"az":243,"ss":0,"used":false},{"PRN":2,"el":42,"az":65,"ss":50,"used":true},{"PRN":4,"el":11,"az":40,"ss":45,"used":true},{"PRN":5,"el":9,"az":115,"ss":38,"used":true},{"PRN":10,"el":17,"az":75,"ss":42,"used":true},{"PRN":12,"el":47,"az":124,"ss":38,"used":true},{"PRN":14,"el":2,"az":251,"ss":22,"used":false},{"PRN":21,"el":2,"az":200,"ss":0,"used":false},{"PRN":23,"el":2,"az":2,"ss":45,"used":false},{"PRN":25,"el":80,"az":156,"ss":25,"used":false},{"PRN":29,"el":58,"az":246,"ss":0,"used":false},{"PRN":30,"el":82,"az":177,"ss":0,"used":false},{"PRN":31,"el":39,"az":300,"ss":0,"used":false}]}
$GPGGA,125045,5355.1636,N,02730.0239,E,1,10,1.57,273.58,M,23.264,M,,*47
$GPRMC,125045,A,5355.1636,N,02730.0239,E,0.0217,169.936,070910,,*29
$GPGBS,125045,8.68,M,10.56,M,39.83,M*3C
{"class":"TPV","tag":"ID20","mode":3,"time":"2010-09-07T12:50:45.000Z","ept":0.005,"lat":53.919393818,"lon":27.500398244,"alt":273.584,"epx":8.678,"epy":10.558,"epv":39.833,"track":169.9363,"speed":0.011,"climb":0.000,"eps":21.12}
$GPGSV,6,1,21,67,12,002,43,68,22,053,52,69,08,102,39,74,38,187,00*7D
$GPGSV,6,2,21,75,63,278,00,83,15,058,40,84,68,039,45,85,51,253,00*76
$GPGSV,6,3,21,86,01,243,00,02,42,065,50,04,11,040,45,05,09,115,38*74
$GPGSV,6,4,21,10,17,075,42,12,46,124,38,14,02,251,23,21,02,200,00*75
$GPGSV,6,5,21,23,02,002,45,25,80,156,26,29,58,246,00,30,82,177,00*7E
$GPGSV,6,6,21,31,39,300,00*41
{"class":"SKY","tag":"ID22","xdop":0.58,"ydop":0.70,"vdop":1.73,"tdop":1.62,"hdop":1.57,"gdop":2.85,"pdop":2.34,"satellites":[{"PRN":67,"el":12,"az":2,"ss":43,"used":true},{"PRN":68,"el":22,"az":53,"ss":52,"used":true},{"PRN":69,"el":8,"az":102,"ss":39,"used":true},{"PRN":74,"el":38,"az":187,"ss":0,"used":false},{"PRN":75,"el":63,"az":278,"ss":0,"used":false},{"PRN":83,"el":15,"az":58,"ss":40,"used":true},{"PRN":84,"el":68,"az":39,"ss":45,"used":true},{"PRN":85,"el":51,"az":253,"ss":0,"used":false},{"PRN":86,"el":1,"az":243,"ss":0,"used":false},{"PRN":2,"el":42,"az":65,"ss":50,"used":true},{"PRN":4,"el":11,"az":40,"ss":45,"used":true},{"PRN":5,"el":9,"az":115,"ss":38,"used":true},{"PRN":10,"el":17,"az":75,"ss":42,"used":true},{"PRN":12,"el":46,"az":124,"ss":38,"used":true},{"PRN":14,"el":2,"az":251,"ss":23,"used":false},{"PRN":21,"el":2,"az":200,"ss":0,"used":false},{"PRN":23,"el":2,"az":2,"ss":45,"used":false},{"PRN":25,"el":80,"az":156,"ss":26,"used":false},{"PRN":29,"el":58,"az":246,"ss":0,"used":false},{"PRN":30,"el":82,"az":177,"ss":0,"used":false},{"PRN":31,"el":39,"az":300,"ss":0,"used":false}]}
$GPGGA,125046,5355.1635,N,02730.0237,E,1,10,1.57,273.59,M,23.309,M,,*42
$GPRMC,125046,A,5355.1635,N,02730.0237,E,0.0256,177.286,070910,,*2D
$GPGBS,125046,8.68,M,10.56,M,39.83,M*3F
{"class":"TPV","tag":"ID20","mode":3,"time":"2010-09-07T12:50:46.000Z","ept":0.005,"lat":53.919391845,"lon":27.500395548,"alt":273.585,"epx":8.678,"epy":10.558,"epv":39.833,"track":177.2856,"speed":0.013,"climb":0.000,"eps":21.12}
$GPGSV,6,1,21,67,12,002,43,68,22,053,52,69,08,102,38,74,38,187,00*7C
$GPGSV,6,2,21,75,63,278,00,83,15,058,40,84,68,039,45,85,51,253,00*76
$GPGSV,6,3,21,86,01,243,00,02,42,065,50,04,11,040,46,05,09,115,38*77
$GPGSV,6,4,21,10,17,075,42,12,46,124,37,14,02,251,22,21,02,200,00*7B
$GPGSV,6,5,21,23,02,002,45,25,80,156,26,29,58,246,00,30,82,177,00*7E
$GPGSV,6,6,21,31,39,300,00*41
{"class":"SKY","tag":"ID22","xdop":0.58,"ydop":0.70,"vdop":1.73,"tdop":1.62,"hdop":1.57,"gdop":2.85,"pdop":2.34,"satellites":[{"PRN":67,"el":12,"az":2,"ss":43,"used":true},{"PRN":68,"el":22,"az":53,"ss":52,"used":true},{"PRN":69,"el":8,"az":102,"ss":38,"used":true},{"PRN":74,"el":38,"az":187,"ss":0,"used":false},{"PRN":75,"el":63,"az":278,"ss":0,"used":false},{"PRN":83,"el":15,"az":58,"ss":40,"used":true},{"PRN":84,"el":68,"az":39,"ss":45,"used":true},{"PRN":85,"el":51,"az":253,"ss":0,"used":false},{"PRN":86,"el":1,"az":243,"ss":0,"used":false},{"PRN":2,"el":42,"az":65,"ss":50,"used":true},{"PRN":4,"el":11,"az":40,"ss":46,"used":true},{"PRN":5,"el":9,"az":115,"ss":38,"used":true},{"PRN":10,"el":17,"az":75,"ss":42,"used":true},{"PRN":12,"el":46,"az":124,"ss":37,"used":true},{"PRN":14,"el":2,"az":251,"ss":22,"used":false},{"PRN":21,"el":2,"az":200,"ss":0,"used":false},{"PRN":23,"el":2,"az":2,"ss":45,"used":false},{"PRN":25,"el":80,"az":156,"ss":26,"used":false},{"PRN":29,"el":58,"az":246,"ss":0,"used":false},{"PRN":30,"el":82,"az":177,"ss":0,"used":false},{"PRN":31,"el":39,"az":300,"ss":0,"used":false}]}
$GPGGA,125047,5355.1633,N,02730.0234,E,1,10,1.57,273.51,M,23.279,M,,*48
$GPRMC,125047,A,5355.1633,N,02730.0234,E,0.0343,189.383,070910,,*29
$GPGBS,125047,8.68,M,10.56,M,39.83,M*3E
{"class":"TPV","tag":"ID20","mode":3,"time":"2010-09-07T12:50:47.000Z","ept":0.005,"lat":53.919388759,"lon":27.500390503,"alt":273.512,"epx":8.678,"epy":10.558,"epv":39.833,"track":189.3832,"speed":0.018,"climb":0.000,"eps":21.12}
$GPGSV,6,1,21,67,12,002,44,68,22,053,52,69,08,102,38,74,38,187,00*7B
$GPGSV,6,2,21,75,63,278,00,83,15,058,39,84,68,039,45,85,51,253,00*78
$GPGSV,6,3,21,86,01,243,00,02,42,065,50,04,11,040,46,05,09,115,38*77
$GPGSV,6,4,21,10,17,075,42,12,46,124,36,14,02,250,24,21,02,200,00*7D
$GPGSV,6,5,21,23,02,002,44,25,80,156,26,29,58,246,00,30,82,177,00*7F
$GPGSV,6,6,21,31,39,300,00*41
{"class":"SKY","tag":"ID22","xdop":0.58,"ydop":0.70,"vdop":1.73,"tdop":1.62,"hdop":1.57,"gdop":2.85,"pdop":2.34,"satellites":[{"PRN":67,"el":12,"az":2,"ss":44,"used":true},{"PRN":68,"el":22,"az":53,"ss":52,"used":true},{"PRN":69,"el":8,"az":102,"ss":38,"used":true},{"PRN":74,"el":38,"az":187,"ss":0,"used":false},{"PRN":75,"el":63,"az":278,"ss":0,"used":false},{"PRN":83,"el":15,"az":58,"ss":39,"used":true},{"PRN":84,"el":68,"az":39,"ss":45,"used":true},{"PRN":85,"el":51,"az":253,"ss":0,"used":false},{"PRN":86,"el":1,"az":243,"ss":0,"used":false},{"PRN":2,"el":42,"az":65,"ss":50,"used":true},{"PRN":4,"el":11,"az":40,"ss":46,"used":true},{"PRN":5,"el":9,"az":115,"ss":38,"used":true},{"PRN":10,"el":17,"az":75,"ss":42,"used":true},{"PRN":12,"el":46,"az":124,"ss":36,"used":true},{"PRN":14,"el":2,"az":250,"ss":24,"used":false},{"PRN":21,"el":2,"az":200,"ss":0,"used":false},{"PRN":23,"el":2,"az":2,"ss":44,"used":false},{"PRN":25,"el":80,"az":156,"ss":26,"used":false},{"PRN":29,"el":58,"az":246,"ss":0,"used":false},{"PRN":30,"el":82,"az":177,"ss":0,"used":false},{"PRN":31,"el":39,"az":300,"ss":0,"used":false}]}
$GPGGA,125048,5355.1632,N,02730.0233,E,1,10,1.57,273.50,M,23.264,M,,*4C
$GPRMC,125048,A,5355.1632,N,02730.0233,E,0.0563,201.605,070910,,*2C
$GPGBS,125048,8.68,M,10.56,M,39.83,M*31
{"class":"TPV","tag":"ID20","mode":3,"time":"2010-09-07T12:50:48.000Z","ept":0.005,"lat":53.919385870,"lon":27.500388000,"alt":273.499,"epx":8.678,"epy":10.558,"epv":39.833,"track":201.6048,"speed":0.029,"climb":0.000,"eps":21.12}
$GPGSV,6,1,21,67,12,002,44,68,22,053,51,69,08,102,38,74,38,187,00*78
$GPGSV,6,2,21,75,63,278,00,83,15,058,39,84,68,039,45,85,51,253,00*78
$GPGSV,6,3,21,86,01,243,00,02,42,065,50,04,11,040,46,05,09,115,38*77
$GPGSV,6,4,21,10,17,075,41,12,46,124,35,14,02,250,24,21,02,200,00*7D
$GPGSV,6,5,21,23,02,002,44,25,80,156,25,29,58,246,00,30,82,177,00*7C
$GPGSV,6,6,21,31,39,300,00*41
{"class":"SKY","tag":"ID22","xdop":0.58,"ydop":0.70,"vdop":1.73,"tdop":1.62,"hdop":1.57,"gdop":2.85,"pdop":2.34,"satellites":[{"PRN":67,"el":12,"az":2,"ss":44,"used":true},{"PRN":68,"el":22,"az":53,"ss":51,"used":true},{"PRN":69,"el":8,"az":102,"ss":38,"used":true},{"PRN":74,"el":38,"az":187,"ss":0,"used":false},{"PRN":75,"el":63,"az":278,"ss":0,"used":false},{"PRN":83,"el":15,"az":58,"ss":39,"used":true},{"PRN":84,"el":68,"az":39,"ss":45,"used":true},{"PRN":85,"el":51,"az":253,"ss":0,"used":false},{"PRN":86,"el":1,"az":243,"ss":0,"used":false},{"PRN":2,"el":42,"az":65,"ss":50,"used":true},{"PRN":4,"el":11,"az":40,"ss":46,"used":true},{"PRN":5,"el":9,"az":115,"ss":38,"used":true},{"PRN":10,"el":17,"az":75,"ss":41,"used":true},{"PRN":12,"el":46,"az":124,"ss":35,"used":true},{"PRN":14,"el":2,"az":250,"ss":24,"used":false},{"PRN":21,"el":2,"az":200,"ss":0,"used":false},{"PRN":23,"el":2,"az":2,"ss":44,"used":false},{"PRN":25,"el":80,"az":156,"ss":25,"used":false},{"PRN":29,"el":58,"az":246,"ss":0,"used":false},{"PRN":30,"el":82,"az":177,"ss":0,"used":false},{"PRN":31,"el":39,"az":300,"ss":0,"used":false}]}
$GPGGA,125049,5355.1629,N,02730.0230,E,1,10,1.57,273.42,M,23.318,M,,*4D
$GPRMC,125049,A,5355.1629,N,02730.0230,E,0.0795,205.857,070910,,*22
$GPGBS,125049,8.68,M,10.56,M,39.83,M*30
{"class":"TPV","tag":"ID20","mode":3,"time":"2010-09-07T12:50:49.000Z","ept":0.005,"lat":53.919381891,"lon":27.500383350,"alt":273.419,"epx":8.678,"epy":10.558,"epv":39.833,"track":205.8567,"speed":0.041,"climb":0.000,"eps":21.12}
$GPGSV,6,1,21,67,12,002,43,68,22,053,51,69,08,102,38,74,38,187,00*7F
$GPGSV,6,2,21,75,63,278,00,83,15,058,40,84,68,039,45,85,51,253,00*76
$GPGSV,6,3,21,86,01,243,00,02,42,065,50,04,11,040,46,05,09,115,38*77
$GPGSV,6,4,21,10,17,075,41,12,46,124,35,14,02,250,23,21,02,200,00*7A
$GPGSV,6,5,21,23,02,002,45,25,80,156,25,29,58,246,00,30,82,177,00*7D
$GPGSV,6,6,21,31,39,300,00*41
{"class":"SKY","tag":"ID22","xdop":0.58,"ydop":0.70,"vdop":1.73,"tdop":1.62,"hdop":1.57,"gdop":2.85,"pdop":2.34,"satellites":[{"PRN":67,"el":12,"az":2,"ss":43,"used":true},{"PRN":68,"el":22,"az":53,"ss":51,"used":true},{"PRN":69,"el":8,"az":102,"ss":38,"used":true},{"PRN":74,"el":38,"az":187,"ss":0,"used":false},{"PRN":75,"el":63,"az":278,"ss":0,"used":false},{"PRN":83,"el":15,"az":58,"ss":40,"used":true},{"PRN":84,"el":68,"az":39,"ss":45,"used":true},{"PRN":85,"el":51,"az":253,"ss":0,"used":false},{"PRN":86,"el":1,"az":243,"ss":0,"used":false},{"PRN":2,"el":42,"az":65,"ss":50,"used":true},{"PRN":4,"el":11,"az":40,"ss":46,"used":true},{"PRN":5,"el":9,"az":115,"ss":38,"used":true},{"PRN":10,"el":17,"az":75,"ss":41,"used":true},{"PRN":12,"el":46,"az":124,"ss":35,"used":true},{"PRN":14,"el":2,"az":250,"ss":23,"used":false},{"PRN":21,"el":2,"az":200,"ss":0,"used":false},{"PRN":23,"el":2,"az":2,"ss":45,"used":false},{"PRN":25,"el":80,"az":156,"ss":25,"used":false},{"PRN":29,"el":58,"az":246,"ss":0,"used":false},{"PRN":30,"el":82,"az":177,"ss":0,"used":false},{"PRN":31,"el":39,"az":300,"ss":0,"used":false}]}
$GPGGA,125050,5355.1626,N,02730.0227,E,1,10,1.57,273.41,M,23.332,M,,*47
$GPRMC,125050,A,5355.1626,N,02730.0227,E,0.1563,212.053,070910,,*23
$GPGBS,125050,8.68,M,10.56,M,39.83,M*38
{"class":"TPV","tag":"ID20","mode":3,"time":"2010-09-07T12:50:50.000Z","ept":0.005,"lat":53.919376954,"lon":27.500377515,"alt":273.405,"epx":8.678,"epy":10.558,"epv":39.833,"track":212.0530,"speed":0.080,"climb":0.000,"eps":21.12}
$GPGSV,6,1,21,67,12,002,43,68,22,053,52,69,08,102,38,74,38,187,00*7C
$GPGSV,6,2,21,75,63,278,00,83,15,058,40,84,68,039,45,85,51,253,00*76
$GPGSV,6,3,21,86,01,243,00,02,42,065,50,04,11,040,46,05,09,115,38*77
$GPGSV,6,4,21,10,17,075,41,12,46,124,35,14,02,250,23,21,02,200,00*7A
$GPGSV,6,5,21,23,02,002,45,25,80,156,26,29,58,246,00,30,82,177,00*7E
$GPGSV,6,6,21,31,39,300,00*41
{"class":"SKY","tag":"ID22","xdop":0.58,"ydop":0.70,"vdop":1.73,"tdop":1.62,"hdop":1.57,"gdop":2.85,"pdop":2.34,"satellites":[{"PRN":67,"el":12,"az":2,"ss":43,"used":true},{"PRN":68,"el":22,"az":53,"ss":52,"used":true},{"PRN":69,"el":8,"az":102,"ss":38,"used":true},{"PRN":74,"el":38,"az":187,"ss":0,"used":false},{"PRN":75,"el":63,"az":278,"ss":0,"used":false},{"PRN":83,"el":15,"az":58,"ss":40,"used":true},{"PRN":84,"el":68,"az":39,"ss":45,"used":true},{"PRN":85,"el":51,"az":253,"ss":0,"used":false},{"PRN":86,"el":1,"az":243,"ss":0,"used":false},{"PRN":2,"el":42,"az":65,"ss":50,"used":true},{"PRN":4,"el":11,"az":40,"ss":46,"used":true},{"PRN":5,"el":9,"az":115,"ss":38,"used":true},{"PRN":10,"el":17,"az":75,"ss":41,"used":true},{"PRN":12,"el":46,"az":124,"ss":35,"used":true},{"PRN":14,"el":2,"az":250,"ss":23,"used":false},{"PRN":21,"el":2,"az":200,"ss":0,"used":false},{"PRN":23,"el":2,"az":2,"ss":45,"used":false},{"PRN":25,"el":80,"az":156,"ss":26,"used":false},{"PRN":29,"el":58,"az":246,"ss":0,"used":false},{"PRN":30,"el":82,"az":177,"ss":0,"used":false},{"PRN":31,"el":39,"az":300,"ss":0,"used":false}]}
$GPGGA,125051,5355.1624,N,02730.0223,E,1,10,1.57,273.28,M,23.305,M,,*4B
$GPRMC,125051,A,5355.1624,N,02730.0223,E,0.2570,215.163,070910,,*20
{"class":"TPV","tag":"ID20","mode":3,"time":"2010-09-07T12:50:51.000Z","ept":0.005,"lat":53.919373326,"lon":27.500371342,"alt":273.279,"epx":8.678,"epy":10.558,"epv":39.833,"track":215.1629,"speed":0.132,"climb":0.000,"eps":21.12}
$GPGSV,6,1,21,67,12,002,43,68,22,053,52,69,08,102,38,74,38,187,00*7C
$GPGSV,6,2,21,75,63,278,00,83,15,058,40,84,68,039,45,85,51,253,00*76
$GPGSV,6,3,21,86,01,243,00,02,42,065,51,04,11,040,45,05,09,115,37*7A
$GPGSV,6,4,21,10,17,075,41,12,46,124,35,14,02,250,25,21,02,200,00*7C
$GPGSV,6,5,21,23,02,002,45,25,80,156,26,29,58,246,00,30,82,177,00*7E
$GPGSV,6,6,21,31,39,300,00*41
{"class":"SKY","tag":"ID22","xdop":0.58,"ydop":0.70,"vdop":1.73,"tdop":1.62,"hdop":1.57,"gdop":2.85,"pdop":2.34,"satellites":[{"PRN":67,"el":12,"az":2,"ss":43,"used":true},{"PRN":68,"el":22,"az":53,"ss":52,"used":true},{"PRN":69,"el":8,"az":102,"ss":38,"used":true},{"PRN":74,"el":38,"az":187,"ss":0,"used":false},{"PRN":75,"el":63,"az":278,"ss":0,"used":false},{"PRN":83,"el":15,"az":58,"ss":40,"used":true},{"PRN":84,"el":68,"az":39,"ss":45,"used":true},{"PRN":85,"el":51,"az":253,"ss":0,"used":false},{"PRN":86,"el":1,"az":243,"ss":0,"used":false},{"PRN":2,"el":42,"az":65,"ss":51,"used":true},{"PRN":4,"el":11,"az":40,"ss":45,"used":true},{"PRN":5,"el":9,"az":115,"ss":37,"used":true},{"PRN":10,"el":17,"az":75,"ss":41,"used":true},{"PRN":12,"el":46,"az":124,"ss":35,"used":true},{"PRN":14,"el":2,"az":250,"ss":25,"used":false},{"PRN":21,"el":2,"az":200,"ss":0,"used":false},{"PRN":23,"el":2,"az":2,"ss":45,"used":false},{"PRN":25,"el":80,"az":156,"ss":26,"used":false},{"PRN":29,"el":58,"az":246,"ss":0,"used":false},{"PRN":30,"el":82,"az":177,"ss":0,"used":false},{"PRN":31,"el":39,"az":300,"ss":0,"used":false}]}
$GPGGA,125052,5355.1622,N,02730.0221,E,1,10,1.57,273.19,M,23.334,M,,*4C
$GPRMC,125052,A,5355.1622,N,02730.0221,E,0.2624,215.299,070910,,*23
$GPGBS,125052,8.68,M,10.56,M,39.83,M*3A
{"class":"TPV","tag":"ID20","mode":3,"time":"2010-09-07T12:50:52.000Z","ept":0.005,"lat":53.919369852,"lon":27.500367763,"alt":273.186,"epx":8.678,"epy":10.558,"epv":39.833,"track":215.2988,"speed":0.135,"climb":0.000,"eps":21.12}
$GPGSV,6,1,21,67,12,002,43,68,22,053,52,69,08,102,38,74,38,187,00*7C
$GPGSV,6,2,21,75,63,278,00,83,15,058,40,84,68,039,45,85,51,253,00*76
$GPGSV,6,3,21,86,01,243,00,02,42,065,51,04,11,040,45,05,09,115,38*75
$GPGSV,6,4,21,10,17,075,40,12,46,124,36,14,02,250,24,21,02,200,00*7F
$GPGSV,6,5,21,23,02,002,45,25,80,156,27,29,58,246,00,30,82,177,00*7F
$GPGSV,6,6,21,31,39,300,00*41
{"class":"SKY","tag":"ID22","xdop":0.58,"ydop":0.70,"vdop":1.73,"tdop":1.62,"hdop":1.57,"gdop":2.85,"pdop":2.34,"satellites":[{"PRN":67,"el":12,"az":2,"ss":43,"used":true},{"PRN":68,"el":22,"az":53,"ss":52,"used":true},{"PRN":69,"el":8,"az":102,"ss":38,"used":true},{"PRN":74,"el":38,"az":187,"ss":0,"used":false},{"PRN":75,"el":63,"az":278,"ss":0,"used":false},{"PRN":83,"el":15,"az":58,"ss":40,"used":true},{"PRN":84,"el":68,"az":39,"ss":45,"used":true},{"PRN":85,"el":51,"az":253,"ss":0,"used":false},{"PRN":86,"el":1,"az":243,"ss":0,"used":false},{"PRN":2,"el":42,"az":65,"ss":51,"used":true},{"PRN":4,"el":11,"az":40,"ss":45,"used":true},{"PRN":5,"el":9,"az":115,"ss":38,"used":true},{"PRN":10,"el":17,"az":75,"ss":40,"used":true},{"PRN":12,"el":46,"az":124,"ss":36,"used":true},{"PRN":14,"el":2,"az":250,"ss":24,"used":false},{"PRN":21,"el":2,"az":200,"ss":0,"used":false},{"PRN":23,"el":2,"az":2,"ss":45,"used":false},{"PRN":25,"el":80,"az":156,"ss":27,"used":false},{"PRN":29,"el":58,"az":246,"ss":0,"used":false},{"PRN":30,"el":82,"az":177,"ss":0,"used":false},{"PRN":31,"el":39,"az":300,"ss":0,"used":false}]}
$GPGGA,125053,5355.1621,N,02730.0218,E,1,10,1.57,272.97,M,23.312,M,,*47
$GPRMC,125053,A,5355.1621,N,02730.0218,E,0.2307,215.259,070910,,*23
$GPGBS,125053,8.68,M,10.56,M,39.83,M*3B
{"class":"TPV","tag":"ID20","mode":3,"time":"2010-09-07T12:50:53.000Z","ept":0.005,"lat":53.919367763,"lon":27.500363939,"alt":272.974,"epx":8.678,"epy":10.558,"epv":39.833,"track":215.2594,"speed":0.119,"climb":0.000,"eps":21.12}
$GPGSV,6,1,21,67,12,002,43,68,22,053,52,69,08,102,39,74,38,187,00*7D
$GPGSV,6,2,21,75,63,278,00,83,15,058,40,84,68,039,45,85,51,253,00*76
$GPGSV,6,3,21,86,01,243,00,02,42,065,51,04,11,040,44,05,09,115,38*74
$GPGSV,6,4,21,10,17,075,41,12,46,124,36,14,02,250,21,21,02,200,00*7B
$GPGSV,6,5,21,23,02,002,45,25,80,156,26,29,58,246,00,30,82,177,00*7E
$GPGSV,6,6,21,31,39,300,00*41
{"class":"SKY","tag":"ID22","xdop":0.58,"ydop":0.70,"vdop":1.73,"tdop":1.62,"hdop":1.57,"gdop":2.85,"pdop":2.34,"satellites":[{"PRN":67,"el":12,"az":2,"ss":43,"used":true},{"PRN":68,"el":22,"az":53,"ss":52,"used":true},{"PRN":69,"el":8,"az":102,"ss":39,"used":true},{"PRN":74,"el":38,"az":187,"ss":0,"used":false},{"PRN":75,"el":63,"az":278,"ss":0,"used":false},{"PRN":83,"el":15,"az":58,"ss":40,"used":true},{"PRN":84,"el":68,"az":39,"ss":45,"used":true},{"PRN":85,"el":51,"az":253,"ss":0,"used":false},{"PRN":86,"el":1,"az":243,"ss":0,"used":false},{"PRN":2,"el":42,"az":65,"ss":51,"used":true},{"PRN":4,"el":11,"az":40,"ss":44,"used":true},{"PRN":5,"el":9,"az":115,"ss":38,"used":true},{"PRN":10,"el":17,"az":75,"ss":41,"used":true},{"PRN":12,"el":46,"az":124,"ss":36,"used":true},{"PRN":14,"el":2,"az":250,"ss":21,"used":false},{"PRN":21,"el":2,"az":200,"ss":0,"used":false},{"PRN":23,"el":2,"az":2,"ss":45,"used":false},{"PRN":25,"el":80,"az":156,"ss":26,"used":false},{"PRN":29,"el":58,"az":246,"ss":0,"used":false},{"PRN":30,"el":82,"az":177,"ss":0,"used":false},{"PRN":31,"el":39,"az":300,"ss":0,"used":false}]}
$GPGGA,125054,5355.1620,N,02730.0217,E,1,10,1.57,272.68,M,23.330,M,,*4E
$GPRMC,125054,A,5355.1620,N,02730.0217,E,0.1497,213.219,070910,,*25
$GPGBS,125054,8.68,M,10.56,M,39.83,M*3C
{"class":"TPV","tag":"ID20","mode":3,"time":"2010-09-07T12:50:54.000Z","ept":0.005,"lat":53.919366695,"lon":27.500360937,"alt":272.676,"epx":8.678,"epy":10.558,"epv":39.833,"track":213.2191,"speed":0.077,"climb":0.000,"eps":21.12}
$GPGSV,6,1,21,67,12,002,43,68,22,053,52,69,08,102,39,74,38,187,00*7D
$GPGSV,6,2,21,75,63,278,00,83,15,058,39,84,68,039,45,85,51,253,00*78
$GPGSV,6,3,21,86,01,243,00,02,42,065,51,04,11,040,43,05,09,115,38*73
$GPGSV,6,4,21,10,17,075,41,12,46,124,37,14,02,250,00,21,02,200,00*79
$GPGSV,6,5,21,23,02,002,45,25,80,156,26,29,58,246,00,30,82,177,00*7E
$GPGSV,6,6,21,31,39,300,00*41
{"class":"SKY","tag":"ID22","xdop":0.58,"ydop":0.70,"vdop":1.73,"tdop":1.62,"hdop":1.57,"gdop":2.84,"pdop":2.34,"satellites":[{"PRN":67,"el":12,"az":2,"ss":43,"used":true},{"PRN":68,"el":22,"az":53,"ss":52,"used":true},{"PRN":69,"el":8,"az":102,"ss":39,"used":true},{"PRN":74,"el":38,"az":187,"ss":0,"used":false},{"PRN":75,"el":63,"az":278,"ss":0,"used":false},{"PRN":83,"el":15,"az":58,"ss":39,"used":true},{"PRN":84,"el":68,"az":39,"ss":45,"used":true},{"PRN":85,"el":51,"az":253,"ss":0,"used":false},{"PRN":86,"el":1,"az":243,"ss":0,"used":false},{"PRN":2,"el":42,"az":65,"ss":51,"used":true},{"PRN":4,"el":11,"az":40,"ss":43,"used":true},{"PRN":5,"el":9,"az":115,"ss":38,"used":true},{"PRN":10,"el":17,"az":75,"ss":41,"used":true},{"PRN":12,"el":46,"az":124,"ss":37,"used":true},{"PRN":14,"el":2,"az":250,"ss":0,"used":false},{"PRN":21,"el":2,"az":200,"ss":0,"used":false},{"PRN":23,"el":2,"az":2,"ss":45,"used":false},{"PRN":25,"el":80,"az":156,"ss":26,"used":false},{"PRN":29,"el":58,"az":246,"ss":0,"used":false},{"PRN":30,"el":82,"az":177,"ss":0,"used":false},{"PRN":31,"el":39,"az":300,"ss":0,"used":false}]}
$GPGGA,125055,5355.1620,N,02730.0214,E,1,10,1.57,272.32,M,23.373,M,,*44
$GPRMC,125055,A,5355.1620,N,02730.0214,E,0.0805,208.428,070910,,*2F
$GPGBS,125055,8.68,M,10.56,M,39.83,M*3D
{"class":"TPV","tag":"ID20","mode":3,"time":"2010-09-07T12:50:55.000Z","ept":0.005,"lat":53.919366014,"lon":27.500356908,"alt":272.317,"epx":8.678,"epy":10.558,"epv":39.833,"track":208.4278,"speed":0.041,"climb":0.000,"eps":21.12}
$GPGSV,6,1,21,67,12,002,43,68,22,053,52,69,08,102,39,74,38,187,00*7D
$GPGSV,6,2,21,75,63,278,00,83,15,058,39,84,68,039,45,85,51,253,00*78
$GPGSV,6,3,21,86,01,243,00,02,42,065,51,04,11,040,43,05,09,115,38*73
$GPGSV,6,4,21,10,17,075,41,12,46,124,37,14,02,250,00,21,02,200,00*79
$GPGSV,6,5,21,23,02,002,45,25,80,156,27,29,58,246,00,30,82,177,00*7F
$GPGSV,6,6,21,31,39,300,00*41
{"class":"SKY","tag":"ID22","xdop":0.58,"ydop":0.70,"vdop":1.73,"tdop":1.62,"hdop":1.57,"gdop":2.84,"pdop":2.34,"satellites":[{"PRN":67,"el":12,"az":2,"ss":43,"used":true},{"PRN":68,"el":22,"az":53,"ss":52,"used":true},{"PRN":69,"el":8,"az":102,"ss":39,"used":true},{"PRN":74,"el":38,"az":187,"ss":0,"used":false},{"PRN":75,"el":63,"az":278,"ss":0,"used":false},{"PRN":83,"el":15,"az":58,"ss":39,"used":true},{"PRN":84,"el":68,"az":39,"ss":45,"used":true},{"PRN":85,"el":51,"az":253,"ss":0,"used":false},{"PRN":86,"el":1,"az":243,"ss":0,"used":false},{"PRN":2,"el":42,"az":65,"ss":51,"used":true},{"PRN":4,"el":11,"az":40,"ss":43,"used":true},{"PRN":5,"el":9,"az":115,"ss":38,"used":true},{"PRN":10,"el":17,"az":75,"ss":41,"used":true},{"PRN":12,"el":46,"az":124,"ss":37,"used":true},{"PRN":14,"el":2,"az":250,"ss":0,"used":false},{"PRN":21,"el":2,"az":200,"ss":0,"used":false},{"PRN":23,"el":2,"az":2,"ss":45,"used":false},{"PRN":25,"el":80,"az":156,"ss":27,"used":false},{"PRN":29,"el":58,"az":246,"ss":0,"used":false},{"PRN":30,"el":82,"az":177,"ss":0,"used":false},{"PRN":31,"el":39,"az":300,"ss":0,"used":false}]}
$GPGGA,125056,5355.1619,N,02730.0213,E,1,10,1.57,271.99,M,23.381,M,,*45
$GPRMC,125056,A,5355.1619,N,02730.0213,E,0.0388,197.898,070910,,*2D
$GPGBS,125056,8.68,M,10.56,M,39.83,M*3E
{"class":"TPV","tag":"ID20","mode":3,"time":"2010-09-07T12:50:56.000Z","ept":0.005,"lat":53.919364904,"lon":27.500354302,"alt":271.994,"epx":8.678,"epy":10.558,"epv":39.833,"track":197.8980,"speed":0.020,"climb":0.000,"eps":21.12}
$GPGSV,6,1,21,67,12,002,43,68,22,053,52,69,08,102,40,74,38,187,00*73
$GPGSV,6,2,21,75,63,278,00,83,15,058,39,84,68,039,45,85,51,253,00*78
$GPGSV,6,3,21,86,01,243,00,02,42,065,51,04,11,040,43,05,09,115,38*73
$GPGSV,6,4,21,10,17,075,41,12,46,124,39,14,02,250,00,21,02,200,00*77
$GPGSV,6,5,21,23,02,002,45,25,80,156,26,29,58,246,00,30,82,177,00*7E
$GPGSV,6,6,21,31,39,300,00*41
