# Name: GeoS 1M
# Description: A combined GPS/GLONASS OEM receiver board, 24 channels
# Submitter: Viktar Palstsiuk <viktar.palstsiuk@promwad.com>
# Date: 2010-07-09
# Location: Minsk, Belarus, 53N 27E 
# Notes: NMEA output for a few minutes after power-up
#
$GPGGA,000002.00,,,,,0,,,,,,,,*4A
$GPGSA,A,1,,,,,,,,,,,,,9.9,9.9,9.9*30
$GPGSV,1,1,00*79
$GPRMC,000002.00,V,,,,,,,010108,,,N*77
$GPGGA,000003.00,,,,,0,,,,,,,,*4B
$GPGSA,A,1,,,,,,,,,,,,,9.9,9.9,9.9*30
$GPGSV,1,1,00*79
$GPRMC,000003.00,V,,,,,,,010108,,,N*76
$GPGGA,000004.00,,,,,0,,,,,,,,*4C
$GPGSA,A,1,,,,,,,,,,,,,9.9,9.9,9.9*30
$GPGSV,1,1,00*79
$GPRMC,000004.00,V,,,,,,,010108,,,N*71
$GPGGA,000005.00,,,,,0,,,,,,,,*4D
$GPGSA,A,1,,,,,,,,,,,,,9.9,9.9,9.9*30
$GPGSV,1,1,00*79
$GPRMC,000005.00,V,,,,,,,010108,,,N*70
$GPGGA,000006.00,,,,,0,,,,,,,,*4E
$GPGSA,A,1,,,,,,,,,,,,,9.9,9.9,9.9*30
$GPGSV,1,1,00*79
$GPRMC,000006.00,V,,,,,,,010108,,,N*73
$GPGGA,000007.00,,,,,0,,,,,,,,*4F
$GPGSA,A,1,,,,,,,,,,,,,9.9,9.9,9.9*30
$GPGSV,1,1,00*79
$GPRMC,000007.00,V,,,,,,,010108,,,N*72
$GPGGA,000008.00,,,,,0,,,,,,,,*40
$GPGSA,A,1,,,,,,,,,,,,,9.9,9.9,9.9*30
$GPGSV,1,1,00*79
$GPRMC,000008.00,V,,,,,,,010108,,,N*7D
$GPGGA,000009.00,,,,,0,,,,,,,,*41
$GPGSA,A,1,,,,,,,,,,,,,9.9,9.9,9.9*30
$GPGSV,1,1,00*79
$GPRMC,000009.00,V,,,,,,,010108,,,N*7C
$GPGGA,000010.00,,,,,0,,,,,,,,*49
$GPGSA,A,1,,,,,,,,,,,,,9.9,9.9,9.9*30
$GPGSV,1,1,00*79
$GPRMC,000010.00,V,,,,,,,010108,,,N*74
$GPGGA,000011.00,,,,,0,,,,,,,,*48
$GPGSA,A,1,,,,,,,,,,,,,9.9,9.9,9.9*30
$GPGSV,1,1,00*79
$GPRMC,000011.00,V,,,,,,,010108,,,N*75
$GPGGA,000012.00,,,,,0,,,,,,,,*4B
$GPGSA,A,1,,,,,,,,,,,,,9.9,9.9,9.9*30
$GPGSV,1,1,00*79
$GPRMC,000012.00,V,,,,,,,010108,,,N*76
$GPGGA,000013.00,,,,,0,,,,,,,,*4A
$GPGSA,A,1,,,,,,,,,,,,,9.9,9.9,9.9*30
$GPGSV,1,1,00*79
$GPRMC,000013.00,V,,,,,,,010108,,,N*77
$GPGGA,000014.00,,,,,0,,,,,,,,*4D
$GPGSA,A,1,,,,,,,,,,,,,9.9,9.9,9.9*30
$GPGSV,1,1,00*79
$GPRMC,000014.00,V,,,,,,,010108,,,N*70
$GPGGA,000015.00,,,,,0,,,,,,,,*4C
$GPGSA,A,1,,,,,,,,,,,,,9.9,9.9,9.9*30
$GPGSV,1,1,00*79
$GPRMC,000015.00,V,,,,,,,010108,,,N*71
$GPGGA,000016.00,,,,,0,,,,,,,,*4F
$GPGSA,A,1,,,,,,,,,,,,,9.9,9.9,9.9*30
$GPGSV,1,1,00*79
$GPRMC,000016.00,V,,,,,,,010108,,,N*72
$GPGGA,000017.00,,,,,0,,,,,,,,*4E
$GPGSA,A,1,,,,,,,,,,,,,9.9,9.9,9.9*30
$GPGSV,1,1,00*79
$GPRMC,000017.00,V,,,,,,,010108,,,N*73
$GPGGA,000018.00,,,,,0,,,,,,,,*41
$GPGSA,A,1,,,,,,,,,,,,,9.9,9.9,9.9*30
$GPGSV,1,1,00*79
$GPRMC,000018.00,V,,,,,,,010108,,,N*7C
$GPGGA,000019.00,,,,,0,,,,,,,,*40
$GPGSA,A,1,,,,,,,,,,,,,9.9,9.9,9.9*30
$GPGSV,1,1,00*79
$GPRMC,000019.00,V,,,,,,,010108,,,N*7D
$GPGGA,000020.00,,,,,0,,,,,,,,*4A
$GPGSA,A,1,,,,,,,,,,,,,9.9,9.9,9.9*30
$GPGSV,1,1,00*79
$GPRMC,000020.00,V,,,,,,,010108,,,N*77
$GPGGA,000021.00,,,,,0,,,,,,,,*4B
$GPGSA,A,1,,,,,,,,,,,,,9.9,9.9,9.9*30
$GPGSV,1,1,00*79
$GPRMC,000021.00,V,,,,,,,010108,,,N*76
$GPGGA,000022.00,,,,,0,,,,,,,,*48
$GPGSA,A,1,,,,,,,,,,,,,9.9,9.9,9.9*30
$GPGSV,1,1,00*79
$GPRMC,000022.00,V,,,,,,,010108,,,N*75
$GPGGA,000023.00,,,,,0,,,,,,,,*49
$GPGSA,A,1,,,,,,,,,,,,,9.9,9.9,9.9*30
$GPGSV,1,1,00*79
$GPRMC,000023.00,V,,,,,,,010108,,,N*74
$GPGGA,000024.00,,,,,0,,,,,,,,*4E
$GPGSA,A,1,,,,,,,,,,,,,9.9,9.9,9.9*30
$GPGSV,1,1,00*79
$GPRMC,000024.00,V,,,,,,,010108,,,N*73
$GPGGA,000025.00,,,,,0,,,,,,,,*4F
$GPGSA,A,1,,,,,,,,,,,,,9.9,9.9,9.9*30
$GPGSV,1,1,00*79
$GPRMC,000025.00,V,,,,,,,010108,,,N*72
$GPGGA,000026.00,,,,,0,,,,,,,,*4C
$GPGSA,A,1,,,,,,,,,,,,,9.9,9.9,9.9*30
$GPGSV,1,1,00*79
$GPRMC,000026.00,V,,,,,,,010108,,,N*71
$GPGGA,000027.00,,,,,0,,,,,,,,*4D
$GPGSA,A,1,,,,,,,,,,,,,9.9,9.9,9.9*30
$GPGSV,1,1,00*79
$GPRMC,000027.00,V,,,,,,,010108,,,N*70
$GPGGA,000028.00,,,,,0,,,,,,,,*42
$GPGSA,A,1,,,,,,,,,,,,,9.9,9.9,9.9*30
$GPGSV,1,1,00*79
$GPRMC,000028.00,V,,,,,,,010108,,,N*7F
$GPGGA,000029.00,,,,,0,,,,,,,,*43
$GPGSA,A,1,,,,,,,,,,,,,9.9,9.9,9.9*30
$GPGSV,1,1,00*79
$GPRMC,000029.00,V,,,,,,,010108,,,N*7E
$GPGGA,000030.00,,,,,0,,,,,,,,*4B
$GPGSA,A,1,,,,,,,,,,,,,9.9,9.9,9.9*30
$GPGSV,1,1,00*79
$GPRMC,000030.00,V,,,,,,,010108,,,N*76
$GPGGA,000031.00,,,,,0,,,,,,,,*4A
$GPGSA,A,1,,,,,,,,,,,,,9.9,9.9,9.9*30
$GPGSV,1,1,00*79
$GPRMC,000031.00,V,,,,,,,010108,,,N*77
$GPGGA,000032.00,,,,,0,,,,,,,,*49
$GPGSA,A,1,,,,,,,,,,,,,9.9,9.9,9.9*30
$GPGSV,1,1,00*79
$GPRMC,000032.00,V,,,,,,,010108,,,N*74
$GPGGA,000033.00,,,,,0,,,,,,,,*48
$GPGSA,A,1,,,,,,,,,,,,,9.9,9.9,9.9*30
$GPGSV,1,1,00*79
$GPRMC,000033.00,V,,,,,,,010108,,,N*75
$GPGGA,000034.00,,,,,0,,,,,,,,*4F
$GPGSA,A,1,,,,,,,,,,,,,9.9,9.9,9.9*30
$GPGSV,1,1,00*79
$GPRMC,000034.00,V,,,,,,,010108,,,N*72
$GPGGA,000035.00,,,,,0,,,,,,,,*4E
$GPGSA,A,1,,,,,,,,,,,,,9.9,9.9,9.9*30
$GPGSV,1,1,00*79
$GPRMC,000035.00,V,,,,,,,010108,,,N*73
$GPGGA,000036.00,,,,,0,,,,,,,,*4D
$GPGSA,A,1,,,,,,,,,,,,,9.9,9.9,9.9*30
$GPGSV,1,1,00*79
$GPRMC,000036.00,V,,,,,,,010108,,,N*70
$GPGGA,000037.00,,,,,0,,,,,,,,*4C
$GPGSA,A,1,,,,,,,,,,,,,9.9,9.9,9.9*30
$GPGSV,1,1,00*79
$GPRMC,000037.00,V,,,,,,,010108,,,N*71
$GPGGA,000038.00,,,,,0,,,,,,,,*43
$GPGSA,A,1,,,,,,,,,,,,,9.9,9.9,9.9*30
$GPGSV,1,1,00*79
$GPRMC,000038.00,V,,,,,,,010108,,,N*7E
$GPGGA,000039.00,,,,,0,,,,,,,,*42
$GPGSA,A,1,,,,,,,,,,,,,9.9,9.9,9.9*30
$GPGSV,1,1,00*79
$GPRMC,000039.00,V,,,,,,,010108,,,N*7F
$GPGGA,000040.00,,,,,0,,,,,,,,*4C
$GPGSA,A,1,,,,,,,,,,,,,9.9,9.9,9.9*30
$GPGSV,1,1,00*79
$GPRMC,000040.00,V,,,,,,,010108,,,N*71
$GPGGA,000041.00,,,,,0,,,,,,,,*4D
$GPGSA,A,1,,,,,,,,,,,,,9.9,9.9,9.9*30
$GPGSV,1,1,00*79
$GPRMC,000041.00,V,,,,,,,010108,,,N*70
$GPGGA,073658.00,,,,,0,,,,,,,,*47
$GPGSA,A,1,,,,,,,,,,,,,9.9,9.9,9.9*30
$GPGSV,1,1,00*79
$GPRMC,073658.00,V,,,,,,,090710,,,N*7D
$GPGGA,073659.00,,,,,0,,,,,,,,*46
$GPGSA,A,1,,,,,,,,,,,,,9.9,9.9,9.9*30
$GPGSV,1,1,01,75,16,224,*49
$GPRMC,073659.00,V,,,,,,,090710,,,N*7C
$GPGGA,073700.00,,,,,0,,,,,,,,*4B
$GPGSA,A,1,13,16,06,23,73,,,,,,,,9.9,9.9,9.9*36
$GPGSV,1,1,01,75,16,224,*49
$GPRMC,073700.00,V,,,,,,,090710,,,N*71
$GPGGA,073701.00,5355.1495,N,02729.9417,E,1,05,1.7,00242.2,M,0023.3,M,,*63
$GPGSA,A,3,13,16,06,23,73,,,,,,,,2.3,1.7,1.6*34
$GPGSV,1,1,01,75,16,224,*49
$GPRMC,073701.00,A,5355.1495,N,02729.9417,E,000.06702,356.9,090710,,,A*53
$GPGGA,073702.00,5355.1508,N,02729.9466,E,1,05,8.3,00244.1,M,0023.3,M,,*6B
$GPGSA,A,3,13,16,06,23,73,,,,,,,,9.9,8.3,8.4*33
$GPGSV,1,1,01,75,16,224,*49
$GPRMC,073702.00,A,5355.1508,N,02729.9466,E,000.07498,266.1,090710,,,A*58
$GPGGA,073703.00,5355.1508,N,02729.9466,E,1,05,8.3,00244.1,M,0023.3,M,,*6A
$GPGSA,A,3,13,16,06,23,73,,,,,,,,9.9,8.3,8.4*33
$GPGSV,1,1,01,75,16,224,*49
$GPRMC,073703.00,A,5355.1508,N,02729.9466,E,000.07498,266.1,090710,,,A*59
$GPGGA,073705.00,5355.1534,N,02729.9549,E,1,05,1.7,00250.9,M,0023.2,M,,*6E
$GPGSA,A,3,13,16,06,23,73,,,,,,,,2.3,1.7,1.6*34
$GPGSV,1,1,02,75,16,224,,81,12,346,*71
$GPRMC,073705.00,A,5355.1534,N,02729.9549,E,000.10468,235.7,090710,,,A*55
$GPGGA,073706.00,5355.1542,N,02729.9565,E,1,05,8.3,00253.6,M,0023.3,M,,*62
$GPGSA,A,3,13,16,06,23,73,,,,,,,,9.9,8.3,8.3*34
$GPGSV,1,1,03,75,16,224,,81,12,346,,82,13,037,*4C
$GPRMC,073706.00,A,5355.1542,N,02729.9565,E,000.11095,243.8,090710,,,A*50
$GPGGA,073707.00,5355.1552,N,02729.9598,E,1,05,1.7,00256.1,M,0023.3,M,,*6F
$GPGSA,A,3,13,16,06,23,73,,,,,,,,2.3,1.7,1.6*34
$GPGSV,1,1,03,75,16,224,,81,12,346,,82,13,037,*4C
$GPRMC,073707.00,A,5355.1552,N,02729.9598,E,000.08909,042.3,090710,,,A*5E
$GPGGA,073708.00,5355.1559,N,02729.9626,E,1,05,8.3,00258.9,M,0023.3,M,,*66
$GPGSA,A,3,13,16,06,23,73,,,,,,,,9.9,8.3,8.3*34
$GPGSV,1,1,03,75,16,224,,81,12,346,,82,13,037,*4C
$GPRMC,073708.00,A,5355.1559,N,02729.9626,E,000.27917,064.3,090710,,,A*5A
$GPGGA,073709.00,5355.1569,N,02729.9658,E,1,05,1.7,00261.4,M,0023.3,M,,*67
$GPGSA,A,3,13,16,06,23,73,,,,,,,,2.3,1.7,1.6*34
$GPGSV,1,1,03,75,16,224,,81,12,346,,82,13,037,*4C
$GPRMC,073709.00,A,5355.1569,N,02729.9658,E,000.44616,064.7,090710,,,A*5E
$GPGGA,073710.00,5355.1572,N,02729.9665,E,1,05,8.3,00261.7,M,0023.4,M,,*62
$GPGSA,A,3,13,16,06,23,73,,,,,,,,9.9,8.3,8.3*34
$GPGSV,1,1,03,75,16,224,,81,12,346,38,82,13,037,*47
$GPRMC,073710.00,A,5355.1572,N,02729.9665,E,000.29454,061.5,090710,,,A*5A
$GPGGA,073711.00,5355.1573,N,02729.9667,E,1,06,1.9,00261.8,M,0023.3,M,,*68
$GPGSA,A,3,13,16,06,23,81,73,,,,,,,3.2,1.9,2.6*30
$GPGSV,1,1,03,75,16,224,,81,12,346,38,82,13,037,*47
$GPRMC,073711.00,A,5355.1573,N,02729.9667,E,000.16099,245.7,090710,,,A*57
$GPGGA,073712.00,5355.1573,N,02729.9669,E,1,06,1.9,00261.9,M,0023.4,M,,*63
$GPGSA,A,3,13,16,06,23,81,73,,,,,,,3.2,1.9,2.6*30
$GPGSV,1,1,03,75,16,224,,81,12,346,37,82,13,037,*48
$GPRMC,073712.00,A,5355.1573,N,02729.9669,E,000.38390,242.3,090710,,,A*5F
$GPGGA,073713.00,5355.1573,N,02729.9670,E,1,06,1.9,00262.0,M,0023.4,M,,*60
$GPGSA,A,3,13,16,06,23,81,73,,,,,,,3.2,1.9,2.6*30
$GPGSV,1,1,04,01,01,023,48,75,16,224,,81,12,346,37,82,13,037,*72
$GPRMC,073713.00,A,5355.1573,N,02729.9670,E,000.43483,240.7,090710,,,A*59
$GPGGA,073714.00,5355.1573,N,02729.9670,E,1,06,1.9,00262.1,M,0023.4,M,,*66
$GPGSA,A,3,13,16,06,23,81,73,,,,,,,3.2,1.9,2.6*30
$GPGSV,2,1,05,01,01,023,48,02,17,256,,75,16,224,,81,12,346,37*79
$GPGSV,2,2,05,82,13,037,*40
$GPRMC,073714.00,A,5355.1573,N,02729.9670,E,000.39287,239.5,090710,,,A*5D
$GPGGA,073715.00,5355.1573,N,02729.9671,E,1,06,1.9,00262.3,M,0023.3,M,,*63
$GPGSA,A,3,13,16,06,23,81,73,,,,,,,3.2,1.9,2.6*30
$GPGSV,2,1,06,01,01,023,49,02,17,256,,03,07,075,40,75,16,224,*76
$GPGSV,2,2,06,81,12,346,37,82,13,037,*7C
$GPRMC,073715.00,A,5355.1573,N,02729.9671,E,000.30442,238.1,090710,,,A*5E
$GPGGA,073716.00,5355.1574,N,02729.9672,E,1,06,1.9,00262.4,M,0023.3,M,,*63
$GPGSA,A,3,13,16,06,23,81,73,,,,,,,3.2,1.9,2.6*30
$GPGSV,2,1,07,01,01,023,49,02,17,256,,03,07,075,40,04,04,219,*7C
$GPGSV,2,2,07,75,16,224,,81,12,346,37,82,13,037,*4C
$GPRMC,073716.00,A,5355.1574,N,02729.9672,E,000.21078,236.2,090710,,,A*59
$GPGGA,073717.00,5355.1574,N,02729.9673,E,1,06,1.9,00262.4,M,0023.3,M,,*63
$GPGSA,A,3,13,16,06,23,81,73,,,,,,,3.2,1.9,2.6*30
$GPGSV,2,1,08,01,01,023,49,02,17,256,,03,07,075,40,04,04,219,*73
$GPGSV,2,2,08,05,35,304,,75,16,224,,81,12,346,37,82,13,037,*77
$GPRMC,073717.00,A,5355.1574,N,02729.9673,E,000.14125,234.1,090710,,,A*57
$GPGGA,073718.00,5355.1575,N,02729.9674,E,1,06,1.9,00262.5,M,0023.3,M,,*6B
$GPGSA,A,3,13,16,06,23,81,73,,,,,,,3.2,1.9,2.6*30
$GPGSV,3,1,09,01,01,023,49,02,17,256,,03,07,075,41,04,04,219,*72
$GPGSV,3,2,09,05,35,304,,06,07,060,47,75,16,224,,81,12,346,37*7F
$GPGSV,3,3,09,82,13,037,*4C
$GPRMC,073718.00,A,5355.1575,N,02729.9674,E,000.08593,230.7,090710,,,A*58
$GPGGA,073719.00,5355.1575,N,02729.9676,E,1,06,1.9,00262.5,M,0023.3,M,,*68
$GPGSA,A,3,13,16,06,23,81,73,,,,,,,3.2,1.9,2.6*30
$GPGSV,3,1,10,01,01,023,49,02,17,256,,03,07,075,41,04,04,219,*7A
$GPGSV,3,2,10,05,35,304,,06,07,060,47,07,81,169,,75,16,224,*78
$GPGSV,3,3,10,81,12,346,37,82,13,037,*7B
$GPRMC,073719.00,A,5355.1575,N,02729.9676,E,000.05053,222.9,090710,,,A*52
$GPGGA,073720.00,5355.1576,N,02729.9678,E,1,06,1.9,00262.5,M,0023.4,M,,*68
$GPGSA,A,3,13,16,06,23,81,73,,,,,,,3.2,1.9,2.6*30
$GPGSV,3,1,11,01,01,023,49,02,17,256,,03,07,075,40,04,04,219,*7A
$GPGSV,3,2,11,05,35,304,,06,07,060,47,07,81,169,,08,46,222,*70
$GPGSV,3,3,11,75,16,224,,81,12,346,36,82,13,037,*4A
$GPRMC,073720.00,A,5355.1576,N,02729.9678,E,000.02505,209.1,090710,,,A*55
$GPGGA,073721.00,5355.1576,N,02729.9680,E,1,06,1.9,00262.6,M,0023.4,M,,*6D
$GPGSA,A,3,13,16,06,23,81,73,,,,,,,3.2,1.9,2.6*30
$GPGSV,3,1,11,01,01,023,49,02,17,256,,03,07,075,39,04,04,219,*74
$GPGSV,3,2,11,05,35,304,,06,07,060,47,07,81,169,,08,46,222,*70
$GPGSV,3,3,11,75,16,224,,81,12,346,36,82,13,037,*4A
$GPRMC,073721.00,A,5355.1576,N,02729.9680,E,000.01167,160.3,090710,,,A*5E
$GPGGA,073722.00,5355.1577,N,02729.9682,E,1,06,1.9,00262.7,M,0023.3,M,,*6B
$GPGSA,A,3,13,16,06,23,81,73,,,,,,,3.2,1.9,2.6*30
$GPGSV,3,1,12,01,01,023,50,02,17,256,,03,07,075,40,04,04,219,*71
$GPGSV,3,2,12,05,35,304,,06,07,060,47,07,81,169,,08,46,222,*73
$GPGSV,3,3,12,10,61,260,,75,16,224,,81,12,346,36,82,13,037,*7B
$GPRMC,073722.00,A,5355.1577,N,02729.9682,E,000.01489,137.0,090710,,,A*5A
$GPGGA,073723.00,5355.1577,N,02729.9684,E,1,06,1.9,00262.6,M,0023.3,M,,*6D
$GPGSA,A,3,13,16,06,23,81,73,,,,,,,3.2,1.9,2.6*30
$GPGSV,3,1,12,01,01,023,50,02,17,256,,03,07,075,39,04,04,219,*7F
$GPGSV,3,2,12,05,35,304,,06,07,060,48,07,81,169,,08,46,222,*7C
$GPGSV,3,3,12,10,61,260,,75,16,224,,81,12,346,36,82,13,037,*7B
$GPRMC,073723.00,A,5355.1577,N,02729.9684,E,000.01629,129.7,090710,,,A*5D
$GPGGA,073724.00,5355.1578,N,02729.9686,E,1,06,1.9,00262.7,M,0023.3,M,,*66
$GPGSA,A,3,13,16,06,23,81,73,,,,,,,3.2,1.9,2.6*30
$GPGSV,3,1,12,01,01,023,50,02,17,256,,03,07,075,39,04,04,219,*7F
$GPGSV,3,2,12,05,35,304,,06,07,060,48,07,81,169,,08,46,222,*7C
$GPGSV,3,3,12,10,61,260,,75,16,224,,81,12,346,36,82,13,037,*7B
$GPRMC,073724.00,A,5355.1578,N,02729.9686,E,000.01699,137.7,090710,,,A*53
$GPGGA,073725.00,5355.1578,N,02729.9687,E,1,06,1.9,00262.7,M,0023.4,M,,*61
$GPGSA,A,3,13,16,06,23,81,73,,,,,,,3.2,1.9,2.6*30
$GPGSV,4,1,13,01,01,023,50,02,17,256,,03,07,075,39,04,04,219,*79
$GPGSV,4,2,13,05,35,304,,06,07,060,48,07,81,169,,08,46,222,*7A
$GPGSV,4,3,13,10,61,260,,13,42,097,55,75,16,224,,81,12,346,36*7B
$GPGSV,4,4,13,82,13,037,*47
$GPRMC,073725.00,A,5355.1578,N,02729.9687,E,000.01574,156.2,090710,,,A*51
$GPGGA,073726.00,5355.1579,N,02729.9690,E,1,06,1.9,00262.8,M,0023.3,M,,*6D
$GPGSA,A,3,13,16,06,23,81,73,,,,,,,3.2,1.9,2.6*30
$GPGSV,4,1,13,01,01,023,49,02,17,256,,03,07,075,39,04,04,219,*71
$GPGSV,4,2,13,05,35,304,,06,07,060,48,07,81,169,,08,46,222,*7A
$GPGSV,4,3,13,10,61,260,,13,42,097,55,75,16,224,,81,12,346,36*7B
$GPGSV,4,4,13,82,13,037,*47
$GPRMC,073726.00,A,5355.1579,N,02729.9690,E,000.01712,170.9,090710,,,A*58
$GPGGA,073727.00,5355.1579,N,02729.9692,E,1,06,1.9,00262.9,M,0023.3,M,,*6F
$GPGSA,A,3,13,16,06,23,81,73,,,,,,,3.2,1.9,2.6*30
$GPGSV,4,1,13,01,01,023,49,02,17,256,,03,07,075,38,04,04,219,*70
$GPGSV,4,2,13,05,35,304,,06,07,060,48,07,81,169,,08,46,222,*7A
$GPGSV,4,3,13,10,61,260,,13,42,097,55,75,16,224,,81,12,346,36*7B
$GPGSV,4,4,13,82,13,037,*47
$GPRMC,073727.00,A,5355.1579,N,02729.9692,E,000.01620,176.7,090710,,,A*53
$GPGGA,073728.00,5355.1580,N,02729.9694,E,1,06,1.9,00262.8,M,0023.3,M,,*61
$GPGSA,A,3,13,16,06,23,81,73,,,,,,,3.2,1.9,2.6*30
$GPGSV,4,1,14,01,01,023,48,02,17,256,,03,07,075,38,04,04,219,*76
$GPGSV,4,2,14,05,35,304,,06,07,060,47,07,81,169,,08,46,222,*72
$GPGSV,4,3,14,10,61,260,,13,42,097,55,16,12,031,49,75,16,224,*79
$GPGSV,4,4,14,81,12,346,36,82,13,037,*7E
$GPRMC,073728.00,A,5355.1580,N,02729.9694,E,000.01974,189.4,090710,,,A*51
$GPGGA,073729.00,5355.1580,N,02729.9696,E,1,06,1.9,00262.9,M,0023.3,M,,*63
$GPGSA,A,3,13,16,06,23,81,73,,,,,,,3.2,1.9,2.6*30
$GPGSV,4,1,14,01,01,023,47,02,17,256,,03,07,075,38,04,04,219,*79
$GPGSV,4,2,14,05,35,304,,06,07,060,47,07,81,169,,08,46,222,*72
$GPGSV,4,3,14,10,61,260,,13,42,097,55,16,12,031,48,75,16,224,*78
$GPGSV,4,4,14,81,12,346,36,82,13,037,*7E
$GPRMC,073729.00,A,5355.1580,N,02729.9696,E,000.02415,192.6,090710,,,A*53
$GPGGA,073730.00,5355.1581,N,02729.9699,E,1,06,1.9,00262.9,M,0023.3,M,,*65
$GPGSA,A,3,13,16,06,23,81,73,,,,,,,3.2,1.9,2.6*30
$GPGSV,4,1,14,01,01,023,47,02,17,256,,03,07,075,39,04,04,219,*78
$GPGSV,4,2,14,05,35,304,,06,07,060,47,07,81,169,,08,46,222,*72
$GPGSV,4,3,14,10,61,260,,13,42,097,54,16,12,031,48,75,16,224,*79
$GPGSV,4,4,14,81,12,346,37,82,13,037,*7F
$GPRMC,073730.00,A,5355.1581,N,02729.9699,E,000.02905,194.8,090710,,,A*51
$GPGGA,073731.00,5355.1582,N,02729.9702,E,1,06,1.9,00263.1,M,0023.3,M,,*6D
$GPGSA,A,3,13,16,06,23,81,73,,,,,,,3.2,1.9,2.6*30
$GPGSV,4,1,14,01,01,023,47,02,17,256,,03,07,075,38,04,04,219,*79
$GPGSV,4,2,14,05,35,304,,06,07,060,48,07,81,169,,08,46,222,*7D
$GPGSV,4,3,14,10,61,260,,13,42,097,54,16,12,031,48,75,16,224,*79
$GPGSV,4,4,14,81,12,346,37,82,13,037,*7F
$GPRMC,073731.00,A,5355.1582,N,02729.9702,E,000.02642,189.6,090710,,,A*5E
$GPGGA,073732.00,5355.1584,N,02729.9708,E,1,06,1.9,00263.3,M,0023.3,M,,*60
$GPGSA,A,3,13,16,06,23,81,73,,,,,,,3.2,1.9,2.6*30
$GPGSV,4,1,14,01,01,023,47,02,17,256,,03,07,075,39,04,04,219,*78
$GPGSV,4,2,14,05,35,304,,06,07,060,48,07,81,169,,08,46,222,*7D
$GPGSV,4,3,14,10,61,260,,13,42,097,54,16,12,031,48,75,16,224,*79
$GPGSV,4,4,14,81,12,346,37,82,13,037,*7F
$GPRMC,073732.00,A,5355.1584,N,02729.9708,E,000.02146,177.0,090710,,,A*55
$GPGGA,073733.00,5355.1588,N,02729.9716,E,1,06,1.9,00263.7,M,0023.3,M,,*66
$GPGSA,A,3,13,16,06,23,81,73,,,,,,,3.2,1.9,2.6*30
$GPGSV,4,1,14,01,01,023,47,02,17,256,,03,07,075,40,04,04,219,*76
$GPGSV,4,2,14,05,35,304,,06,07,060,48,07,81,169,,08,46,222,*7D
$GPGSV,4,3,14,10,61,260,,13,42,097,54,16,12,031,48,75,16,224,*79
$GPGSV,4,4,14,81,12,346,38,82,13,037,*70
$GPRMC,073733.00,A,5355.1588,N,02729.9716,E,000.01828,115.8,090710,,,A*59
$GPGGA,073734.00,5355.1592,N,02729.9727,E,1,07,1.8,00264.2,M,0023.3,M,,*6A
$GPGSA,A,3,13,16,06,03,23,81,73,,,,,,3.1,1.8,2.5*32
$GPGSV,4,1,14,01,01,023,46,02,17,256,,03,07,075,40,04,04,219,*77
$GPGSV,4,2,14,05,35,304,,06,07,060,48,07,81,169,,08,46,222,*7D
$GPGSV,4,3,14,10,61,260,,13,42,097,53,16,12,031,48,75,16,224,*7E
$GPGSV,4,4,14,81,12,346,38,82,13,037,*70
$GPRMC,073734.00,A,5355.1592,N,02729.9727,E,000.03048,079.2,090710,,,A*5A
$GPGGA,073735.00,5355.1597,N,02729.9738,E,1,07,1.8,00264.8,M,0023.3,M,,*6A
$GPGSA,A,3,13,16,06,03,23,81,73,,,,,,3.1,1.8,2.5*32
$GPGSV,4,1,15,01,01,023,46,02,17,256,,03,07,075,40,04,04,219,*76
$GPGSV,4,2,15,05,35,304,,06,07,060,48,07,81,169,,08,46,222,*7C
$GPGSV,4,3,15,10,61,260,,13,42,097,53,16,12,031,47,23,22,102,53*75
$GPGSV,4,4,15,75,16,224,,81,12,346,37,82,13,037,*4F
$GPRMC,073735.00,A,5355.1597,N,02729.9738,E,000.04256,068.8,090710,,,A*50
$GPGGA,073736.00,5355.1600,N,02729.9748,E,1,07,1.8,00265.2,M,0023.3,M,,*68
$GPGSA,A,3,13,16,06,03,23,81,73,,,,,,3.1,1.8,2.5*32
$GPGSV,4,1,15,01,01,023,45,02,17,256,,03,07,075,40,04,04,219,*75
$GPGSV,4,2,15,05,35,304,,06,07,060,47,07,81,169,,08,46,222,*73
$GPGSV,4,3,15,10,61,260,,13,42,097,52,16,12,031,46,23,22,102,52*74
$GPGSV,4,4,15,75,16,224,,81,12,346,37,82,13,037,*4F
$GPRMC,073736.00,A,5355.1600,N,02729.9748,E,000.04548,070.2,090710,,,A*52
$GPGGA,073737.00,5355.1604,N,02729.9756,E,1,07,1.8,00265.5,M,0023.3,M,,*65
$GPGSA,A,3,13,16,06,03,23,81,73,,,,,,3.1,1.8,2.5*32
$GPGSV,4,1,16,01,01,023,46,02,17,256,,03,07,075,40,04,04,219,*75
$GPGSV,4,2,16,05,35,304,,06,07,060,47,07,81,169,,08,46,222,*70
$GPGSV,4,3,16,10,61,260,,13,42,097,52,16,12,031,46,23,22,102,53*76
$GPGSV,4,4,16,25,68,073,,75,16,224,,81,12,346,37,82,13,037,*71
$GPRMC,073737.00,A,5355.1604,N,02729.9756,E,000.04316,074.3,090710,,,A*50
$GPGGA,073738.00,5355.1606,N,02729.9763,E,1,07,1.8,00265.6,M,0023.4,M,,*6A
$GPGSA,A,3,13,16,06,03,23,81,73,,,,,,3.1,1.8,2.5*32
$GPGSV,4,1,16,01,01,023,46,02,17,256,,03,07,075,39,04,04,219,*7B
$GPGSV,4,2,16,05,35,304,,06,07,060,47,07,81,169,,08,46,222,*70
$GPGSV,4,3,16,10,61,260,,13,42,097,52,16,12,031,46,23,22,102,53*76
$GPGSV,4,4,16,25,68,073,,75,16,224,,81,12,346,37,82,13,037,*71
$GPRMC,073738.00,A,5355.1606,N,02729.9763,E,000.03571,081.8,090710,,,A*5A
$GPGGA,073739.00,5355.1608,N,02729.9768,E,1,07,1.8,00265.8,M,0023.3,M,,*67
$GPGSA,A,3,13,16,06,03,23,81,73,,,,,,3.1,1.8,2.5*32
$GPGSV,4,1,16,01,01,023,46,02,17,256,,03,07,075,38,04,04,219,*7A
$GPGSV,4,2,16,05,35,304,,06,07,060,47,07,81,169,,08,46,222,*70
$GPGSV,4,3,16,10,61,260,,13,42,097,52,16,12,031,46,23,22,102,52*77
$GPGSV,4,4,16,25,68,073,,75,16,224,,81,12,346,37,82,13,037,*71
$GPRMC,073739.00,A,5355.1608,N,02729.9768,E,000.02156,121.9,090710,,,A*54
$GPGGA,073740.00,5355.1609,N,02729.9773,E,1,07,1.8,00266.0,M,0023.3,M,,*69
$GPGSA,A,3,13,16,06,03,23,81,73,,,,,,3.1,1.8,2.5*32
$GPGSV,5,1,17,01,01,023,47,02,17,256,,03,07,075,37,04,04,219,*74
$GPGSV,5,2,17,05,35,304,,06,07,060,47,07,81,169,,08,46,222,*70
$GPGSV,5,3,17,10,61,260,,13,42,097,52,16,12,031,47,23,22,102,53*77
$GPGSV,5,4,17,25,68,073,,28,02,178,,75,16,224,,81,12,346,37*7B
$GPGSV,5,5,17,82,13,037,*43
$GPRMC,073740.00,A,5355.1609,N,02729.9773,E,000.02405,175.8,090710,,,A*52
$GPGGA,073741.00,5355.1610,N,02729.9777,E,1,07,1.8,00265.9,M,0023.3,M,,*6E
$GPGSA,A,3,13,16,06,03,23,81,73,,,,,,3.1,1.8,2.5*32
$GPGSV,5,1,17,01,01,023,47,02,17,256,,03,07,075,36,04,04,219,*75
$GPGSV,5,2,17,05,35,304,,06,07,060,47,07,81,169,,08,46,222,*70
$GPGSV,5,3,17,10,61,260,,13,42,097,52,16,12,031,47,23,22,102,52*76
$GPGSV,5,4,17,25,68,073,,28,02,178,,75,16,224,,81,12,346,37*7B
$GPGSV,5,5,17,82,13,037,*43
$GPRMC,073741.00,A,5355.1610,N,02729.9777,E,000.03367,195.7,090710,,,A*5C
$GPGGA,073742.00,5355.1610,N,02729.9782,E,1,07,1.8,00265.6,M,0023.4,M,,*6F
$GPGSA,A,3,13,16,06,03,23,81,73,,,,,,3.1,1.8,2.5*32
$GPGSV,5,1,17,01,01,023,47,02,17,256,,03,07,075,35,04,04,219,*76
$GPGSV,5,2,17,05,35,304,,06,07,060,47,07,81,169,,08,46,222,*70
$GPGSV,5,3,17,10,61,260,,13,42,097,52,16,12,031,47,23,22,102,52*76
$GPGSV,5,4,17,25,68,073,,28,02,178,,75,16,224,,81,12,346,37*7B
$GPGSV,5,5,17,82,13,037,*43
$GPRMC,073742.00,A,5355.1610,N,02729.9782,E,000.03697,191.9,090710,,,A*55
$GPGGA,073743.00,5355.1609,N,02729.9789,E,1,07,1.8,00265.0,M,0023.3,M,,*6C
$GPGSA,A,3,13,16,06,03,23,81,73,,,,,,3.1,1.8,2.5*32
$GPGSV,5,1,17,01,01,023,47,02,17,256,,03,07,075,35,04,04,219,*76
$GPGSV,5,2,17,05,35,304,,06,07,060,47,07,81,169,,08,46,222,*70
$GPGSV,5,3,17,10,61,260,,13,42,097,52,16,12,031,47,23,22,102,52*76
$GPGSV,5,4,17,25,68,073,,28,02,178,,75,16,224,,81,12,346,37*7B
$GPGSV,5,5,17,82,13,037,*43
$GPRMC,073743.00,A,5355.1609,N,02729.9789,E,000.04599,150.1,090710,,,A*58
$GPGGA,073744.00,5355.1609,N,02729.9796,E,1,07,1.8,00264.6,M,0023.3,M,,*62
$GPGSA,A,3,13,16,06,03,23,81,73,,,,,,3.1,1.8,2.5*32
$GPGSV,5,1,17,01,01,023,47,02,17,256,,03,07,075,36,04,04,219,*75
$GPGSV,5,2,17,05,35,304,,06,07,060,47,07,81,169,,08,46,222,*70
$GPGSV,5,3,17,10,61,260,,13,42,097,53,16,12,031,47,23,22,102,52*77
$GPGSV,5,4,17,25,68,073,,28,02,178,,75,16,224,,81,12,346,37*7B
$GPGSV,5,5,17,82,13,037,*43
$GPRMC,073744.00,A,5355.1609,N,02729.9796,E,000.05690,138.6,090710,,,A*53
$GPGGA,073745.00,5355.1608,N,02729.9800,E,1,07,1.8,00264.2,M,0023.3,M,,*66
$GPGSA,A,3,13,16,06,03,23,81,73,,,,,,3.1,1.8,2.5*32
$GPGSV,5,1,18,01,01,023,47,02,17,256,,03,07,075,39,04,04,219,*75
$GPGSV,5,2,18,05,35,304,,06,07,060,47,07,81,169,,08,46,222,*7F
$GPGSV,5,3,18,10,61,260,,13,42,097,53,16,12,031,47,23,22,102,52*78
$GPGSV,5,4,18,25,68,073,,28,02,178,,65,28,320,,75,16,224,*73
$GPGSV,5,5,18,81,12,346,37,82,13,037,*73
$GPRMC,073745.00,A,5355.1608,N,02729.9800,E,000.05292,135.8,090710,,,A*56
$GPGGA,073746.00,5355.1609,N,02729.9803,E,1,07,1.8,00264.1,M,0023.4,M,,*63
$GPGSA,A,3,13,16,06,03,23,81,73,,,,,,3.1,1.8,2.5*32
$GPGSV,5,1,18,01,01,023,47,02,17,256,,03,07,075,41,04,04,219,*7A
$GPGSV,5,2,18,05,35,304,,06,07,060,47,07,81,169,,08,46,222,*7F
$GPGSV,5,3,18,10,61,260,,13,42,097,53,16,12,031,47,23,22,102,52*78
$GPGSV,5,4,18,25,68,073,,28,02,178,,65,28,320,,75,16,224,*73
$GPGSV,5,5,18,81,12,346,37,82,13,037,*73
$GPRMC,073746.00,A,5355.1609,N,02729.9803,E,000.03599,145.8,090710,,,A*5A
$GPGGA,073747.00,5355.1609,N,02729.9805,E,1,07,1.8,00264.1,M,0023.4,M,,*64
$GPGSA,A,3,13,16,06,03,23,81,73,,,,,,3.1,1.8,2.5*32
$GPGSV,5,1,18,01,01,023,47,02,17,256,,03,07,075,41,04,04,219,*7A
$GPGSV,5,2,18,05,35,304,,06,07,060,46,07,81,169,,08,46,222,*7E
$GPGSV,5,3,18,10,61,260,,13,42,097,53,16,12,031,47,23,22,102,52*78
$GPGSV,5,4,18,25,68,073,,28,02,178,,65,28,320,,75,16,224,*73
$GPGSV,5,5,18,81,12,346,38,82,13,037,*7C
$GPRMC,073747.00,A,5355.1609,N,02729.9805,E,000.02088,152.2,090710,,,A*55
$GPGGA,073748.00,5355.1610,N,02729.9808,E,1,07,1.8,00264.2,M,0023.3,M,,*6A
$GPGSA,A,3,13,16,06,03,23,81,73,,,,,,3.1,1.8,2.5*32
$GPGSV,5,1,18,01,01,023,47,02,17,256,,03,07,075,41,04,04,219,*7A
$GPGSV,5,2,18,05,35,304,,06,07,060,46,07,81,169,,08,46,222,*7E
$GPGSV,5,3,18,10,61,260,,13,42,097,53,16,12,031,47,23,22,102,51*7B
$GPGSV,5,4,18,25,68,073,,28,02,178,,65,28,320,,75,16,224,*73
$GPGSV,5,5,18,81,12,346,38,82,13,037,*7C
$GPRMC,073748.00,A,5355.1610,N,02729.9808,E,000.01216,182.7,090710,,,A*51
$GPGGA,073749.00,5355.1610,N,02729.9811,E,1,07,1.8,00264.1,M,0023.4,M,,*67
$GPGSA,A,3,13,16,06,03,23,81,73,,,,,,3.1,1.8,2.5*32
$GPGSV,5,1,18,01,01,023,47,02,17,256,,03,07,075,42,04,04,219,*79
$GPGSV,5,2,18,05,35,304,,06,07,060,46,07,81,169,,08,46,222,*7E
$GPGSV,5,3,18,10,61,260,,13,42,097,54,16,12,031,47,23,22,102,51*7C
$GPGSV,5,4,18,25,68,073,,28,02,178,,65,28,320,,75,16,224,*73
$GPGSV,5,5,18,81,12,346,37,82,13,037,*73
$GPRMC,073749.00,A,5355.1610,N,02729.9811,E,000.00496,180.7,090710,,,A*55
$GPGGA,073750.00,5355.1611,N,02729.9813,E,1,07,1.8,00264.3,M,0023.3,M,,*69
$GPGSA,A,3,13,16,06,03,23,81,73,,,,,,3.1,1.8,2.5*32
$GPGSV,5,1,18,01,01,023,47,02,17,256,,03,07,075,42,04,04,219,*79
$GPGSV,5,2,18,05,35,304,,06,07,060,46,07,81,169,,08,46,222,*7E
$GPGSV,5,3,18,10,61,260,,13,42,097,54,16,12,031,46,23,22,102,51*7D
$GPGSV,5,4,18,25,68,073,,28,02,178,,65,28,320,,75,16,224,*73
$GPGSV,5,5,18,81,12,346,38,82,13,037,*7C
$GPRMC,073750.00,A,5355.1611,N,02729.9813,E,000.00322,124.1,090710,,,A*5E
$GPGGA,073751.00,5355.1612,N,02729.9816,E,1,07,1.8,00264.3,M,0023.4,M,,*69
$GPGSA,A,3,13,16,06,03,23,81,73,,,,,,3.1,1.8,2.5*32
$GPGSV,5,1,19,01,01,023,48,02,17,256,,03,07,075,42,04,04,219,*77
$GPGSV,5,2,19,05,35,304,,06,07,060,46,07,81,169,,08,46,222,*7F
$GPGSV,5,3,19,10,61,260,,13,42,097,54,16,12,031,46,23,22,102,50*7D
$GPGSV,5,4,19,25,68,073,,28,02,178,,65,28,320,,71,36,162,*75
$GPGSV,5,5,19,75,16,224,,81,12,346,38,82,13,037,*4C
$GPRMC,073751.00,A,5355.1612,N,02729.9816,E,000.00564,176.0,090710,,,A*5B
$GPGGA,073752.00,5355.1613,N,02729.9819,E,1,07,1.8,00264.5,M,0023.3,M,,*65
$GPGSA,A,3,13,16,06,03,23,81,73,,,,,,3.1,1.8,2.5*32
$GPGSV,5,1,20,01,01,023,48,02,17,256,,03,07,075,42,04,04,219,*7D
$GPGSV,5,2,20,05,35,304,,06,07,060,47,07,81,169,,08,46,222,*74
$GPGSV,5,3,20,10,61,260,,13,42,097,54,16,12,031,46,23,22,102,50*77
$GPGSV,5,4,20,25,68,073,,28,02,178,,65,28,320,,71,36,162,*7F
$GPGSV,5,5,20,72,77,258,,75,16,224,,81,12,346,38,82,13,037,*7C
$GPRMC,073752.00,A,5355.1613,N,02729.9819,E,000.00732,166.1,090710,,,A*57
$GPGGA,073753.00,5355.1613,N,02729.9822,E,1,07,1.8,00264.6,M,0023.3,M,,*6F
$GPGSA,A,3,13,16,06,03,23,81,73,,,,,,3.1,1.8,2.5*32
$GPGSV,6,1,21,01,01,023,48,02,17,256,,03,07,075,42,04,04,219,*7F
$GPGSV,6,2,21,05,35,304,,06,07,060,47,07,81,169,,08,46,222,*76
$GPGSV,6,3,21,10,61,260,,13,42,097,54,16,12,031,47,23,22,102,50*74
$GPGSV,6,4,21,25,68,073,,28,02,178,,65,28,320,,71,36,162,*7D
$GPGSV,6,5,21,72,77,258,,73,50,045,39,75,16,224,,81,12,346,38*78
$GPGSV,6,6,21,82,13,037,*46
$GPRMC,073753.00,A,5355.1613,N,02729.9822,E,000.01141,125.6,090710,,,A*5D
$GPGGA,073754.00,5355.1615,N,02729.9824,E,1,07,1.8,00264.7,M,0023.3,M,,*69
$GPGSA,A,3,13,16,06,03,23,81,73,,,,,,3.1,1.8,2.5*32
$GPGSV,6,1,22,01,01,023,48,02,17,256,,03,07,075,42,04,04,219,*7C
$GPGSV,6,2,22,05,35,304,,06,07,060,47,07,81,169,,08,46,222,*75
$GPGSV,6,3,22,10,61,260,,13,42,097,54,16,12,031,48,23,22,102,51*79
$GPGSV,6,4,22,25,68,073,,28,02,178,,65,28,320,,71,36,162,*7E
$GPGSV,6,5,22,72,77,258,,73,50,045,39,74,71,226,,75,16,224,*78
$GPGSV,6,6,22,81,12,346,38,82,13,037,*75
$GPRMC,073754.00,A,5355.1615,N,02729.9824,E,000.01681,104.5,090710,,,A*51
$GPGGA,073755.00,5355.1616,N,02729.9827,E,1,07,1.8,00264.8,M,0023.4,M,,*60
$GPGSA,A,3,13,16,06,03,23,81,73,,,,,,3.1,1.8,2.5*32
$GPGSV,6,1,22,01,01,023,48,02,17,256,,03,07,075,42,04,04,219,*7C
$GPGSV,6,2,22,05,35,304,,06,07,060,47,07,81,169,,08,46,222,*75
$GPGSV,6,3,22,10,61,260,,13,42,097,54,16,12,031,48,23,22,102,51*79
$GPGSV,6,4,22,25,68,073,,28,02,178,,65,28,320,,71,36,162,*7E
$GPGSV,6,5,22,72,77,258,,73,50,045,39,74,71,226,,75,16,224,*78
$GPGSV,6,6,22,81,12,346,39,82,13,037,*74
$GPRMC,073755.00,A,5355.1616,N,02729.9827,E,000.01720,111.1,090710,,,A*5A
$GPGGA,073756.00,5355.1617,N,02729.9830,E,1,07,1.8,00265.0,M,0023.3,M,,*6A
$GPGSA,A,3,13,16,06,03,23,81,73,,,,,,3.1,1.8,2.5*32
$GPGSV,6,1,22,01,01,023,48,02,17,256,,03,07,075,41,04,04,219,*7F
$GPGSV,6,2,22,05,35,304,,06,07,060,47,07,81,169,,08,46,222,*75
$GPGSV,6,3,22,10,61,260,,13,42,097,54,16,12,031,48,23,22,102,51*79
$GPGSV,6,4,22,25,68,073,,28,02,178,,65,28,320,,71,36,162,*7E
$GPGSV,6,5,22,72,77,258,,73,50,045,39,74,71,226,,75,16,224,*78
$GPGSV,6,6,22,81,12,346,39,82,13,037,*74
$GPRMC,073756.00,A,5355.1617,N,02729.9830,E,000.01485,139.9,090710,,,A*50
$GPGGA,073757.00,5355.1618,N,02729.9833,E,1,07,1.8,00265.2,M,0023.3,M,,*65
$GPGSA,A,3,13,16,06,03,23,81,73,,,,,,3.1,1.8,2.5*32
$GPGSV,6,1,22,01,01,023,48,02,17,256,,03,07,075,41,04,04,219,*7F
$GPGSV,6,2,22,05,35,304,,06,07,060,47,07,81,169,,08,46,222,*75
$GPGSV,6,3,22,10,61,260,,13,42,097,54,16,12,031,48,23,22,102,51*79
$GPGSV,6,4,22,25,68,073,,28,02,178,,65,28,320,,71,36,162,*7E
$GPGSV,6,5,22,72,77,258,,73,50,045,39,74,71,226,,75,16,224,*78
$GPGSV,6,6,22,81,12,346,39,82,13,037,*74
$GPRMC,073757.00,A,5355.1618,N,02729.9833,E,000.01753,184.8,090710,,,A*52
$GPGGA,073758.00,5355.1620,N,02729.9839,E,1,07,1.8,00265.5,M,0023.2,M,,*6D
$GPGSA,A,3,13,16,06,03,23,81,73,,,,,,3.1,1.8,2.5*32
$GPGSV,6,1,22,01,01,023,47,02,17,256,,03,07,075,41,04,04,219,*70
$GPGSV,6,2,22,05,35,304,,06,07,060,47,07,81,169,,08,46,222,*75
$GPGSV,6,3,22,10,61,260,,13,42,097,54,16,12,031,47,23,22,102,52*75
$GPGSV,6,4,22,25,68,073,,28,02,178,31,65,28,320,,71,36,162,*7C
$GPGSV,6,5,22,72,77,258,,73,50,045,40,74,71,226,,75,16,224,*76
$GPGSV,6,6,22,81,12,346,39,82,13,037,*74
$GPRMC,073758.00,A,5355.1620,N,02729.9839,E,000.02205,199.0,090710,,,A*5D
$GPGGA,073759.00,5355.1623,N,02729.9846,E,1,07,1.8,00265.7,M,0023.4,M,,*63
$GPGSA,A,3,13,16,06,03,23,81,73,,,,,,3.1,1.8,2.5*32
$GPGSV,6,1,22,01,01,023,47,02,17,256,,03,07,075,40,04,04,219,*71
$GPGSV,6,2,22,05,35,304,,06,07,060,47,07,81,169,,08,46,222,*75
$GPGSV,6,3,22,10,61,260,,13,42,097,54,16,12,031,47,23,22,102,53*74
$GPGSV,6,4,22,25,68,073,,28,02,178,30,65,28,320,,71,36,162,*7D
$GPGSV,6,5,22,72,77,258,,73,50,045,40,74,71,226,,75,16,224,*76
$GPGSV,6,6,22,81,12,346,39,82,13,037,*74
$GPRMC,073759.00,A,5355.1623,N,02729.9846,E,000.02422,200.3,090710,,,A*54
$GPGGA,073800.00,5355.1625,N,02729.9852,E,1,07,1.8,00265.8,M,0023.4,M,,*6C
$GPGSA,A,3,13,16,06,03,23,81,73,,,,,,3.1,1.8,2.5*32
$GPGSV,6,1,22,01,01,023,47,02,17,256,,03,07,075,40,04,04,219,*71
$GPGSV,6,2,22,05,35,304,,06,07,060,47,07,81,169,,08,46,222,*75
$GPGSV,6,3,22,10,61,260,,13,42,097,54,16,12,031,47,23,22,102,53*74
$GPGSV,6,4,22,25,68,073,,28,02,178,30,65,28,320,,71,36,162,*7D
$GPGSV,6,5,22,72,77,258,,73,50,045,40,74,71,226,,75,16,224,*76
$GPGSV,6,6,22,81,12,346,39,82,13,037,*74
$GPRMC,073800.00,A,5355.1625,N,02729.9852,E,000.01801,175.6,090710,,,A*5E
$GPGGA,073801.00,5355.1626,N,02729.9856,E,1,07,1.8,00265.9,M,0023.3,M,,*6C
$GPGSA,A,3,13,16,06,03,23,81,73,,,,,,3.1,1.8,2.5*32
$GPGSV,6,1,22,01,01,023,47,02,17,256,,03,07,075,40,04,04,219,*71
$GPGSV,6,2,22,05,35,304,,06,07,060,47,07,81,169,,08,46,222,*75
$GPGSV,6,3,22,10,61,260,,13,42,097,54,16,12,031,46,23,22,102,53*75
$GPGSV,6,4,22,25,68,073,,28,02,178,31,65,28,320,,71,36,162,*7C
$GPGSV,6,5,22,72,77,258,,73,50,045,40,74,71,226,,75,16,224,*76
$GPGSV,6,6,22,81,12,346,39,82,13,037,*74
$GPRMC,073801.00,A,5355.1626,N,02729.9856,E,000.01908,166.8,090710,,,A*5C
$GPGGA,073802.00,5355.1627,N,02729.9859,E,1,07,1.8,00266.1,M,0023.3,M,,*6A
$GPGSA,A,3,13,16,06,03,23,81,73,,,,,,3.1,1.8,2.5*32
$GPGSV,6,1,22,01,01,023,46,02,17,256,,03,07,075,40,04,04,219,*70
$GPGSV,6,2,22,05,35,304,,06,07,060,46,07,81,169,,08,46,222,*74
$GPGSV,6,3,22,10,61,260,,13,42,097,54,16,12,031,46,23,22,102,53*75
$GPGSV,6,4,22,25,68,073,,28,02,178,30,65,28,320,,71,36,162,*7D
$GPGSV,6,5,22,72,77,258,,73,50,045,40,74,71,226,,75,16,224,*76
$GPGSV,6,6,22,81,12,346,39,82,13,037,*74
$GPRMC,073802.00,A,5355.1627,N,02729.9859,E,000.02314,175.9,090710,,,A*56
$GPGGA,073803.00,5355.1628,N,02729.9862,E,1,07,1.8,00266.1,M,0023.3,M,,*6C
$GPGSA,A,3,13,16,06,03,23,81,73,,,,,,3.1,1.8,2.5*32
$GPGSV,6,1,22,01,01,023,46,02,17,256,,03,07,075,39,04,04,219,*7E
$GPGSV,6,2,22,05,35,304,,06,07,060,46,07,81,169,,08,46,222,*74
$GPGSV,6,3,22,10,61,260,,13,42,097,54,16,12,031,45,23,22,102,54*71
$GPGSV,6,4,22,25,68,073,,28,02,178,30,65,28,320,,71,36,162,*7D
$GPGSV,6,5,22,72,77,258,,73,50,045,40,74,71,226,,75,16,224,*76
$GPGSV,6,6,22,81,12,346,39,82,13,037,*74
$GPRMC,073803.00,A,5355.1628,N,02729.9862,E,000.02562,185.7,090710,,,A*56
$GPGGA,073804.00,5355.1629,N,02729.9865,E,1,07,1.8,00266.2,M,0023.4,M,,*69
$GPGSA,A,3,13,16,06,03,23,81,73,,,,,,3.1,1.8,2.5*32
$GPGSV,6,1,22,01,01,023,45,02,17,256,,03,07,075,39,04,04,219,*7D
$GPGSV,6,2,22,05,35,304,,06,07,060,47,07,81,169,,08,46,222,*75
$GPGSV,6,3,22,10,61,260,,13,42,097,54,16,12,031,45,23,22,102,54*71
$GPGSV,6,4,22,25,68,073,,28,02,178,30,65,28,320,,71,36,162,*7D
$GPGSV,6,5,22,72,77,258,,73,50,045,40,74,71,226,,75,16,224,*76
$GPGSV,6,6,22,81,12,346,39,82,13,037,*74
$GPRMC,073804.00,A,5355.1629,N,02729.9865,E,000.02512,191.5,090710,,,A*57
$GPGGA,073805.00,5355.1630,N,02729.9869,E,1,07,1.8,00266.3,M,0023.3,M,,*6A
$GPGSA,A,3,13,16,06,03,23,81,73,,,,,,3.1,1.8,2.5*32
$GPGSV,6,1,22,01,01,023,45,02,17,256,,03,07,075,39,04,04,219,*7D
$GPGSV,6,2,22,05,35,304,,06,07,060,47,07,81,169,,08,46,222,*75
$GPGSV,6,3,22,10,61,260,,13,42,097,53,16,12,031,45,23,22,102,54*76
$GPGSV,6,4,22,25,68,073,,28,02,178,30,65,28,320,,71,36,162,*7D
$GPGSV,6,5,22,72,77,258,,73,50,045,40,74,71,226,,75,16,224,*76
$GPGSV,6,6,22,81,12,346,39,82,13,037,*74
$GPRMC,073805.00,A,5355.1630,N,02729.9869,E,000.02296,192.7,090710,,,A*58
$GPGGA,073806.00,5355.1631,N,02729.9872,E,1,07,1.8,00266.5,M,0023.3,M,,*64
$GPGSA,A,3,13,16,06,03,23,81,73,,,,,,3.1,1.8,2.5*32
$GPGSV,6,1,22,01,01,023,44,02,17,256,,03,07,075,39,04,04,219,*7C
$GPGSV,6,2,22,05,35,304,,06,07,060,47,07,81,169,,08,46,222,*75
$GPGSV,6,3,22,10,61,260,,13,42,097,53,16,12,031,45,23,22,102,54*76
$GPGSV,6,4,22,25,68,073,,28,02,178,30,65,28,320,,71,36,162,*7D
$GPGSV,6,5,22,72,77,258,,73,50,045,40,74,71,226,,75,16,224,*76
$GPGSV,6,6,22,81,12,346,39,82,13,037,*74
$GPRMC,073806.00,A,5355.1631,N,02729.9872,E,000.02406,188.0,090710,,,A*53
$GPGGA,073807.00,5355.1632,N,02729.9875,E,1,07,1.8,00266.6,M,0023.3,M,,*62
$GPGSA,A,3,13,16,06,03,23,81,73,,,,,,3.1,1.8,2.5*32
$GPGSV,6,1,22,01,01,023,44,02,17,256,,03,07,075,39,04,04,219,*7C
$GPGSV,6,2,22,05,35,304,,06,07,060,47,07,81,169,,08,46,222,*75
$GPGSV,6,3,22,10,61,260,,13,42,097,53,16,12,031,45,23,22,102,53*71
$GPGSV,6,4,22,25,68,073,,28,02,178,29,65,28,320,,71,36,162,*75
$GPGSV,6,5,22,72,77,258,,73,50,045,40,74,71,226,,75,16,224,*76
$GPGSV,6,6,22,81,12,346,38,82,13,037,*75
$GPRMC,073807.00,A,5355.1632,N,02729.9875,E,000.02665,192.5,090710,,,A*5F
$GPGGA,073808.00,5355.1633,N,02729.9878,E,1,07,1.8,00266.6,M,0023.3,M,,*61
$GPGSA,A,3,13,16,06,03,23,81,73,,,,,,3.1,1.8,2.5*32
$GPGSV,6,1,22,01,01,023,45,02,17,256,,03,07,075,40,04,04,219,*73
$GPGSV,6,2,22,05,35,304,,06,07,060,47,07,81,169,,08,46,222,*75
$GPGSV,6,3,22,10,61,260,,13,42,097,53,16,12,031,45,23,22,102,53*71
$GPGSV,6,4,22,25,68,073,,28,02,178,29,65,28,320,,71,36,162,*75
$GPGSV,6,5,22,72,77,258,,73,50,045,40,74,71,226,,75,16,224,*76
$GPGSV,6,6,22,81,12,346,38,82,13,037,*75
$GPRMC,073808.00,A,5355.1633,N,02729.9878,E,000.02739,192.8,090710,,,A*59
$GPGGA,073809.00,5355.1634,N,02729.9882,E,1,07,1.8,00266.5,M,0023.4,M,,*66
$GPGSA,A,3,13,16,06,03,23,81,73,,,,,,3.1,1.8,2.5*32
$GPGSV,6,1,22,01,00,023,45,02,17,256,,03,07,075,40,04,04,219,*72
$GPGSV,6,2,22,05,35,304,,06,07,060,47,07,81,169,,08,46,222,*75
$GPGSV,6,3,22,10,61,260,,13,42,097,53,16,12,031,45,23,22,102,53*71
$GPGSV,6,4,22,25,68,073,,28,02,178,29,65,28,320,,71,36,162,*75
$GPGSV,6,5,22,72,77,258,,73,50,045,39,74,71,226,,75,16,224,*78
$GPGSV,6,6,22,81,12,346,37,82,13,037,*7A
$GPRMC,073809.00,A,5355.1634,N,02729.9882,E,000.03125,195.2,090710,,,A*5D
$GPGGA,073810.00,5355.1634,N,02729.9885,E,1,07,1.8,00266.7,M,0023.3,M,,*6C
$GPGSA,A,3,13,16,06,03,23,81,73,,,,,,3.1,1.8,2.5*32
$GPGSV,6,1,22,01,00,023,44,02,17,255,29,03,07,075,39,04,04,219,*75
$GPGSV,6,2,22,05,35,304,,06,07,060,47,07,81,169,,08,46,222,*75
$GPGSV,6,3,22,10,61,260,,13,42,097,53,16,12,031,45,23,22,102,53*71
$GPGSV,6,4,22,25,68,073,,28,02,178,29,65,28,320,,71,36,162,*75
$GPGSV,6,5,22,72,77,258,,73,50,045,39,74,71,226,,75,16,224,*78
$GPGSV,6,6,22,81,12,346,37,82,13,037,*7A
$GPRMC,073810.00,A,5355.1634,N,02729.9885,E,000.03539,198.7,090710,,,A*53
$GPGGA,073811.00,5355.1635,N,02729.9888,E,1,07,1.8,00266.6,M,0023.3,M,,*60
$GPGSA,A,3,13,16,06,03,23,81,73,,,,,,3.1,1.8,2.5*32
$GPGSV,6,1,22,01,00,023,44,02,17,255,29,03,08,075,39,04,04,219,*7A
$GPGSV,6,2,22,05,35,304,,06,07,060,47,07,81,169,,08,46,222,*75
$GPGSV,6,3,22,10,61,260,,13,42,097,53,16,12,031,45,23,22,102,52*70
$GPGSV,6,4,22,25,68,073,,28,02,178,30,65,28,320,,71,36,162,*7D
$GPGSV,6,5,22,72,77,258,,73,50,045,38,74,71,226,,75,16,224,*79
$GPGSV,6,6,22,81,12,346,37,82,13,037,*7A
$GPRMC,073811.00,A,5355.1635,N,02729.9888,E,000.03561,197.6,090710,,,A*5D
$GPGGA,073812.00,5355.1636,N,02729.9891,E,1,07,1.8,00266.8,M,0023.3,M,,*66
$GPGSA,A,3,13,16,06,03,23,81,73,,,,,,3.1,1.8,2.5*32
$GPGSV,6,1,22,01,00,023,44,02,17,255,29,03,08,075,39,04,03,219,*7D
$GPGSV,6,2,22,05,35,304,,06,07,060,47,07,81,169,,08,46,222,*75
$GPGSV,6,3,22,10,61,260,,13,42,097,53,16,12,031,46,23,22,102,52*73
$GPGSV,6,4,22,25,68,073,,28,02,178,29,65,28,320,,71,36,162,*75
$GPGSV,6,5,22,72,77,258,,73,50,045,37,74,71,226,,75,16,224,*76
$GPGSV,6,6,22,81,12,346,38,82,13,037,*75
$GPRMC,073812.00,A,5355.1636,N,02729.9891,E,000.03782,200.9,090710,,,A*58
$GPGGA,073813.00,5355.1637,N,02729.9894,E,1,07,1.8,00267.0,M,0023.3,M,,*6A
$GPGSA,A,3,13,16,06,03,23,81,73,,,,,,3.1,1.8,2.5*32
$GPGSV,6,1,22,01,00,023,45,02,17,255,29,03,08,075,38,04,03,219,*7D
$GPGSV,6,2,22,05,35,304,,06,07,060,47,07,81,169,,08,46,222,*75
$GPGSV,6,3,22,10,61,260,,13,42,097,53,16,12,031,46,23,22,102,52*73
$GPGSV,6,4,22,25,68,073,,28,02,178,30,65,28,320,,71,36,162,*7D
$GPGSV,6,5,22,72,77,258,,73,50,045,37,74,71,226,,75,16,224,*76
$GPGSV,6,6,22,81,12,346,38,82,13,037,*75
$GPRMC,073813.00,A,5355.1637,N,02729.9894,E,000.03875,202.2,090710,,,A*53
$GPGGA,073814.00,5355.1638,N,02729.9897,E,1,07,1.8,00267.2,M,0023.3,M,,*63
$GPGSA,A,3,13,16,06,03,23,81,73,,,,,,3.1,1.8,2.5*32
$GPGSV,6,1,22,01,00,023,46,02,17,255,29,03,08,075,38,04,03,219,*7E
$GPGSV,6,2,22,05,35,304,,06,07,060,47,07,81,169,,08,46,222,*75
$GPGSV,6,3,22,10,61,260,,13,42,097,53,16,12,031,47,23,22,102,52*72
$GPGSV,6,4,22,25,68,073,,28,02,178,30,65,28,320,,71,36,162,*7D
$GPGSV,6,5,22,72,77,258,,73,50,045,37,74,71,226,,75,16,224,*76
$GPGSV,6,6,22,81,12,346,38,82,13,037,*75
$GPRMC,073814.00,A,5355.1638,N,02729.9897,E,000.03717,198.9,090710,,,A*58
$GPGGA,073815.00,5355.1639,N,02729.9900,E,1,07,1.8,00267.4,M,0023.3,M,,*6A
$GPGSA,A,3,13,16,06,03,23,81,73,,,,,,3.1,1.8,2.5*32
$GPGSV,6,1,22,01,00,023,46,02,17,255,29,03,08,075,38,04,03,219,*7E
$GPGSV,6,2,22,05,35,304,,06,07,060,47,07,81,167,,08,46,222,*7B
$GPGSV,6,3,22,10,61,260,,13,42,097,53,16,12,031,48,23,22,102,52*7D
$GPGSV,6,4,22,25,68,073,,28,02,178,29,65,28,320,,71,36,162,*75
$GPGSV,6,5,22,72,77,258,,73,50,045,38,74,71,226,,75,16,224,*79
$GPGSV,6,6,22,81,12,346,38,82,13,037,*75
$GPRMC,073815.00,A,5355.1639,N,02729.9900,E,000.03478,194.7,090710,,,A*5F
$GPGGA,073816.00,5355.1639,N,02729.9902,E,1,07,1.8,00267.7,M,0023.3,M,,*68
$GPGSA,A,3,13,16,06,03,23,81,73,,,,,,3.1,1.8,2.5*32
$GPGSV,6,1,22,01,00,023,47,02,17,255,28,03,08,075,39,04,03,219,28*75
$GPGSV,6,2,22,05,35,304,,06,07,060,47,07,81,167,,08,46,222,*7B
$GPGSV,6,3,22,10,61,260,,13,42,097,53,16,12,031,48,23,22,102,52*7D
$GPGSV,6,4,22,25,68,073,,28,02,178,29,65,28,320,,71,36,162,*75
$GPGSV,6,5,22,72,77,258,,73,50,045,38,74,71,226,,75,16,224,*79
$GPGSV,6,6,22,81,12,346,38,82,13,037,*75
$GPRMC,073816.00,A,5355.1639,N,02729.9902,E,000.02979,187.6,090710,,,A*50
$GPGGA,073817.00,5355.1639,N,02729.9904,E,1,07,1.8,00268.0,M,0023.3,M,,*67
$GPGSA,A,3,13,16,06,03,23,81,73,,,,,,3.1,1.8,2.5*32
$GPGSV,6,1,22,01,00,023,47,02,17,255,29,03,08,075,39,04,03,219,28*74
$GPGSV,6,2,22,05,35,304,,06,07,060,47,07,81,167,,08,46,222,*7B
$GPGSV,6,3,22,10,61,260,,13,42,097,53,16,12,031,48,23,22,102,52*7D
$GPGSV,6,4,22,25,68,073,,28,02,178,29,65,28,320,,71,36,162,*75
$GPGSV,6,5,22,72,77,258,,73,50,045,38,74,71,226,,75,16,224,*79
$GPGSV,6,6,22,81,12,346,38,82,13,037,*75
$GPRMC,073817.00,A,5355.1639,N,02729.9904,E,000.02675,175.5,090710,,,A*5A
$GPGGA,073818.00,5355.1638,N,02729.9905,E,1,07,1.8,00268.4,M,0023.3,M,,*6C
$GPGSA,A,3,13,16,06,03,23,81,73,,,,,,3.1,1.8,2.5*32
$GPGSV,6,1,22,01,00,023,47,02,17,255,29,03,08,075,40,04,03,219,28*7A
$GPGSV,6,2,22,05,35,304,,06,07,060,47,07,81,167,,08,46,222,*7B
$GPGSV,6,3,22,10,61,259,,13,42,097,52,16,12,031,49,23,22,102,52*77
$GPGSV,6,4,22,25,68,073,,28,02,178,29,65,28,320,,71,36,162,*75
$GPGSV,6,5,22,72,77,258,,73,50,045,38,74,71,226,,75,16,224,*79
$GPGSV,6,6,22,81,12,346,38,82,13,037,*75
$GPRMC,073818.00,A,5355.1638,N,02729.9905,E,000.02694,171.8,090710,,,A*53
$GPGGA,073819.00,5355.1637,N,02729.9905,E,1,07,1.8,00268.7,M,0023.3,M,,*61
$GPGSA,A,3,13,16,06,03,23,81,73,,,,,,3.1,1.8,2.5*32
$GPGSV,6,1,22,01,00,023,47,02,17,255,28,03,08,075,40,04,03,219,28*7B
$GPGSV,6,2,22,05,35,304,,06,07,060,47,07,81,167,,08,46,222,*7B
$GPGSV,6,3,22,10,61,259,,13,42,097,52,16,12,031,49,23,22,102,52*77
$GPGSV,6,4,22,25,68,073,,28,02,178,29,65,28,320,,71,36,162,*75
$GPGSV,6,5,22,72,77,258,,73,50,045,38,74,71,226,,75,16,224,*79
$GPGSV,6,6,22,81,12,346,37,82,13,037,*7A
$GPRMC,073819.00,A,5355.1637,N,02729.9905,E,000.02660,168.3,090710,,,A*55
$GPGGA,073820.00,5355.1636,N,02729.9904,E,1,07,1.8,00268.9,M,0023.3,M,,*65
$GPGSA,A,3,13,16,06,03,23,81,73,,,,,,3.1,1.8,2.5*32
$GPGSV,6,1,22,01,00,023,48,02,17,255,28,03,08,075,41,04,03,219,28*75
$GPGSV,6,2,22,05,35,304,,06,07,060,47,07,81,167,,08,46,222,*7B
$GPGSV,6,3,22,10,61,259,,13,42,097,52,16,12,031,48,23,22,102,52*76
$GPGSV,6,4,22,25,68,073,,28,02,178,28,65,28,320,,71,36,162,*74
$GPGSV,6,5,22,72,77,258,,73,50,045,39,74,71,226,,75,16,224,*78
$GPGSV,6,6,22,81,12,346,37,82,13,037,*7A
$GPRMC,073820.00,A,5355.1636,N,02729.9904,E,000.02513,175.3,090710,,,A*54
$GPGGA,073821.00,5355.1635,N,02729.9905,E,1,07,1.8,00269.3,M,0023.3,M,,*6D
$GPGSA,A,3,13,16,06,03,23,81,73,,,,,,3.1,1.8,2.5*32
$GPGSV,6,1,22,01,00,023,48,02,17,255,28,03,08,075,41,04,03,219,27*7A
$GPGSV,6,2,22,05,35,304,,06,07,060,47,07,81,167,,08,46,222,*7B
$GPGSV,6,3,22,10,61,259,,13,42,097,52,16,12,031,48,23,22,102,52*76
$GPGSV,6,4,22,25,68,073,,28,02,178,28,65,28,320,,71,36,162,*74
$GPGSV,6,5,22,72,77,258,,73,50,045,38,74,71,226,,75,16,224,*79
$GPGSV,6,6,22,81,12,346,37,82,13,037,*7A
$GPRMC,073821.00,A,5355.1635,N,02729.9905,E,000.02674,187.8,090710,,,A*53
$GPGGA,073822.00,5355.1635,N,02729.9906,E,1,07,1.8,00269.7,M,0023.3,M,,*69
$GPGSA,A,3,13,16,06,03,23,81,73,,,,,,3.1,1.8,2.5*32
$GPGSV,6,1,21,01,00,023,48,02,17,255,27,03,08,075,41,04,03,219,28*79
$GPGSV,6,2,21,05,35,304,,06,07,060,47,07,81,167,,08,46,222,*78
$GPGSV,6,3,21,10,61,259,,13,42,097,52,16,12,031,48,23,22,102,52*75
$GPGSV,6,4,21,25,68,073,,28,02,178,28,65,28,320,,71,36,162,*77
$GPGSV,6,5,21,73,50,045,38,74,71,226,,75,16,224,,81,12,346,38*70
$GPGSV,6,6,21,82,13,037,*46
$GPRMC,073822.00,A,5355.1635,N,02729.9906,E,000.02642,194.9,090710,,,A*55
$GPGGA,073823.00,5355.1635,N,02729.9908,E,1,07,1.8,00270.0,M,0023.3,M,,*69
$GPGSA,A,3,13,16,06,03,23,81,73,,,,,,3.1,1.8,2.5*32
$GPGSV,6,1,21,01,00,023,48,02,17,255,28,03,08,075,41,04,03,219,28*76
$GPGSV,6,2,21,05,35,304,,06,07,060,47,07,81,167,,08,46,222,*78
$GPGSV,6,3,21,10,61,259,,13,42,097,52,16,12,031,47,23,22,102,52*7A
$GPGSV,6,4,21,25,68,073,,28,02,178,29,65,28,320,,71,36,162,*76
$GPGSV,6,5,21,73,50,045,38,74,71,226,,75,16,224,,81,12,346,37*7F
$GPGSV,6,6,21,82,13,037,*46
$GPRMC,073823.00,A,5355.1635,N,02729.9908,E,000.02743,196.6,090710,,,A*57
$GPGGA,073824.00,5355.1635,N,02729.9910,E,1,07,1.8,00270.4,M,0023.3,M,,*63
$GPGSA,A,3,13,16,06,03,23,81,73,,,,,,3.1,1.8,2.5*32
$GPGSV,6,1,21,01,00,023,48,02,17,255,28,03,08,075,40,04,03,219,28*77
$GPGSV,6,2,21,05,35,304,,06,07,060,47,07,81,167,,08,46,222,*78
$GPGSV,6,3,21,10,61,259,,13,42,097,52,16,12,031,47,23,22,102,52*7A
$GPGSV,6,4,21,25,68,073,,28,02,178,29,65,28,320,,71,36,162,*76
$GPGSV,6,5,21,73,50,045,37,74,71,226,,75,16,224,,81,12,346,37*70
$GPGSV,6,6,21,82,13,037,*46
$GPRMC,073824.00,A,5355.1635,N,02729.9910,E,000.02731,195.7,090710,,,A*5E
$GPGGA,073825.00,5355.1635,N,02729.9913,E,1,07,1.8,00270.6,M,0023.3,M,,*63
$GPGSA,A,3,13,16,06,03,23,81,73,,,,,,3.1,1.8,2.5*32
$GPGSV,6,1,21,01,00,023,48,02,17,255,28,03,08,075,40,04,03,219,28*77
$GPGSV,6,2,21,05,35,304,,06,07,060,47,07,81,167,,08,46,222,*78
$GPGSV,6,3,21,10,61,259,,13,42,097,52,16,12,031,47,23,22,102,51*79
$GPGSV,6,4,21,25,68,073,,28,02,178,29,65,28,320,,71,36,162,*76
$GPGSV,6,5,21,73,50,045,37,74,71,226,,75,16,224,,81,12,346,37*70
$GPGSV,6,6,21,82,13,037,*46
$GPRMC,073825.00,A,5355.1635,N,02729.9913,E,000.02228,188.7,090710,,,A*5D
$GPGGA,073826.00,5355.1635,N,02729.9914,E,1,07,1.8,00270.6,M,0023.3,M,,*67
$GPGSA,A,3,13,16,06,03,23,81,73,,,,,,3.1,1.8,2.5*32
$GPGSV,6,1,21,01,00,023,48,02,17,255,28,03,08,075,40,04,03,219,28*77
$GPGSV,6,2,21,05,35,304,,06,07,060,46,07,81,167,,08,46,222,*79
$GPGSV,6,3,21,10,61,259,,13,42,097,52,16,12,031,46,23,22,102,51*78
$GPGSV,6,4,21,25,68,073,,28,02,178,29,65,28,320,,71,36,162,*76
$GPGSV,6,5,21,73,50,045,38,74,71,226,,75,16,224,,81,12,346,37*7F
$GPGSV,6,6,21,82,13,037,*46
$GPRMC,073826.00,A,5355.1635,N,02729.9914,E,000.01869,175.8,090710,,,A*58
$GPGGA,073827.00,5355.1634,N,02729.9915,E,1,07,1.8,00270.4,M,0023.3,M,,*64
$GPGSA,A,3,13,16,06,03,23,81,73,,,,,,3.1,1.8,2.4*33
$GPGSV,6,1,21,01,00,023,48,02,17,255,28,03,08,075,40,04,03,219,28*77
$GPGSV,6,2,21,05,35,304,,06,07,060,46,07,81,167,,08,46,222,*79
$GPGSV,6,3,21,10,61,259,,13,42,097,52,16,12,031,46,23,22,102,51*78
$GPGSV,6,4,21,25,68,073,,28,02,178,29,65,28,320,,71,36,162,*76
$GPGSV,6,5,21,73,50,045,39,74,71,226,,75,16,224,,81,12,346,37*7E
$GPGSV,6,6,21,82,13,037,*46
$GPRMC,073827.00,A,5355.1634,N,02729.9915,E,000.01917,177.6,090710,,,A*5D
$GPGGA,073828.00,5355.1634,N,02729.9915,E,1,07,1.8,00270.3,M,0023.3,M,,*6C
$GPGSA,A,3,13,16,06,03,23,81,73,,,,,,3.1,1.8,2.4*33
$GPGSV,6,1,21,01,00,023,48,02,17,255,28,03,08,075,41,04,03,219,27*79
$GPGSV,6,2,21,05,35,304,,06,07,060,46,07,81,167,,08,46,222,*79
$GPGSV,6,3,21,10,61,259,,13,42,097,52,16,12,031,46,23,22,102,52*7B
$GPGSV,6,4,21,25,68,073,,28,02,178,29,65,28,320,,71,36,162,*76
$GPGSV,6,5,21,73,50,045,39,74,71,226,,75,16,224,,81,12,346,37*7E
$GPGSV,6,6,21,82,13,037,*46
$GPRMC,073828.00,A,5355.1634,N,02729.9915,E,000.01991,176.7,090710,,,A*5C
$GPGGA,073829.00,5355.1634,N,02729.9917,E,1,07,1.8,00270.3,M,0023.3,M,,*6F
$GPGSA,A,3,13,16,06,03,23,81,73,,,,,,3.1,1.8,2.4*33
$GPGSV,6,1,21,01,00,023,48,02,17,255,28,03,08,075,41,04,03,219,28*76
$GPGSV,6,2,21,05,35,304,,06,07,060,46,07,81,167,,08,46,222,*79
$GPGSV,6,3,21,10,61,259,,13,42,097,52,16,12,031,46,23,22,102,52*7B
$GPGSV,6,4,21,25,68,073,,28,02,178,29,65,28,320,,71,36,162,*76
$GPGSV,6,5,21,73,50,045,39,74,71,226,,75,16,224,,81,12,346,37*7E
$GPGSV,6,6,21,82,13,037,*46
$GPRMC,073829.00,A,5355.1634,N,02729.9917,E,000.01785,161.7,090710,,,A*52
$GPGGA,073830.00,5355.1635,N,02729.9920,E,1,07,1.8,00270.6,M,0023.3,M,,*67
$GPGSA,A,3,13,16,06,03,23,81,73,,,,,,3.1,1.8,2.4*33
$GPGSV,5,1,20,01,00,023,49,02,17,255,28,03,08,075,42,04,03,219,28*76
$GPGSV,5,2,20,05,35,304,,06,07,060,46,07,81,167,,08,46,222,*7B
$GPGSV,5,3,20,10,61,259,,13,42,097,53,16,12,031,46,23,22,102,52*78
$GPGSV,5,4,20,25,68,073,,28,02,178,29,65,28,320,,71,36,162,*74
$GPGSV,5,5,20,73,50,045,39,75,16,224,,81,12,346,37,82,13,037,*73
$GPRMC,073830.00,A,5355.1635,N,02729.9920,E,000.01855,133.1,090710,,,A*5C
$GPGGA,073831.00,5355.1635,N,02729.9922,E,1,07,1.8,00270.7,M,0023.3,M,,*65
$GPGSA,A,3,13,16,06,03,23,81,73,,,,,,3.1,1.8,2.4*33
$GPGSV,5,1,20,01,00,023,48,02,17,255,28,03,08,075,41,04,03,219,27*7B
$GPGSV,5,2,20,05,35,304,,06,07,060,46,07,81,167,,08,46,222,*7B
$GPGSV,5,3,20,10,61,259,,13,42,097,52,16,12,031,46,23,22,102,52*79
$GPGSV,5,4,20,25,68,073,,28,02,178,28,65,28,320,,71,36,162,*75
$GPGSV,5,5,20,73,50,045,39,75,16,224,,81,12,346,37,82,13,037,*73
$GPRMC,073831.00,A,5355.1635,N,02729.9922,E,000.01963,130.3,090710,,,A*5A
$GPGGA,073832.00,5355.1636,N,02729.9925,E,1,07,1.8,00270.9,M,0023.3,M,,*6C
$GPGSA,A,3,13,16,06,03,23,81,73,,,,,,3.1,1.8,2.4*33
$GPGSV,5,1,20,01,00,023,48,02,17,255,29,03,08,075,41,04,03,219,28*75
$GPGSV,5,2,20,05,35,304,,06,07,060,46,07,81,167,,08,46,222,*7B
$GPGSV,5,3,20,10,61,259,,13,42,097,53,16,12,031,46,23,22,102,52*78
$GPGSV,5,4,20,25,68,073,,28,02,178,28,65,28,320,,71,36,162,*75
$GPGSV,5,5,20,73,50,045,40,75,16,224,,81,12,346,37,82,13,037,*7D
$GPRMC,073832.00,A,5355.1636,N,02729.9925,E,000.02265,116.2,090710,,,A*56
$GPGGA,073833.00,5355.1636,N,02729.9925,E,1,07,1.8,00270.9,M,0023.3,M,,*6D
$GPGSA,A,3,13,16,06,03,23,81,73,,,,,,3.1,1.8,2.4*33
$GPGSV,5,1,20,01,00,023,48,02,17,255,29,03,08,075,40,04,03,219,28*74
$GPGSV,5,2,20,05,35,304,,06,07,060,46,07,81,167,,08,46,222,*7B
$GPGSV,5,3,20,10,61,259,,13,42,097,53,16,12,031,46,23,22,102,52*78
$GPGSV,5,4,20,25,67,072,,28,02,178,29,65,28,320,,71,36,162,*7A
$GPGSV,5,5,20,73,50,045,40,75,16,224,,81,12,346,37,82,13,037,*7D
$GPRMC,073833.00,A,5355.1636,N,02729.9925,E,000.01899,130.4,090710,,,A*5F
$GPGGA,073834.00,5355.1635,N,02729.9926,E,1,07,1.8,00270.8,M,0023.3,M,,*6B
$GPGSA,A,3,13,16,06,03,23,81,73,,,,,,3.1,1.8,2.4*33
$GPGSV,5,1,20,01,00,023,47,02,17,255,29,03,08,075,41,04,03,219,28*7A
$GPGSV,5,2,20,05,35,304,29,06,07,060,46,07,81,167,,08,46,222,*70
$GPGSV,5,3,20,10,61,259,,13,42,097,53,16,12,031,46,23,22,102,52*78
$GPGSV,5,4,20,25,67,072,,28,02,178,30,65,28,320,,71,36,162,*72
$GPGSV,5,5,20,73,50,045,41,75,16,224,,81,12,346,37,82,13,037,*7C
$GPRMC,073834.00,A,5355.1635,N,02729.9926,E,000.01924,141.2,090710,,,A*5F
$GPGGA,073835.00,5355.1636,N,02729.9928,E,1,07,1.8,00270.7,M,0023.3,M,,*68
$GPGSA,A,3,13,16,06,03,23,81,73,,,,,,3.0,1.8,2.4*32
$GPGSV,5,1,20,01,00,023,47,02,17,255,30,03,08,075,41,04,03,219,28*72
$GPGSV,5,2,20,05,35,304,27,06,07,060,46,07,81,167,,08,46,222,*7E
$GPGSV,5,3,20,10,61,259,,13,42,097,53,16,12,031,47,23,22,102,52*79
$GPGSV,5,4,20,25,67,072,,28,02,178,29,65,28,320,,71,36,162,*7A
$GPGSV,5,5,20,73,50,045,40,75,16,224,,81,12,346,37,82,13,037,*7D
$GPRMC,073835.00,A,5355.1636,N,02729.9928,E,000.01902,162.0,090710,,,A*54
$GPGGA,073836.00,5355.1636,N,02729.9930,E,1,07,1.8,00270.4,M,0023.3,M,,*61
$GPGSA,A,3,13,16,06,03,23,81,73,,,,,,3.0,1.8,2.4*32
$GPGSV,5,1,20,01,00,023,47,02,17,255,30,03,08,075,41,04,03,219,27*7D
$GPGSV,5,2,20,05,35,304,26,06,07,060,46,07,81,167,,08,46,222,*7F
$GPGSV,5,3,20,10,61,259,,13,42,097,53,16,12,031,46,23,22,102,52*78
$GPGSV,5,4,20,25,67,072,,28,03,178,30,65,28,320,,71,36,162,*73
$GPGSV,5,5,20,73,50,045,41,75,16,224,,81,12,346,38,82,13,037,*73
$GPRMC,073836.00,A,5355.1636,N,02729.9930,E,000.01738,158.2,090710,,,A*52
$GPGGA,073837.00,5355.1637,N,02729.9933,E,1,07,1.8,00270.4,M,0023.3,M,,*62
$GPGSA,A,3,13,16,06,03,23,81,73,,,,,,3.0,1.8,2.4*32
$GPGSV,5,1,20,01,00,023,47,02,17,255,29,03,08,075,41,04,03,219,28*7A
$GPGSV,5,2,20,05,35,304,24,06,07,060,46,07,81,167,,08,46,222,*7D
$GPGSV,5,3,20,10,61,259,,13,42,097,53,16,12,031,46,23,22,102,52*78
$GPGSV,5,4,20,25,67,072,,28,03,178,29,65,28,320,,71,36,162,*7B
$GPGSV,5,5,20,73,50,045,40,75,16,224,,81,12,346,38,82,13,037,*72
$GPRMC,073837.00,A,5355.1637,N,02729.9933,E,000.01726,156.3,090710,,,A*51
$GPGGA,073838.00,5355.1638,N,02729.9937,E,1,07,1.8,00270.6,M,0023.3,M,,*64
$GPGSA,A,3,13,16,06,03,23,81,73,,,,,,3.0,1.8,2.4*32
$GPGSV,5,1,20,01,00,023,47,02,17,255,29,03,08,075,41,04,03,219,28*7A
$GPGSV,5,2,20,05,35,304,23,06,07,060,46,07,81,167,,08,46,222,*7A
$GPGSV,5,3,20,10,61,259,,13,42,097,53,16,12,031,46,23,22,102,51*7B
$GPGSV,5,4,20,25,67,072,,28,03,178,29,65,28,320,,71,36,162,*7B
$GPGSV,5,5,20,73,50,045,40,75,16,224,,81,12,346,39,82,13,037,*73
$GPRMC,073838.00,A,5355.1638,N,02729.9937,E,000.01707,141.9,090710,,,A*5A
$GPGGA,073839.00,5355.1639,N,02729.9941,E,1,07,1.8,00270.6,M,0023.3,M,,*65
$GPGSA,A,3,13,16,06,03,23,81,73,,,,,,3.0,1.8,2.4*32
$GPGSV,5,1,20,01,00,023,46,02,17,255,29,03,08,075,40,04,03,219,28*7A
$GPGSV,5,2,20,05,35,304,23,06,07,060,46,07,81,167,,08,46,222,*7A
$GPGSV,5,3,20,10,61,259,,13,42,097,53,16,12,031,46,23,22,102,52*78
$GPGSV,5,4,20,25,67,072,,28,03,178,29,65,28,320,,71,36,162,*7B
$GPGSV,5,5,20,73,50,045,40,75,16,224,,81,12,346,39,82,13,037,*73
$GPRMC,073839.00,A,5355.1639,N,02729.9941,E,000.01943,121.2,090710,,,A*58
$GPGGA,073840.00,5355.1639,N,02729.9944,E,1,07,1.8,00270.5,M,0023.3,M,,*6D
$GPGSA,A,3,13,16,06,03,23,81,73,,,,,,3.0,1.8,2.4*32
$GPGSV,5,1,20,01,00,023,46,02,17,255,29,03,08,075,39,04,03,219,28*74
$GPGSV,5,2,20,05,35,304,23,06,07,060,46,07,81,167,,08,46,222,*7A
$GPGSV,5,3,20,10,61,259,,13,42,097,53,16,12,031,46,23,22,102,52*78
$GPGSV,5,4,20,25,67,072,,28,03,178,29,65,28,320,,71,36,162,*7B
$GPGSV,5,5,20,73,50,045,40,75,16,224,,81,12,346,38,82,13,037,*72
$GPRMC,073840.00,A,5355.1639,N,02729.9944,E,000.02156,128.8,090710,,,A*5F
$GPGGA,073841.00,5355.1638,N,02729.9946,E,1,06,1.9,00270.3,M,0023.3,M,,*69
$GPGSA,A,3,13,16,06,23,81,73,,,,,,,3.1,1.9,2.5*30
$GPGSV,5,1,20,01,00,023,45,02,17,255,29,03,08,075,38,04,03,219,28*76
$GPGSV,5,2,20,05,35,304,23,06,07,060,46,07,81,167,,08,46,222,*7A
$GPGSV,5,3,20,10,61,259,,13,42,097,53,16,12,031,47,23,22,102,52*79
$GPGSV,5,4,20,25,67,072,,28,03,178,29,65,29,320,,71,36,162,*7A
$GPGSV,5,5,20,73,50,045,40,75,16,224,,81,12,346,38,82,13,037,*72
$GPRMC,073841.00,A,5355.1638,N,02729.9946,E,000.02280,128.0,090710,,,A*5D
$GPGGA,073842.00,5355.1638,N,02729.9948,E,1,07,1.8,00270.0,M,0023.3,M,,*67
$GPGSA,A,3,13,16,06,03,23,81,73,,,,,,3.0,1.8,2.4*32
$GPGSV,5,1,20,01,00,023,44,02,17,255,29,03,08,075,37,04,03,219,28*78
$GPGSV,5,2,20,05,35,304,23,06,07,060,46,07,81,167,,08,46,222,*7A
$GPGSV,5,3,20,10,61,259,,13,42,097,53,16,12,031,47,23,22,102,52*79
$GPGSV,5,4,20,25,67,072,,28,03,178,30,65,29,320,,71,36,162,*72
$GPGSV,5,5,20,73,50,045,39,75,16,224,,81,12,346,38,82,13,037,*7C
$GPRMC,073842.00,A,5355.1638,N,02729.9948,E,000.02060,134.2,090710,,,A*53
$GPGGA,073843.00,5355.1638,N,02729.9951,E,1,07,1.8,00269.7,M,0023.3,M,,*61
$GPGSA,A,3,13,16,06,03,23,81,73,,,,,,3.0,1.8,2.4*32
$GPGSV,5,1,20,01,00,023,44,02,17,255,28,03,08,075,35,04,03,219,28*7B
$GPGSV,5,2,20,05,35,304,22,06,07,060,46,07,81,167,,08,46,222,*7B
$GPGSV,5,3,20,10,61,259,,13,42,097,52,16,12,031,47,23,22,102,51*7B
$GPGSV,5,4,20,25,67,072,,28,03,178,29,65,29,320,,71,36,162,*7A
$GPGSV,5,5,20,73,50,045,39,75,16,224,,81,12,346,38,82,13,037,*7C
$GPRMC,073843.00,A,5355.1638,N,02729.9951,E,000.02106,127.8,090710,,,A*53
$GPGGA,073844.00,5355.1638,N,02729.9954,E,1,07,1.8,00269.5,M,0023.3,M,,*61
$GPGSA,A,3,13,16,06,03,23,81,73,,,,,,3.0,1.8,2.4*32
$GPGSV,5,1,20,01,00,023,44,02,17,255,28,03,08,075,34,04,03,219,27*75
$GPGSV,5,2,20,05,35,304,23,06,07,060,46,07,81,167,,08,46,222,*7A
$GPGSV,5,3,20,10,61,259,,13,42,097,52,16,12,031,47,23,22,102,51*7B
$GPGSV,5,4,20,25,67,072,,28,03,178,29,65,29,320,,71,36,162,*7A
$GPGSV,5,5,20,73,50,045,37,75,16,224,,81,12,346,38,82,13,037,*72
$GPRMC,073844.00,A,5355.1638,N,02729.9954,E,000.03153,125.7,090710,,,A*5D
$GPGGA,073845.00,5355.1638,N,02729.9958,E,1,07,1.8,00269.5,M,0023.3,M,,*6C
$GPGSA,A,3,13,16,06,03,23,81,73,,,,,,3.0,1.8,2.4*32
$GPGSV,5,1,20,01,00,023,45,02,17,255,28,03,08,075,35,04,03,219,27*75
$GPGSV,5,2,20,05,35,304,23,06,07,060,46,07,81,167,,08,46,222,*7A
$GPGSV,5,3,20,10,61,259,,13,42,097,52,16,12,031,47,23,22,102,51*7B
$GPGSV,5,4,20,25,67,072,,28,03,178,28,65,29,320,,71,36,162,*7B
$GPGSV,5,5,20,73,50,045,37,75,16,224,,81,12,346,38,82,13,037,*72
$GPRMC,073845.00,A,5355.1638,N,02729.9958,E,000.02843,135.2,090710,,,A*5D
$GPGGA,073846.00,5355.1639,N,02729.9961,E,1,07,1.8,00269.8,M,0023.3,M,,*69
$GPGSA,A,3,13,16,06,03,23,81,73,,,,,,3.0,1.8,2.4*32
$GPGSV,5,1,20,01,00,023,46,02,17,255,28,03,08,075,36,04,03,219,26*74
$GPGSV,5,2,20,05,35,304,23,06,07,060,46,07,81,167,,08,46,222,*7A
$GPGSV,5,3,20,10,61,259,,13,42,097,52,16,12,031,47,23,22,102,51*7B
$GPGSV,5,4,20,25,67,072,,28,03,178,29,65,29,320,,71,36,162,*7A
$GPGSV,5,5,20,73,50,045,37,75,16,224,,81,12,346,38,82,13,037,*72
$GPRMC,073846.00,A,5355.1639,N,02729.9961,E,000.02377,155.2,090710,,,A*5F
$GPGGA,073847.00,5355.1639,N,02729.9963,E,1,07,1.8,00270.1,M,0023.3,M,,*6B
$GPGSA,A,3,13,16,06,03,23,81,73,,,,,,3.0,1.8,2.4*32
$GPGSV,5,1,20,01,00,023,46,02,17,255,28,03,08,075,37,04,03,219,27*74
$GPGSV,5,2,20,05,35,304,24,06,07,060,46,07,81,167,,08,46,222,*7D
$GPGSV,5,3,20,10,61,259,,13,42,097,52,16,12,031,47,23,22,102,51*7B
$GPGSV,5,4,20,25,67,072,,28,03,178,29,65,29,320,,71,36,162,*7A
$GPGSV,5,5,20,73,50,045,37,75,16,224,,81,12,346,39,82,13,037,*73
$GPRMC,073847.00,A,5355.1639,N,02729.9963,E,000.02198,170.7,090710,,,A*5D
$GPGGA,073848.00,5355.1640,N,02729.9966,E,1,07,1.8,00270.4,M,0023.3,M,,*6A
$GPGSA,A,3,13,16,06,03,23,81,73,,,,,,3.0,1.8,2.4*32
$GPGSV,6,1,21,01,00,023,46,02,17,255,28,03,08,075,38,04,03,219,26*78
$GPGSV,6,2,21,05,35,304,25,06,07,060,46,07,81,167,,08,46,222,*7E
$GPGSV,6,3,21,10,61,259,,13,42,097,52,16,12,031,46,23,22,102,50*79
$GPGSV,6,4,21,25,67,072,,28,03,178,28,65,29,320,,71,36,162,*79
$GPGSV,6,5,21,72,77,256,,73,50,045,36,75,16,224,,81,12,346,38*79
$GPGSV,6,6,21,82,13,037,*46
$GPRMC,073848.00,A,5355.1640,N,02729.9966,E,000.01859,169.6,090710,,,A*57
$GPGGA,073849.00,5355.1640,N,02729.9968,E,1,07,1.8,00270.8,M,0023.3,M,,*69
$GPGSA,A,3,13,16,06,03,23,81,73,,,,,,3.0,1.8,2.4*32
$GPGSV,6,1,21,01,00,023,45,02,17,255,27,03,08,075,39,04,03,219,26*75
$GPGSV,6,2,21,05,35,304,25,06,07,060,46,07,81,167,,08,46,222,*7E
$GPGSV,6,3,21,10,61,259,,13,42,097,52,16,12,031,45,23,22,102,50*7A
$GPGSV,6,4,21,25,67,072,,28,03,178,28,65,29,320,,71,36,162,*79
$GPGSV,6,5,21,72,77,256,,73,50,045,36,75,16,224,,81,12,346,38*79
$GPGSV,6,6,21,82,13,037,*46
$GPRMC,073849.00,A,5355.1640,N,02729.9968,E,000.01916,179.3,090710,,,A*56
$GPGGA,073850.00,5355.1639,N,02729.9968,E,1,07,1.8,00271.2,M,0023.3,M,,*64
$GPGSA,A,3,13,16,06,03,23,81,73,,,,,,3.0,1.8,2.4*32
$GPGSV,6,1,22,01,00,023,45,02,17,255,28,03,08,075,39,04,03,219,26*79
$GPGSV,6,2,22,05,35,304,24,06,07,060,47,07,81,167,,08,46,222,*7D
$GPGSV,6,3,22,10,61,259,,13,42,097,51,16,12,031,44,23,22,102,50*7B
$GPGSV,6,4,22,25,67,072,,28,03,178,28,65,29,320,,71,36,162,*7A
$GPGSV,6,5,22,72,77,256,,73,50,045,37,74,72,227,,75,16,224,*7A
$GPGSV,6,6,22,81,12,346,38,82,13,037,*75
$GPRMC,073850.00,A,5355.1639,N,02729.9968,E,000.01824,178.4,090710,,,A*56
$GPGGA,073851.00,5355.1640,N,02729.9968,E,1,07,1.8,00271.6,M,0023.3,M,,*6F
$GPGSA,A,3,13,16,06,03,23,81,73,,,,,,3.0,1.8,2.4*32
$GPGSV,6,1,22,01,00,023,45,02,17,255,27,03,08,075,38,04,03,219,27*76
$GPGSV,6,2,22,05,35,304,24,06,07,060,47,07,81,167,,08,46,222,*7D
$GPGSV,6,3,22,10,61,259,,13,42,097,51,16,12,031,44,23,22,102,50*7B
$GPGSV,6,4,22,25,67,072,,28,03,178,27,65,29,320,,71,36,162,*75
$GPGSV,6,5,22,72,77,256,,73,50,045,37,74,72,227,,75,17,225,*7A
$GPGSV,6,6,22,81,12,346,38,82,13,037,*75
$GPRMC,073851.00,A,5355.1640,N,02729.9968,E,000.01860,185.4,090710,,,A*5B
$GPGGA,073852.00,5355.1640,N,02729.9968,E,1,07,1.8,00271.9,M,0023.3,M,,*63
$GPGSA,A,3,13,16,06,03,23,81,73,,,,,,3.0,1.8,2.4*32
$GPGSV,6,1,22,01,00,023,45,02,17,255,27,03,08,075,38,04,03,219,27*76
$GPGSV,6,2,22,05,35,304,24,06,07,060,47,07,81,167,,08,46,222,*7D
$GPGSV,6,3,22,10,61,259,,13,42,097,51,16,12,031,44,23,22,102,50*7B
$GPGSV,6,4,22,25,67,072,,28,03,178,27,65,29,320,,71,36,162,*75
$GPGSV,6,5,22,72,77,256,,73,50,045,37,74,72,227,,75,17,225,*7A
$GPGSV,6,6,22,81,12,346,38,82,13,037,*75
$GPRMC,073852.00,A,5355.1640,N,02729.9968,E,000.02093,194.7,090710,,,A*5C
$GPGGA,073853.00,5355.1641,N,02729.9971,E,1,07,1.8,00272.1,M,0023.3,M,,*60
$GPGSA,A,3,13,16,06,03,23,81,73,,,,,,3.0,1.8,2.4*32
$GPGSV,6,1,22,01,00,023,46,02,17,255,27,03,08,075,38,04,03,219,27*75
