$GPGGA,000002.00,,,,,0,,,,,,,,*4A
$GPGSA,A,1,,,,,,,,,,,,,9.9,9.9,9.9*30
{"class":"TPV","tag":"GSA","mode":1}
$GPGSV,1,1,00*79
$GPRMC,000002.00,V,,,,,,,010108,,,N*77
$GPGGA,000003.00,,,,,0,,,,,,,,*4B
$GPGSA,A,1,,,,,,,,,,,,,9.9,9.9,9.9*30
{"class":"TPV","tag":"GSA","mode":1}
$GPGSV,1,1,00*79
$GPRMC,000003.00,V,,,,,,,010108,,,N*76
$GPGGA,000004.00,,,,,0,,,,,,,,*4C
$GPGSA,A,1,,,,,,,,,,,,,9.9,9.9,9.9*30
{"class":"TPV","tag":"GSA","mode":1}
$GPGSV,1,1,00*79
$GPRMC,000004.00,V,,,,,,,010108,,,N*71
$GPGGA,000005.00,,,,,0,,,,,,,,*4D
$GPGSA,A,1,,,,,,,,,,,,,9.9,9.9,9.9*30
{"class":"TPV","tag":"GSA","mode":1}
$GPGSV,1,1,00*79
$GPRMC,000005.00,V,,,,,,,010108,,,N*70
$GPGGA,000006.00,,,,,0,,,,,,,,*4E
$GPGSA,A,1,,,,,,,,,,,,,9.9,9.9,9.9*30
{"class":"TPV","tag":"GSA","mode":1}
$GPGSV,1,1,00*79
$GPRMC,000006.00,V,,,,,,,010108,,,N*73
$GPGGA,000007.00,,,,,0,,,,,,,,*4F
$GPGSA,A,1,,,,,,,,,,,,,9.9,9.9,9.9*30
{"class":"TPV","tag":"GSA","mode":1}
$GPGSV,1,1,00*79
$GPRMC,000007.00,V,,,,,,,010108,,,N*72
$GPGGA,000008.00,,,,,0,,,,,,,,*40
$GPGSA,A,1,,,,,,,,,,,,,9.9,9.9,9.9*30
{"class":"TPV","tag":"GSA","mode":1}
$GPGSV,1,1,00*79
$GPRMC,000008.00,V,,,,,,,010108,,,N*7D
$GPGGA,000009.00,,,,,0,,,,,,,,*41
$GPGSA,A,1,,,,,,,,,,,,,9.9,9.9,9.9*30
{"class":"TPV","tag":"GSA","mode":1}
$GPGSV,1,1,00*79
$GPRMC,000009.00,V,,,,,,,010108,,,N*7C
$GPGGA,000010.00,,,,,0,,,,,,,,*49
$GPGSA,A,1,,,,,,,,,,,,,9.9,9.9,9.9*30
{"class":"TPV","tag":"GSA","mode":1}
$GPGSV,1,1,00*79
$GPRMC,000010.00,V,,,,,,,010108,,,N*74
$GPGGA,000011.00,,,,,0,,,,,,,,*48
$GPGSA,A,1,,,,,,,,,,,,,9.9,9.9,9.9*30
{"class":"TPV","tag":"GSA","mode":1}
$GPGSV,1,1,00*79
$GPRMC,000011.00,V,,,,,,,010108,,,N*75
$GPGGA,000012.00,,,,,0,,,,,,,,*4B
$GPGSA,A,1,,,,,,,,,,,,,9.9,9.9,9.9*30
{"class":"TPV","tag":"GSA","mode":1}
$GPGSV,1,1,00*79
$GPRMC,000012.00,V,,,,,,,010108,,,N*76
$GPGGA,000013.00,,,,,0,,,,,,,,*4A
$GPGSA,A,1,,,,,,,,,,,,,9.9,9.9,9.9*30
{"class":"TPV","tag":"GSA","mode":1}
$GPGSV,1,1,00*79
$GPRMC,000013.00,V,,,,,,,010108,,,N*77
$GPGGA,000014.00,,,,,0,,,,,,,,*4D
$GPGSA,A,1,,,,,,,,,,,,,9.9,9.9,9.9*30
{"class":"TPV","tag":"GSA","mode":1}
$GPGSV,1,1,00*79
$GPRMC,000014.00,V,,,,,,,010108,,,N*70
$GPGGA,000015.00,,,,,0,,,,,,,,*4C
$GPGSA,A,1,,,,,,,,,,,,,9.9,9.9,9.9*30
{"class":"TPV","tag":"GSA","mode":1}
$GPGSV,1,1,00*79
$GPRMC,000015.00,V,,,,,,,010108,,,N*71
$GPGGA,000016.00,,,,,0,,,,,,,,*4F
$GPGSA,A,1,,,,,,,,,,,,,9.9,9.9,9.9*30
{"class":"TPV","tag":"GSA","mode":1}
$GPGSV,1,1,00*79
$GPRMC,000016.00,V,,,,,,,010108,,,N*72
$GPGGA,000017.00,,,,,0,,,,,,,,*4E
$GPGSA,A,1,,,,,,,,,,,,,9.9,9.9,9.9*30
{"class":"TPV","tag":"GSA","mode":1}
$GPGSV,1,1,00*79
$GPRMC,000017.00,V,,,,,,,010108,,,N*73
$GPGGA,000018.00,,,,,0,,,,,,,,*41
$GPGSA,A,1,,,,,,,,,,,,,9.9,9.9,9.9*30
{"class":"TPV","tag":"GSA","mode":1}
$GPGSV,1,1,00*79
$GPRMC,000018.00,V,,,,,,,010108,,,N*7C
$GPGGA,000019.00,,,,,0,,,,,,,,*40
$GPGSA,A,1,,,,,,,,,,,,,9.9,9.9,9.9*30
{"class":"TPV","tag":"GSA","mode":1}
$GPGSV,1,1,00*79
$GPRMC,000019.00,V,,,,,,,010108,,,N*7D
$GPGGA,000020.00,,,,,0,,,,,,,,*4A
$GPGSA,A,1,,,,,,,,,,,,,9.9,9.9,9.9*30
{"class":"TPV","tag":"GSA","mode":1}
$GPGSV,1,1,00*79
$GPRMC,000020.00,V,,,,,,,010108,,,N*77
$GPGGA,000021.00,,,,,0,,,,,,,,*4B
$GPGSA,A,1,,,,,,,,,,,,,9.9,9.9,9.9*30
{"class":"TPV","tag":"GSA","mode":1}
$GPGSV,1,1,00*79
$GPRMC,000021.00,V,,,,,,,010108,,,N*76
$GPGGA,000022.00,,,,,0,,,,,,,,*48
$GPGSA,A,1,,,,,,,,,,,,,9.9,9.9,9.9*30
{"class":"TPV","tag":"GSA","mode":1}
$GPGSV,1,1,00*79
$GPRMC,000022.00,V,,,,,,,010108,,,N*75
$GPGGA,000023.00,,,,,0,,,,,,,,*49
$GPGSA,A,1,,,,,,,,,,,,,9.9,9.9,9.9*30
{"class":"TPV","tag":"GSA","mode":1}
$GPGSV,1,1,00*79
$GPRMC,000023.00,V,,,,,,,010108,,,N*74
$GPGGA,000024.00,,,,,0,,,,,,,,*4E
$GPGSA,A,1,,,,,,,,,,,,,9.9,9.9,9.9*30
{"class":"TPV","tag":"GSA","mode":1}
$GPGSV,1,1,00*79
$GPRMC,000024.00,V,,,,,,,010108,,,N*73
$GPGGA,000025.00,,,,,0,,,,,,,,*4F
$GPGSA,A,1,,,,,,,,,,,,,9.9,9.9,9.9*30
{"class":"TPV","tag":"GSA","mode":1}
$GPGSV,1,1,00*79
$GPRMC,000025.00,V,,,,,,,010108,,,N*72
$GPGGA,000026.00,,,,,0,,,,,,,,*4C
$GPGSA,A,1,,,,,,,,,,,,,9.9,9.9,9.9*30
{"class":"TPV","tag":"GSA","mode":1}
$GPGSV,1,1,00*79
$GPRMC,000026.00,V,,,,,,,010108,,,N*71
$GPGGA,000027.00,,,,,0,,,,,,,,*4D
$GPGSA,A,1,,,,,,,,,,,,,9.9,9.9,9.9*30
{"class":"TPV","tag":"GSA","mode":1}
$GPGSV,1,1,00*79
$GPRMC,000027.00,V,,,,,,,010108,,,N*70
$GPGGA,000028.00,,,,,0,,,,,,,,*42
$GPGSA,A,1,,,,,,,,,,,,,9.9,9.9,9.9*30
{"class":"TPV","tag":"GSA","mode":1}
$GPGSV,1,1,00*79
$GPRMC,000028.00,V,,,,,,,010108,,,N*7F
$GPGGA,000029.00,,,,,0,,,,,,,,*43
$GPGSA,A,1,,,,,,,,,,,,,9.9,9.9,9.9*30
{"class":"TPV","tag":"GSA","mode":1}
$GPGSV,1,1,00*79
$GPRMC,000029.00,V,,,,,,,010108,,,N*7E
$GPGGA,000030.00,,,,,0,,,,,,,,*4B
$GPGSA,A,1,,,,,,,,,,,,,9.9,9.9,9.9*30
{"class":"TPV","tag":"GSA","mode":1}
$GPGSV,1,1,00*79
$GPRMC,000030.00,V,,,,,,,010108,,,N*76
$GPGGA,000031.00,,,,,0,,,,,,,,*4A
$GPGSA,A,1,,,,,,,,,,,,,9.9,9.9,9.9*30
{"class":"TPV","tag":"GSA","mode":1}
$GPGSV,1,1,00*79
$GPRMC,000031.00,V,,,,,,,010108,,,N*77
$GPGGA,000032.00,,,,,0,,,,,,,,*49
$GPGSA,A,1,,,,,,,,,,,,,9.9,9.9,9.9*30
{"class":"TPV","tag":"GSA","mode":1}
$GPGSV,1,1,00*79
$GPRMC,000032.00,V,,,,,,,010108,,,N*74
$GPGGA,000033.00,,,,,0,,,,,,,,*48
$GPGSA,A,1,,,,,,,,,,,,,9.9,9.9,9.9*30
{"class":"TPV","tag":"GSA","mode":1}
$GPGSV,1,1,00*79
$GPRMC,000033.00,V,,,,,,,010108,,,N*75
$GPGGA,000034.00,,,,,0,,,,,,,,*4F
$GPGSA,A,1,,,,,,,,,,,,,9.9,9.9,9.9*30
{"class":"TPV","tag":"GSA","mode":1}
$GPGSV,1,1,00*79
$GPRMC,000034.00,V,,,,,,,010108,,,N*72
$GPGGA,000035.00,,,,,0,,,,,,,,*4E
$GPGSA,A,1,,,,,,,,,,,,,9.9,9.9,9.9*30
{"class":"TPV","tag":"GSA","mode":1}
$GPGSV,1,1,00*79
$GPRMC,000035.00,V,,,,,,,010108,,,N*73
$GPGGA,000036.00,,,,,0,,,,,,,,*4D
$GPGSA,A,1,,,,,,,,,,,,,9.9,9.9,9.9*30
{"class":"TPV","tag":"GSA","mode":1}
$GPGSV,1,1,00*79
$GPRMC,000036.00,V,,,,,,,010108,,,N*70
$GPGGA,000037.00,,,,,0,,,,,,,,*4C
$GPGSA,A,1,,,,,,,,,,,,,9.9,9.9,9.9*30
{"class":"TPV","tag":"GSA","mode":1}
$GPGSV,1,1,00*79
$GPRMC,000037.00,V,,,,,,,010108,,,N*71
$GPGGA,000038.00,,,,,0,,,,,,,,*43
$GPGSA,A,1,,,,,,,,,,,,,9.9,9.9,9.9*30
{"class":"TPV","tag":"GSA","mode":1}
$GPGSV,1,1,00*79
$GPRMC,000038.00,V,,,,,,,010108,,,N*7E
$GPGGA,000039.00,,,,,0,,,,,,,,*42
$GPGSA,A,1,,,,,,,,,,,,,9.9,9.9,9.9*30
{"class":"TPV","tag":"GSA","mode":1}
$GPGSV,1,1,00*79
$GPRMC,000039.00,V,,,,,,,010108,,,N*7F
$GPGGA,000040.00,,,,,0,,,,,,,,*4C
$GPGSA,A,1,,,,,,,,,,,,,9.9,9.9,9.9*30
{"class":"TPV","tag":"GSA","mode":1}
$GPGSV,1,1,00*79
$GPRMC,000040.00,V,,,,,,,010108,,,N*71
$GPGGA,000041.00,,,,,0,,,,,,,,*4D
$GPGSA,A,1,,,,,,,,,,,,,9.9,9.9,9.9*30
{"class":"TPV","tag":"GSA","mode":1}
$GPGSV,1,1,00*79
$GPRMC,000041.00,V,,,,,,,010108,,,N*70
$GPGGA,073658.00,,,,,0,,,,,,,,*47
$GPGSA,A,1,,,,,,,,,,,,,9.9,9.9,9.9*30
{"class":"TPV","tag":"GSA","mode":1}
$GPGSV,1,1,00*79
$GPRMC,073658.00,V,,,,,,,090710,,,N*7D
$GPGGA,073659.00,,,,,0,,,,,,,,*46
$GPGSA,A,1,,,,,,,,,,,,,9.9,9.9,9.9*30
{"class":"TPV","tag":"GSA","mode":1}
$GPGSV,1,1,01,75,16,224,*49
{"class":"SKY","tag":"GSV","vdop":9.90,"hdop":9.90,"pdop":9.90,"satellites":[{"PRN":75,"el":16,"az":224,"ss":0,"used":false}]}
$GPRMC,073659.00,V,,,,,,,090710,,,N*7C
$GPGGA,073700.00,,,,,0,,,,,,,,*4B
$GPGSA,A,1,13,16,06,23,73,,,,,,,,9.9,9.9,9.9*36
{"class":"TPV","tag":"GSA","mode":1}
$GPGSV,1,1,01,75,16,224,*49
{"class":"SKY","tag":"GSV","vdop":9.90,"hdop":9.90,"pdop":9.90,"satellites":[{"PRN":75,"el":16,"az":224,"ss":0,"used":false}]}
$GPRMC,073700.00,V,,,,,,,090710,,,N*71
$GPGGA,073701.00,5355.1495,N,02729.9417,E,1,05,1.7,00242.2,M,0023.3,M,,*63
{"class":"TPV","tag":"GGA","mode":3,"lat":53.919158333,"lon":27.499028333,"alt":242.200,"epv":227.700}
$GPGSA,A,3,13,16,06,23,73,,,,,,,,2.3,1.7,1.6*34
{"class":"TPV","tag":"GSA","mode":3,"lat":53.919158333,"lon":27.499028333,"alt":242.200,"epv":227.700}
$GPGSV,1,1,01,75,16,224,*49
{"class":"SKY","tag":"GSV","vdop":1.60,"hdop":1.70,"pdop":2.30,"satellites":[{"PRN":75,"el":16,"az":224,"ss":0,"used":false}]}
$GPRMC,073701.00,A,5355.1495,N,02729.9417,E,000.06702,356.9,090710,,,A*53
{"class":"TPV","tag":"RMC","mode":3,"time":"2010-07-09T07:37:01.000Z","ept":0.005,"lat":53.919158333,"lon":27.499028333,"alt":242.200,"epv":227.700,"track":356.9000,"speed":0.034}
$GPGGA,073702.00,5355.1508,N,02729.9466,E,1,05,8.3,00244.1,M,0023.3,M,,*6B
$GPGSA,A,3,13,16,06,23,73,,,,,,,,9.9,8.3,8.4*33
$GPGSV,1,1,01,75,16,224,*49
{"class":"SKY","tag":"GSV","vdop":8.40,"hdop":8.30,"pdop":9.90,"satellites":[{"PRN":75,"el":16,"az":224,"ss":0,"used":false}]}
$GPRMC,073702.00,A,5355.1508,N,02729.9466,E,000.07498,266.1,090710,,,A*58
{"class":"TPV","tag":"RMC","mode":3,"time":"2010-07-09T07:37:02.000Z","ept":0.005,"lat":53.919180000,"lon":27.499110000,"alt":244.100,"epv":36.800,"track":266.1000,"speed":0.039,"climb":1.900}
$GPGGA,073703.00,5355.1508,N,02729.9466,E,1,05,8.3,00244.1,M,0023.3,M,,*6A
$GPGSA,A,3,13,16,06,23,73,,,,,,,,9.9,8.3,8.4*33
$GPGSV,1,1,01,75,16,224,*49
{"class":"SKY","tag":"GSV","vdop":8.40,"hdop":8.30,"pdop":9.90,"satellites":[{"PRN":75,"el":16,"az":224,"ss":0,"used":false}]}
$GPRMC,073703.00,A,5355.1508,N,02729.9466,E,000.07498,266.1,090710,,,A*59
{"class":"TPV","tag":"RMC","mode":3,"time":"2010-07-09T07:37:03.000Z","ept":0.005,"lat":53.919180000,"lon":27.499110000,"alt":244.100,"epv":193.200,"track":266.1000,"speed":0.039,"climb":0.000}
$GPGGA,073705.00,5355.1534,N,02729.9549,E,1,05,1.7,00250.9,M,0023.2,M,,*6E
$GPGSA,A,3,13,16,06,23,73,,,,,,,,2.3,1.7,1.6*34
$GPGSV,1,1,02,75,16,224,,81,12,346,*71
{"class":"SKY","tag":"GSV","vdop":1.60,"hdop":1.70,"pdop":2.30,"satellites":[{"PRN":75,"el":16,"az":224,"ss":0,"used":false},{"PRN":81,"el":12,"az":346,"ss":0,"used":false}]}
$GPRMC,073705.00,A,5355.1534,N,02729.9549,E,000.10468,235.7,090710,,,A*55
{"class":"TPV","tag":"RMC","mode":3,"time":"2010-07-09T07:37:05.000Z","ept":0.005,"lat":53.919223333,"lon":27.499248333,"alt":250.900,"epv":193.200,"track":235.7000,"speed":0.054,"climb":3.400}
$GPGGA,073706.00,5355.1542,N,02729.9565,E,1,05,8.3,00253.6,M,0023.3,M,,*62
$GPGSA,A,3,13,16,06,23,73,,,,,,,,9.9,8.3,8.3*34
$GPGSV,1,1,03,75,16,224,,81,12,346,,82,13,037,*4C
{"class":"SKY","tag":"GSV","xdop":1.57,"ydop":1.24,"vdop":8.30,"tdop":1.50,"hdop":8.30,"gdop":5.84,"pdop":9.90,"satellites":[{"PRN":75,"el":16,"az":224,"ss":0,"used":false},{"PRN":81,"el":12,"az":346,"ss":0,"used":false},{"PRN":82,"el":13,"az":37,"ss":0,"used":false}]}
$GPRMC,073706.00,A,5355.1542,N,02729.9565,E,000.11095,243.8,090710,,,A*50
{"class":"TPV","tag":"RMC","mode":3,"time":"2010-07-09T07:37:06.000Z","ept":0.005,"lat":53.919236667,"lon":27.499275000,"alt":253.600,"epx":23.567,"epy":18.597,"epv":36.800,"track":243.8000,"speed":0.057,"climb":2.700}
$GPGGA,073707.00,5355.1552,N,02729.9598,E,1,05,1.7,00256.1,M,0023.3,M,,*6F
$GPGSA,A,3,13,16,06,23,73,,,,,,,,2.3,1.7,1.6*34
$GPGSV,1,1,03,75,16,224,,81,12,346,,82,13,037,*4C
{"class":"SKY","tag":"GSV","xdop":1.57,"ydop":1.24,"vdop":1.60,"tdop":1.50,"hdop":1.70,"gdop":5.84,"pdop":2.30,"satellites":[{"PRN":75,"el":16,"az":224,"ss":0,"used":false},{"PRN":81,"el":12,"az":346,"ss":0,"used":false},{"PRN":82,"el":13,"az":37,"ss":0,"used":false}]}
$GPRMC,073707.00,A,5355.1552,N,02729.9598,E,000.08909,042.3,090710,,,A*5E
{"class":"TPV","tag":"RMC","mode":3,"time":"2010-07-09T07:37:07.000Z","ept":0.005,"lat":53.919253333,"lon":27.499330000,"alt":256.100,"epx":23.567,"epy":18.597,"epv":190.900,"track":42.3000,"speed":0.046,"climb":2.500,"eps":47.13}
$GPGGA,073708.00,5355.1559,N,02729.9626,E,1,05,8.3,00258.9,M,0023.3,M,,*66
$GPGSA,A,3,13,16,06,23,73,,,,,,,,9.9,8.3,8.3*34
$GPGSV,1,1,03,75,16,224,,81,12,346,,82,13,037,*4C
{"class":"SKY","tag":"GSV","xdop":1.57,"ydop":1.24,"vdop":8.30,"tdop":1.50,"hdop":8.30,"gdop":5.84,"pdop":9.90,"satellites":[{"PRN":75,"el":16,"az":224,"ss":0,"used":false},{"PRN":81,"el":12,"az":346,"ss":0,"used":false},{"PRN":82,"el":13,"az":37,"ss":0,"used":false}]}
$GPRMC,073708.00,A,5355.1559,N,02729.9626,E,000.27917,064.3,090710,,,A*5A
{"class":"TPV","tag":"RMC","mode":3,"time":"2010-07-09T07:37:08.000Z","ept":0.005,"lat":53.919265000,"lon":27.499376667,"alt":258.900,"epx":23.567,"epy":18.597,"epv":36.800,"track":64.3000,"speed":0.144,"climb":2.800,"eps":47.13}
$GPGGA,073709.00,5355.1569,N,02729.9658,E,1,05,1.7,00261.4,M,0023.3,M,,*67
$GPGSA,A,3,13,16,06,23,73,,,,,,,,2.3,1.7,1.6*34
$GPGSV,1,1,03,75,16,224,,81,12,346,,82,13,037,*4C
{"class":"SKY","tag":"GSV","xdop":1.57,"ydop":1.24,"vdop":1.60,"tdop":1.50,"hdop":1.70,"gdop":5.84,"pdop":2.30,"satellites":[{"PRN":75,"el":16,"az":224,"ss":0,"used":false},{"PRN":81,"el":12,"az":346,"ss":0,"used":false},{"PRN":82,"el":13,"az":37,"ss":0,"used":false}]}
$GPRMC,073709.00,A,5355.1569,N,02729.9658,E,000.44616,064.7,090710,,,A*5E
{"class":"TPV","tag":"RMC","mode":3,"time":"2010-07-09T07:37:09.000Z","ept":0.005,"lat":53.919281667,"lon":27.499430000,"alt":261.400,"epx":23.567,"epy":18.597,"epv":190.900,"track":64.7000,"speed":0.230,"climb":2.500,"eps":47.13}
$GPGGA,073710.00,5355.1572,N,02729.9665,E,1,05,8.3,00261.7,M,0023.4,M,,*62
$GPGSA,A,3,13,16,06,23,73,,,,,,,,9.9,8.3,8.3*34
$GPGSV,1,1,03,75,16,224,,81,12,346,38,82,13,037,*47
{"class":"SKY","tag":"GSV","xdop":1.57,"ydop":1.24,"vdop":8.30,"tdop":1.50,"hdop":8.30,"gdop":5.84,"pdop":9.90,"satellites":[{"PRN":75,"el":16,"az":224,"ss":0,"used":false},{"PRN":81,"el":12,"az":346,"ss":38,"used":false},{"PRN":82,"el":13,"az":37,"ss":0,"used":false}]}
$GPRMC,073710.00,A,5355.1572,N,02729.9665,E,000.29454,061.5,090710,,,A*5A
{"class":"TPV","tag":"RMC","mode":3,"time":"2010-07-09T07:37:10.000Z","ept":0.005,"lat":53.919286667,"lon":27.499441667,"alt":261.700,"epx":23.567,"epy":18.597,"epv":36.800,"track":61.5000,"speed":0.152,"climb":0.300,"eps":47.13}
$GPGGA,073711.00,5355.1573,N,02729.9667,E,1,06,1.9,00261.8,M,0023.3,M,,*68
$GPGSA,A,3,13,16,06,23,81,73,,,,,,,3.2,1.9,2.6*30
$GPGSV,1,1,03,75,16,224,,81,12,346,38,82,13,037,*47
{"class":"SKY","tag":"GSV","xdop":1.57,"ydop":1.24,"vdop":2.60,"tdop":1.50,"hdop":1.90,"gdop":5.84,"pdop":3.20,"satellites":[{"PRN":75,"el":16,"az":224,"ss":0,"used":false},{"PRN":81,"el":12,"az":346,"ss":38,"used":true},{"PRN":82,"el":13,"az":37,"ss":0,"used":false}]}
$GPRMC,073711.00,A,5355.1573,N,02729.9667,E,000.16099,245.7,090710,,,A*57
{"class":"TPV","tag":"RMC","mode":3,"time":"2010-07-09T07:37:11.000Z","ept":0.005,"lat":53.919288333,"lon":27.499445000,"alt":261.800,"epx":23.567,"epy":18.597,"epv":190.900,"track":245.7000,"speed":0.083,"climb":0.100,"eps":47.13}
$GPGGA,073712.00,5355.1573,N,02729.9669,E,1,06,1.9,00261.9,M,0023.4,M,,*63
$GPGSA,A,3,13,16,06,23,81,73,,,,,,,3.2,1.9,2.6*30
$GPGSV,1,1,03,75,16,224,,81,12,346,37,82,13,037,*48
{"class":"SKY","tag":"GSV","xdop":1.57,"ydop":1.24,"vdop":2.60,"tdop":1.50,"hdop":1.90,"gdop":5.84,"pdop":3.20,"satellites":[{"PRN":75,"el":16,"az":224,"ss":0,"used":false},{"PRN":81,"el":12,"az":346,"ss":37,"used":true},{"PRN":82,"el":13,"az":37,"ss":0,"used":false}]}
$GPRMC,073712.00,A,5355.1573,N,02729.9669,E,000.38390,242.3,090710,,,A*5F
{"class":"TPV","tag":"RMC","mode":3,"time":"2010-07-09T07:37:12.000Z","ept":0.005,"lat":53.919288333,"lon":27.499448333,"alt":261.900,"epx":23.567,"epy":18.597,"epv":59.800,"track":242.3000,"speed":0.197,"climb":0.100,"eps":47.13}
$GPGGA,073713.00,5355.1573,N,02729.9670,E,1,06,1.9,00262.0,M,0023.4,M,,*60
$GPGSA,A,3,13,16,06,23,81,73,,,,,,,3.2,1.9,2.6*30
$GPGSV,1,1,04,01,01,023,48,75,16,224,,81,12,346,37,82,13,037,*72
{"class":"SKY","tag":"GSV","xdop":1.57,"ydop":1.24,"vdop":2.60,"tdop":1.50,"hdop":1.90,"gdop":5.84,"pdop":3.20,"satellites":[{"PRN":1,"el":1,"az":23,"ss":48,"used":false},{"PRN":75,"el":16,"az":224,"ss":0,"used":false},{"PRN":81,"el":12,"az":346,"ss":37,"used":true},{"PRN":82,"el":13,"az":37,"ss":0,"used":false}]}
$GPRMC,073713.00,A,5355.1573,N,02729.9670,E,000.43483,240.7,090710,,,A*59
{"class":"TPV","tag":"RMC","mode":3,"time":"2010-07-09T07:37:13.000Z","ept":0.005,"lat":53.919288333,"lon":27.499450000,"alt":262.000,"epx":23.567,"epy":18.597,"epv":59.800,"track":240.7000,"speed":0.224,"climb":0.100,"eps":47.13}
$GPGGA,073714.00,5355.1573,N,02729.9670,E,1,06,1.9,00262.1,M,0023.4,M,,*66
$GPGSA,A,3,13,16,06,23,81,73,,,,,,,3.2,1.9,2.6*30
$GPGSV,2,1,05,01,01,023,48,02,17,256,,75,16,224,,81,12,346,37*79
$GPGSV,2,2,05,82,13,037,*40
{"class":"SKY","tag":"GSV","xdop":1.57,"ydop":1.24,"vdop":2.60,"tdop":1.50,"hdop":1.90,"gdop":5.84,"pdop":3.20,"satellites":[{"PRN":1,"el":1,"az":23,"ss":48,"used":false},{"PRN":2,"el":17,"az":256,"ss":0,"used":false},{"PRN":75,"el":16,"az":224,"ss":0,"used":false},{"PRN":81,"el":12,"az":346,"ss":37,"used":true},{"PRN":82,"el":13,"az":37,"ss":0,"used":false}]}
$GPRMC,073714.00,A,5355.1573,N,02729.9670,E,000.39287,239.5,090710,,,A*5D
{"class":"TPV","tag":"RMC","mode":3,"time":"2010-07-09T07:37:14.000Z","ept":0.005,"lat":53.919288333,"lon":27.499450000,"alt":262.100,"epx":23.567,"epy":18.597,"epv":59.800,"track":239.5000,"speed":0.202,"climb":0.100,"eps":47.13}
$GPGGA,073715.00,5355.1573,N,02729.9671,E,1,06,1.9,00262.3,M,0023.3,M,,*63
$GPGSA,A,3,13,16,06,23,81,73,,,,,,,3.2,1.9,2.6*30
$GPGSV,2,1,06,01,01,023,49,02,17,256,,03,07,075,40,75,16,224,*76
$GPGSV,2,2,06,81,12,346,37,82,13,037,*7C
{"class":"SKY","tag":"GSV","xdop":1.57,"ydop":1.24,"vdop":2.60,"tdop":1.50,"hdop":1.90,"gdop":5.84,"pdop":3.20,"satellites":[{"PRN":1,"el":1,"az":23,"ss":49,"used":false},{"PRN":2,"el":17,"az":256,"ss":0,"used":false},{"PRN":3,"el":7,"az":75,"ss":40,"used":false},{"PRN":75,"el":16,"az":224,"ss":0,"used":false},{"PRN":81,"el":12,"az":346,"ss":37,"used":true},{"PRN":82,"el":13,"az":37,"ss":0,"used":false}]}
$GPRMC,073715.00,A,5355.1573,N,02729.9671,E,000.30442,238.1,090710,,,A*5E
{"class":"TPV","tag":"RMC","mode":3,"time":"2010-07-09T07:37:15.000Z","ept":0.005,"lat":53.919288333,"lon":27.499451667,"alt":262.300,"epx":23.567,"epy":18.597,"epv":59.800,"track":238.1000,"speed":0.157,"climb":0.200,"eps":47.13}
$GPGGA,073716.00,5355.1574,N,02729.9672,E,1,06,1.9,00262.4,M,0023.3,M,,*63
$GPGSA,A,3,13,16,06,23,81,73,,,,,,,3.2,1.9,2.6*30
$GPGSV,2,1,07,01,01,023,49,02,17,256,,03,07,075,40,04,04,219,*7C
$GPGSV,2,2,07,75,16,224,,81,12,346,37,82,13,037,*4C
{"class":"SKY","tag":"GSV","xdop":1.57,"ydop":1.24,"vdop":2.60,"tdop":1.50,"hdop":1.90,"gdop":5.84,"pdop":3.20,"satellites":[{"PRN":1,"el":1,"az":23,"ss":49,"used":false},{"PRN":2,"el":17,"az":256,"ss":0,"used":false},{"PRN":3,"el":7,"az":75,"ss":40,"used":false},{"PRN":4,"el":4,"az":219,"ss":0,"used":false},{"PRN":75,"el":16,"az":224,"ss":0,"used":false},{"PRN":81,"el":12,"az":346,"ss":37,"used":true},{"PRN":82,"el":13,"az":37,"ss":0,"used":false}]}
$GPRMC,073716.00,A,5355.1574,N,02729.9672,E,000.21078,236.2,090710,,,A*59
{"class":"TPV","tag":"RMC","mode":3,"time":"2010-07-09T07:37:16.000Z","ept":0.005,"lat":53.919290000,"lon":27.499453333,"alt":262.400,"epx":23.567,"epy":18.597,"epv":59.800,"track":236.2000,"speed":0.108,"climb":0.100,"eps":47.13}
$GPGGA,073717.00,5355.1574,N,02729.9673,E,1,06,1.9,00262.4,M,0023.3,M,,*63
$GPGSA,A,3,13,16,06,23,81,73,,,,,,,3.2,1.9,2.6*30
$GPGSV,2,1,08,01,01,023,49,02,17,256,,03,07,075,40,04,04,219,*73
$GPGSV,2,2,08,05,35,304,,75,16,224,,81,12,346,37,82,13,037,*77
{"class":"SKY","tag":"GSV","xdop":1.57,"ydop":1.24,"vdop":2.60,"tdop":1.50,"hdop":1.90,"gdop":5.84,"pdop":3.20,"satellites":[{"PRN":1,"el":1,"az":23,"ss":49,"used":false},{"PRN":2,"el":17,"az":256,"ss":0,"used":false},{"PRN":3,"el":7,"az":75,"ss":40,"used":false},{"PRN":4,"el":4,"az":219,"ss":0,"used":false},{"PRN":5,"el":35,"az":304,"ss":0,"used":false},{"PRN":75,"el":16,"az":224,"ss":0,"used":false},{"PRN":81,"el":12,"az":346,"ss":37,"used":true},{"PRN":82,"el":13,"az":37,"ss":0,"used":false}]}
$GPRMC,073717.00,A,5355.1574,N,02729.9673,E,000.14125,234.1,090710,,,A*57
{"class":"TPV","tag":"RMC","mode":3,"time":"2010-07-09T07:37:17.000Z","ept":0.005,"lat":53.919290000,"lon":27.499455000,"alt":262.400,"epx":23.567,"epy":18.597,"epv":59.800,"track":234.1000,"speed":0.073,"climb":0.000,"eps":47.13}
$GPGGA,073718.00,5355.1575,N,02729.9674,E,1,06,1.9,00262.5,M,0023.3,M,,*6B
$GPGSA,A,3,13,16,06,23,81,73,,,,,,,3.2,1.9,2.6*30
$GPGSV,3,1,09,01,01,023,49,02,17,256,,03,07,075,41,04,04,219,*72
$GPGSV,3,2,09,05,35,304,,06,07,060,47,75,16,224,,81,12,346,37*7F
$GPGSV,3,3,09,82,13,037,*4C
{"class":"SKY","tag":"GSV","xdop":1.57,"ydop":1.24,"vdop":2.60,"tdop":1.50,"hdop":1.90,"gdop":5.84,"pdop":3.20,"satellites":[{"PRN":1,"el":1,"az":23,"ss":49,"used":false},{"PRN":2,"el":17,"az":256,"ss":0,"used":false},{"PRN":3,"el":7,"az":75,"ss":41,"used":false},{"PRN":4,"el":4,"az":219,"ss":0,"used":false},{"PRN":5,"el":35,"az":304,"ss":0,"used":false},{"PRN":6,"el":7,"az":60,"ss":47,"used":true},{"PRN":75,"el":16,"az":224,"ss":0,"used":false},{"PRN":81,"el":12,"az":346,"ss":37,"used":true},{"PRN":82,"el":13,"az":37,"ss":0,"used":false}]}
$GPRMC,073718.00,A,5355.1575,N,02729.9674,E,000.08593,230.7,090710,,,A*58
{"class":"TPV","tag":"RMC","mode":3,"time":"2010-07-09T07:37:18.000Z","ept":0.005,"lat":53.919291667,"lon":27.499456667,"alt":262.500,"epx":23.567,"epy":18.597,"epv":59.800,"track":230.7000,"speed":0.044,"climb":0.100,"eps":47.13}
$GPGGA,073719.00,5355.1575,N,02729.9676,E,1,06,1.9,00262.5,M,0023.3,M,,*68
$GPGSA,A,3,13,16,06,23,81,73,,,,,,,3.2,1.9,2.6*30
$GPGSV,3,1,10,01,01,023,49,02,17,256,,03,07,075,41,04,04,219,*7A
$GPGSV,3,2,10,05,35,304,,06,07,060,47,07,81,169,,75,16,224,*78
$GPGSV,3,3,10,81,12,346,37,82,13,037,*7B
{"class":"SKY","tag":"GSV","xdop":1.57,"ydop":1.24,"vdop":2.60,"tdop":1.50,"hdop":1.90,"gdop":5.84,"pdop":3.20,"satellites":[{"PRN":1,"el":1,"az":23,"ss":49,"used":false},{"PRN":2,"el":17,"az":256,"ss":0,"used":false},{"PRN":3,"el":7,"az":75,"ss":41,"used":false},{"PRN":4,"el":4,"az":219,"ss":0,"used":false},{"PRN":5,"el":35,"az":304,"ss":0,"used":false},{"PRN":6,"el":7,"az":60,"ss":47,"used":true},{"PRN":7,"el":81,"az":169,"ss":0,"used":false},{"PRN":75,"el":16,"az":224,"ss":0,"used":false},{"PRN":81,"el":12,"az":346,"ss":37,"used":true},{"PRN":82,"el":13,"az":37,"ss":0,"used":false}]}
$GPRMC,073719.00,A,5355.1575,N,02729.9676,E,000.05053,222.9,090710,,,A*52
{"class":"TPV","tag":"RMC","mode":3,"time":"2010-07-09T07:37:19.000Z","ept":0.005,"lat":53.919291667,"lon":27.499460000,"alt":262.500,"epx":23.567,"epy":18.597,"epv":59.800,"track":222.9000,"speed":0.026,"climb":0.000,"eps":47.13}
$GPGGA,073720.00,5355.1576,N,02729.9678,E,1,06,1.9,00262.5,M,0023.4,M,,*68
$GPGSA,A,3,13,16,06,23,81,73,,,,,,,3.2,1.9,2.6*30
$GPGSV,3,1,11,01,01,023,49,02,17,256,,03,07,075,40,04,04,219,*7A
$GPGSV,3,2,11,05,35,304,,06,07,060,47,07,81,169,,08,46,222,*70
$GPGSV,3,3,11,75,16,224,,81,12,346,36,82,13,037,*4A
{"class":"SKY","tag":"GSV","xdop":1.57,"ydop":1.24,"vdop":2.60,"tdop":1.50,"hdop":1.90,"gdop":5.84,"pdop":3.20,"satellites":[{"PRN":1,"el":1,"az":23,"ss":49,"used":false},{"PRN":2,"el":17,"az":256,"ss":0,"used":false},{"PRN":3,"el":7,"az":75,"ss":40,"used":false},{"PRN":4,"el":4,"az":219,"ss":0,"used":false},{"PRN":5,"el":35,"az":304,"ss":0,"used":false},{"PRN":6,"el":7,"az":60,"ss":47,"used":true},{"PRN":7,"el":81,"az":169,"ss":0,"used":false},{"PRN":8,"el":46,"az":222,"ss":0,"used":false},{"PRN":75,"el":16,"az":224,"ss":0,"used":false},{"PRN":81,"el":12,"az":346,"ss":36,"used":true},{"PRN":82,"el":13,"az":37,"ss":0,"used":false}]}
$GPRMC,073720.00,A,5355.1576,N,02729.9678,E,000.02505,209.1,090710,,,A*55
{"class":"TPV","tag":"RMC","mode":3,"time":"2010-07-09T07:37:20.000Z","ept":0.005,"lat":53.919293333,"lon":27.499463333,"alt":262.500,"epx":23.567,"epy":18.597,"epv":59.800,"track":209.1000,"speed":0.013,"climb":0.000,"eps":47.13}
$GPGGA,073721.00,5355.1576,N,02729.9680,E,1,06,1.9,00262.6,M,0023.4,M,,*6D
$GPGSA,A,3,13,16,06,23,81,73,,,,,,,3.2,1.9,2.6*30
$GPGSV,3,1,11,01,01,023,49,02,17,256,,03,07,075,39,04,04,219,*74
$GPGSV,3,2,11,05,35,304,,06,07,060,47,07,81,169,,08,46,222,*70
$GPGSV,3,3,11,75,16,224,,81,12,346,36,82,13,037,*4A
{"class":"SKY","tag":"GSV","xdop":1.57,"ydop":1.24,"vdop":2.60,"tdop":1.50,"hdop":1.90,"gdop":5.84,"pdop":3.20,"satellites":[{"PRN":1,"el":1,"az":23,"ss":49,"used":false},{"PRN":2,"el":17,"az":256,"ss":0,"used":false},{"PRN":3,"el":7,"az":75,"ss":39,"used":false},{"PRN":4,"el":4,"az":219,"ss":0,"used":false},{"PRN":5,"el":35,"az":304,"ss":0,"used":false},{"PRN":6,"el":7,"az":60,"ss":47,"used":true},{"PRN":7,"el":81,"az":169,"ss":0,"used":false},{"PRN":8,"el":46,"az":222,"ss":0,"used":false},{"PRN":75,"el":16,"az":224,"ss":0,"used":false},{"PRN":81,"el":12,"az":346,"ss":36,"used":true},{"PRN":82,"el":13,"az":37,"ss":0,"used":false}]}
$GPRMC,073721.00,A,5355.1576,N,02729.9680,E,000.01167,160.3,090710,,,A*5E
{"class":"TPV","tag":"RMC","mode":3,"time":"2010-07-09T07:37:21.000Z","ept":0.005,"lat":53.919293333,"lon":27.499466667,"alt":262.600,"epx":23.567,"epy":18.597,"epv":59.800,"track":160.3000,"speed":0.006,"climb":0.100,"eps":47.13}
$GPGGA,073722.00,5355.1577,N,02729.9682,E,1,06,1.9,00262.7,M,0023.3,M,,*6B
$GPGSA,A,3,13,16,06,23,81,73,,,,,,,3.2,1.9,2.6*30
$GPGSV,3,1,12,01,01,023,50,02,17,256,,03,07,075,40,04,04,219,*71
$GPGSV,3,2,12,05,35,304,,06,07,060,47,07,81,169,,08,46,222,*73
$GPGSV,3,3,12,10,61,260,,75,16,224,,81,12,346,36,82,13,037,*7B
{"class":"SKY","tag":"GSV","xdop":1.57,"ydop":1.24,"vdop":2.60,"tdop":1.50,"hdop":1.90,"gdop":5.84,"pdop":3.20,"satellites":[{"PRN":1,"el":1,"az":23,"ss":50,"used":false},{"PRN":2,"el":17,"az":256,"ss":0,"used":false},{"PRN":3,"el":7,"az":75,"ss":40,"used":false},{"PRN":4,"el":4,"az":219,"ss":0,"used":false},{"PRN":5,"el":35,"az":304,"ss":0,"used":false},{"PRN":6,"el":7,"az":60,"ss":47,"used":true},{"PRN":7,"el":81,"az":169,"ss":0,"used":false},{"PRN":8,"el":46,"az":222,"ss":0,"used":false},{"PRN":10,"el":61,"az":260,"ss":0,"used":false},{"PRN":75,"el":16,"az":224,"ss":0,"used":false},{"PRN":81,"el":12,"az":346,"ss":36,"used":true},{"PRN":82,"el":13,"az":37,"ss":0,"used":false}]}
$GPRMC,073722.00,A,5355.1577,N,02729.9682,E,000.01489,137.0,090710,,,A*5A
{"class":"TPV","tag":"RMC","mode":3,"time":"2010-07-09T07:37:22.000Z","ept":0.005,"lat":53.919295000,"lon":27.499470000,"alt":262.700,"epx":23.567,"epy":18.597,"epv":59.800,"track":137.0000,"speed":0.008,"climb":0.100,"eps":47.13}
$GPGGA,073723.00,5355.1577,N,02729.9684,E,1,06,1.9,00262.6,M,0023.3,M,,*6D
$GPGSA,A,3,13,16,06,23,81,73,,,,,,,3.2,1.9,2.6*30
$GPGSV,3,1,12,01,01,023,50,02,17,256,,03,07,075,39,04,04,219,*7F
$GPGSV,3,2,12,05,35,304,,06,07,060,48,07,81,169,,08,46,222,*7C
$GPGSV,3,3,12,10,61,260,,75,16,224,,81,12,346,36,82,13,037,*7B
{"class":"SKY","tag":"GSV","xdop":1.57,"ydop":1.24,"vdop":2.60,"tdop":1.50,"hdop":1.90,"gdop":5.84,"pdop":3.20,"satellites":[{"PRN":1,"el":1,"az":23,"ss":50,"used":false},{"PRN":2,"el":17,"az":256,"ss":0,"used":false},{"PRN":3,"el":7,"az":75,"ss":39,"used":false},{"PRN":4,"el":4,"az":219,"ss":0,"used":false},{"PRN":5,"el":35,"az":304,"ss":0,"used":false},{"PRN":6,"el":7,"az":60,"ss":48,"used":true},{"PRN":7,"el":81,"az":169,"ss":0,"used":false},{"PRN":8,"el":46,"az":222,"ss":0,"used":false},{"PRN":10,"el":61,"az":260,"ss":0,"used":false},{"PRN":75,"el":16,"az":224,"ss":0,"used":false},{"PRN":81,"el":12,"az":346,"ss":36,"used":true},{"PRN":82,"el":13,"az":37,"ss":0,"used":false}]}
$GPRMC,073723.00,A,5355.1577,N,02729.9684,E,000.01629,129.7,090710,,,A*5D
{"class":"TPV","tag":"RMC","mode":3,"time":"2010-07-09T07:37:23.000Z","ept":0.005,"lat":53.919295000,"lon":27.499473333,"alt":262.600,"epx":23.567,"epy":18.597,"epv":59.800,"track":129.7000,"speed":0.008,"climb":-0.100,"eps":47.13}
$GPGGA,073724.00,5355.1578,N,02729.9686,E,1,06,1.9,00262.7,M,0023.3,M,,*66
$GPGSA,A,3,13,16,06,23,81,73,,,,,,,3.2,1.9,2.6*30
$GPGSV,3,1,12,01,01,023,50,02,17,256,,03,07,075,39,04,04,219,*7F
$GPGSV,3,2,12,05,35,304,,06,07,060,48,07,81,169,,08,46,222,*7C
$GPGSV,3,3,12,10,61,260,,75,16,224,,81,12,346,36,82,13,037,*7B
{"class":"SKY","tag":"GSV","xdop":1.57,"ydop":1.24,"vdop":2.60,"tdop":1.50,"hdop":1.90,"gdop":5.84,"pdop":3.20,"satellites":[{"PRN":1,"el":1,"az":23,"ss":50,"used":false},{"PRN":2,"el":17,"az":256,"ss":0,"used":false},{"PRN":3,"el":7,"az":75,"ss":39,"used":false},{"PRN":4,"el":4,"az":219,"ss":0,"used":false},{"PRN":5,"el":35,"az":304,"ss":0,"used":false},{"PRN":6,"el":7,"az":60,"ss":48,"used":true},{"PRN":7,"el":81,"az":169,"ss":0,"used":false},{"PRN":8,"el":46,"az":222,"ss":0,"used":false},{"PRN":10,"el":61,"az":260,"ss":0,"used":false},{"PRN":75,"el":16,"az":224,"ss":0,"used":false},{"PRN":81,"el":12,"az":346,"ss":36,"used":true},{"PRN":82,"el":13,"az":37,"ss":0,"used":false}]}
$GPRMC,073724.00,A,5355.1578,N,02729.9686,E,000.01699,137.7,090710,,,A*53
{"class":"TPV","tag":"RMC","mode":3,"time":"2010-07-09T07:37:24.000Z","ept":0.005,"lat":53.919296667,"lon":27.499476667,"alt":262.700,"epx":23.567,"epy":18.597,"epv":59.800,"track":137.7000,"speed":0.009,"climb":0.100,"eps":47.13}
$GPGGA,073725.00,5355.1578,N,02729.9687,E,1,06,1.9,00262.7,M,0023.4,M,,*61
$GPGSA,A,3,13,16,06,23,81,73,,,,,,,3.2,1.9,2.6*30
$GPGSV,4,1,13,01,01,023,50,02,17,256,,03,07,075,39,04,04,219,*79
$GPGSV,4,2,13,05,35,304,,06,07,060,48,07,81,169,,08,46,222,*7A
$GPGSV,4,3,13,10,61,260,,13,42,097,55,75,16,224,,81,12,346,36*7B
$GPGSV,4,4,13,82,13,037,*47
{"class":"SKY","tag":"GSV","xdop":1.57,"ydop":1.24,"vdop":2.60,"tdop":1.50,"hdop":1.90,"gdop":5.84,"pdop":3.20,"satellites":[{"PRN":1,"el":1,"az":23,"ss":50,"used":false},{"PRN":2,"el":17,"az":256,"ss":0,"used":false},{"PRN":3,"el":7,"az":75,"ss":39,"used":false},{"PRN":4,"el":4,"az":219,"ss":0,"used":false},{"PRN":5,"el":35,"az":304,"ss":0,"used":false},{"PRN":6,"el":7,"az":60,"ss":48,"used":true},{"PRN":7,"el":81,"az":169,"ss":0,"used":false},{"PRN":8,"el":46,"az":222,"ss":0,"used":false},{"PRN":10,"el":61,"az":260,"ss":0,"used":false},{"PRN":13,"el":42,"az":97,"ss":55,"used":true},{"PRN":75,"el":16,"az":224,"ss":0,"used":false},{"PRN":81,"el":12,"az":346,"ss":36,"used":true},{"PRN":82,"el":13,"az":37,"ss":0,"used":false}]}
$GPRMC,073725.00,A,5355.1578,N,02729.9687,E,000.01574,156.2,090710,,,A*51
{"class":"TPV","tag":"RMC","mode":3,"time":"2010-07-09T07:37:25.000Z","ept":0.005,"lat":53.919296667,"lon":27.499478333,"alt":262.700,"epx":23.567,"epy":18.597,"epv":59.800,"track":156.2000,"speed":0.008,"climb":0.000,"eps":47.13}
$GPGGA,073726.00,5355.1579,N,02729.9690,E,1,06,1.9,00262.8,M,0023.3,M,,*6D
$GPGSA,A,3,13,16,06,23,81,73,,,,,,,3.2,1.9,2.6*30
$GPGSV,4,1,13,01,01,023,49,02,17,256,,03,07,075,39,04,04,219,*71
$GPGSV,4,2,13,05,35,304,,06,07,060,48,07,81,169,,08,46,222,*7A
$GPGSV,4,3,13,10,61,260,,13,42,097,55,75,16,224,,81,12,346,36*7B
$GPGSV,4,4,13,82,13,037,*47
{"class":"SKY","tag":"GSV","xdop":1.57,"ydop":1.24,"vdop":2.60,"tdop":1.50,"hdop":1.90,"gdop":5.84,"pdop":3.20,"satellites":[{"PRN":1,"el":1,"az":23,"ss":49,"used":false},{"PRN":2,"el":17,"az":256,"ss":0,"used":false},{"PRN":3,"el":7,"az":75,"ss":39,"used":false},{"PRN":4,"el":4,"az":219,"ss":0,"used":false},{"PRN":5,"el":35,"az":304,"ss":0,"used":false},{"PRN":6,"el":7,"az":60,"ss":48,"used":true},{"PRN":7,"el":81,"az":169,"ss":0,"used":false},{"PRN":8,"el":46,"az":222,"ss":0,"used":false},{"PRN":10,"el":61,"az":260,"ss":0,"used":false},{"PRN":13,"el":42,"az":97,"ss":55,"used":true},{"PRN":75,"el":16,"az":224,"ss":0,"used":false},{"PRN":81,"el":12,"az":346,"ss":36,"used":true},{"PRN":82,"el":13,"az":37,"ss":0,"used":false}]}
$GPRMC,073726.00,A,5355.1579,N,02729.9690,E,000.01712,170.9,090710,,,A*58
{"class":"TPV","tag":"RMC","mode":3,"time":"2010-07-09T07:37:26.000Z","ept":0.005,"lat":53.919298333,"lon":27.499483333,"alt":262.800,"epx":23.567,"epy":18.597,"epv":59.800,"track":170.9000,"speed":0.009,"climb":0.100,"eps":47.13}
$GPGGA,073727.00,5355.1579,N,02729.9692,E,1,06,1.9,00262.9,M,0023.3,M,,*6F
$GPGSA,A,3,13,16,06,23,81,73,,,,,,,3.2,1.9,2.6*30
$GPGSV,4,1,13,01,01,023,49,02,17,256,,03,07,075,38,04,04,219,*70
$GPGSV,4,2,13,05,35,304,,06,07,060,48,07,81,169,,08,46,222,*7A
$GPGSV,4,3,13,10,61,260,,13,42,097,55,75,16,224,,81,12,346,36*7B
$GPGSV,4,4,13,82,13,037,*47
{"class":"SKY","tag":"GSV","xdop":1.57,"ydop":1.24,"vdop":2.60,"tdop":1.50,"hdop":1.90,"gdop":5.84,"pdop":3.20,"satellites":[{"PRN":1,"el":1,"az":23,"ss":49,"used":false},{"PRN":2,"el":17,"az":256,"ss":0,"used":false},{"PRN":3,"el":7,"az":75,"ss":38,"used":false},{"PRN":4,"el":4,"az":219,"ss":0,"used":false},{"PRN":5,"el":35,"az":304,"ss":0,"used":false},{"PRN":6,"el":7,"az":60,"ss":48,"used":true},{"PRN":7,"el":81,"az":169,"ss":0,"used":false},{"PRN":8,"el":46,"az":222,"ss":0,"used":false},{"PRN":10,"el":61,"az":260,"ss":0,"used":false},{"PRN":13,"el":42,"az":97,"ss":55,"used":true},{"PRN":75,"el":16,"az":224,"ss":0,"used":false},{"PRN":81,"el":12,"az":346,"ss":36,"used":true},{"PRN":82,"el":13,"az":37,"ss":0,"used":false}]}
$GPRMC,073727.00,A,5355.1579,N,02729.9692,E,000.01620,176.7,090710,,,A*53
{"class":"TPV","tag":"RMC","mode":3,"time":"2010-07-09T07:37:27.000Z","ept":0.005,"lat":53.919298333,"lon":27.499486667,"alt":262.900,"epx":23.567,"epy":18.597,"epv":59.800,"track":176.7000,"speed":0.008,"climb":0.100,"eps":47.13}
$GPGGA,073728.00,5355.1580,N,02729.9694,E,1,06,1.9,00262.8,M,0023.3,M,,*61
$GPGSA,A,3,13,16,06,23,81,73,,,,,,,3.2,1.9,2.6*30
$GPGSV,4,1,14,01,01,023,48,02,17,256,,03,07,075,38,04,04,219,*76
$GPGSV,4,2,14,05,35,304,,06,07,060,47,07,81,169,,08,46,222,*72
$GPGSV,4,3,14,10,61,260,,13,42,097,55,16,12,031,49,75,16,224,*79
$GPGSV,4,4,14,81,12,346,36,82,13,037,*7E
{"class":"SKY","tag":"GSV","xdop":1.57,"ydop":1.24,"vdop":2.60,"tdop":1.50,"hdop":1.90,"gdop":5.84,"pdop":3.20,"satellites":[{"PRN":1,"el":1,"az":23,"ss":48,"used":false},{"PRN":2,"el":17,"az":256,"ss":0,"used":false},{"PRN":3,"el":7,"az":75,"ss":38,"used":false},{"PRN":4,"el":4,"az":219,"ss":0,"used":false},{"PRN":5,"el":35,"az":304,"ss":0,"used":false},{"PRN":6,"el":7,"az":60,"ss":47,"used":true},{"PRN":7,"el":81,"az":169,"ss":0,"used":false},{"PRN":8,"el":46,"az":222,"ss":0,"used":false},{"PRN":10,"el":61,"az":260,"ss":0,"used":false},{"PRN":13,"el":42,"az":97,"ss":55,"used":true},{"PRN":16,"el":12,"az":31,"ss":49,"used":true},{"PRN":75,"el":16,"az":224,"ss":0,"used":false},{"PRN":81,"el":12,"az":346,"ss":36,"used":true},{"PRN":82,"el":13,"az":37,"ss":0,"used":false}]}
$GPRMC,073728.00,A,5355.1580,N,02729.9694,E,000.01974,189.4,090710,,,A*51
{"class":"TPV","tag":"RMC","mode":3,"time":"2010-07-09T07:37:28.000Z","ept":0.005,"lat":53.919300000,"lon":27.499490000,"alt":262.800,"epx":23.567,"epy":18.597,"epv":59.800,"track":189.4000,"speed":0.010,"climb":-0.100,"eps":47.13}
$GPGGA,073729.00,5355.1580,N,02729.9696,E,1,06,1.9,00262.9,M,0023.3,M,,*63
$GPGSA,A,3,13,16,06,23,81,73,,,,,,,3.2,1.9,2.6*30
$GPGSV,4,1,14,01,01,023,47,02,17,256,,03,07,075,38,04,04,219,*79
$GPGSV,4,2,14,05,35,304,,06,07,060,47,07,81,169,,08,46,222,*72
$GPGSV,4,3,14,10,61,260,,13,42,097,55,16,12,031,48,75,16,224,*78
$GPGSV,4,4,14,81,12,346,36,82,13,037,*7E
{"class":"SKY","tag":"GSV","xdop":1.57,"ydop":1.24,"vdop":2.60,"tdop":1.50,"hdop":1.90,"gdop":5.84,"pdop":3.20,"satellites":[{"PRN":1,"el":1,"az":23,"ss":47,"used":false},{"PRN":2,"el":17,"az":256,"ss":0,"used":false},{"PRN":3,"el":7,"az":75,"ss":38,"used":false},{"PRN":4,"el":4,"az":219,"ss":0,"used":false},{"PRN":5,"el":35,"az":304,"ss":0,"used":false},{"PRN":6,"el":7,"az":60,"ss":47,"used":true},{"PRN":7,"el":81,"az":169,"ss":0,"used":false},{"PRN":8,"el":46,"az":222,"ss":0,"used":false},{"PRN":10,"el":61,"az":260,"ss":0,"used":false},{"PRN":13,"el":42,"az":97,"ss":55,"used":true},{"PRN":16,"el":12,"az":31,"ss":48,"used":true},{"PRN":75,"el":16,"az":224,"ss":0,"used":false},{"PRN":81,"el":12,"az":346,"ss":36,"used":true},{"PRN":82,"el":13,"az":37,"ss":0,"used":false}]}
$GPRMC,073729.00,A,5355.1580,N,02729.9696,E,000.02415,192.6,090710,,,A*53
{"class":"TPV","tag":"RMC","mode":3,"time":"2010-07-09T07:37:29.000Z","ept":0.005,"lat":53.919300000,"lon":27.499493333,"alt":262.900,"epx":23.567,"epy":18.597,"epv":59.800,"track":192.6000,"speed":0.012,"climb":0.100,"eps":47.13}
$GPGGA,073730.00,5355.1581,N,02729.9699,E,1,06,1.9,00262.9,M,0023.3,M,,*65
$GPGSA,A,3,13,16,06,23,81,73,,,,,,,3.2,1.9,2.6*30
$GPGSV,4,1,14,01,01,023,47,02,17,256,,03,07,075,39,04,04,219,*78
$GPGSV,4,2,14,05,35,304,,06,07,060,47,07,81,169,,08,46,222,*72
$GPGSV,4,3,14,10,61,260,,13,42,097,54,16,12,031,48,75,16,224,*79
$GPGSV,4,4,14,81,12,346,37,82,13,037,*7F
{"class":"SKY","tag":"GSV","xdop":1.57,"ydop":1.24,"vdop":2.60,"tdop":1.50,"hdop":1.90,"gdop":5.84,"pdop":3.20,"satellites":[{"PRN":1,"el":1,"az":23,"ss":47,"used":false},{"PRN":2,"el":17,"az":256,"ss":0,"used":false},{"PRN":3,"el":7,"az":75,"ss":39,"used":false},{"PRN":4,"el":4,"az":219,"ss":0,"used":false},{"PRN":5,"el":35,"az":304,"ss":0,"used":false},{"PRN":6,"el":7,"az":60,"ss":47,"used":true},{"PRN":7,"el":81,"az":169,"ss":0,"used":false},{"PRN":8,"el":46,"az":222,"ss":0,"used":false},{"PRN":10,"el":61,"az":260,"ss":0,"used":false},{"PRN":13,"el":42,"az":97,"ss":54,"used":true},{"PRN":16,"el":12,"az":31,"ss":48,"used":true},{"PRN":75,"el":16,"az":224,"ss":0,"used":false},{"PRN":81,"el":12,"az":346,"ss":37,"used":true},{"PRN":82,"el":13,"az":37,"ss":0,"used":false}]}
$GPRMC,073730.00,A,5355.1581,N,02729.9699,E,000.02905,194.8,090710,,,A*51
{"class":"TPV","tag":"RMC","mode":3,"time":"2010-07-09T07:37:30.000Z","ept":0.005,"lat":53.919301667,"lon":27.499498333,"alt":262.900,"epx":23.567,"epy":18.597,"epv":59.800,"track":194.8000,"speed":0.015,"climb":0.000,"eps":47.13}
$GPGGA,073731.00,5355.1582,N,02729.9702,E,1,06,1.9,00263.1,M,0023.3,M,,*6D
$GPGSA,A,3,13,16,06,23,81,73,,,,,,,3.2,1.9,2.6*30
$GPGSV,4,1,14,01,01,023,47,02,17,256,,03,07,075,38,04,04,219,*79
$GPGSV,4,2,14,05,35,304,,06,07,060,48,07,81,169,,08,46,222,*7D
$GPGSV,4,3,14,10,61,260,,13,42,097,54,16,12,031,48,75,16,224,*79
$GPGSV,4,4,14,81,12,346,37,82,13,037,*7F
{"class":"SKY","tag":"GSV","xdop":1.57,"ydop":1.24,"vdop":2.60,"tdop":1.50,"hdop":1.90,"gdop":5.84,"pdop":3.20,"satellites":[{"PRN":1,"el":1,"az":23,"ss":47,"used":false},{"PRN":2,"el":17,"az":256,"ss":0,"used":false},{"PRN":3,"el":7,"az":75,"ss":38,"used":false},{"PRN":4,"el":4,"az":219,"ss":0,"used":false},{"PRN":5,"el":35,"az":304,"ss":0,"used":false},{"PRN":6,"el":7,"az":60,"ss":48,"used":true},{"PRN":7,"el":81,"az":169,"ss":0,"used":false},{"PRN":8,"el":46,"az":222,"ss":0,"used":false},{"PRN":10,"el":61,"az":260,"ss":0,"used":false},{"PRN":13,"el":42,"az":97,"ss":54,"used":true},{"PRN":16,"el":12,"az":31,"ss":48,"used":true},{"PRN":75,"el":16,"az":224,"ss":0,"used":false},{"PRN":81,"el":12,"az":346,"ss":37,"used":true},{"PRN":82,"el":13,"az":37,"ss":0,"used":false}]}
$GPRMC,073731.00,A,5355.1582,N,02729.9702,E,000.02642,189.6,090710,,,A*5E
{"class":"TPV","tag":"RMC","mode":3,"time":"2010-07-09T07:37:31.000Z","ept":0.005,"lat":53.919303333,"lon":27.499503333,"alt":263.100,"epx":23.567,"epy":18.597,"epv":59.800,"track":189.6000,"speed":0.014,"climb":0.200,"eps":47.13}
$GPGGA,073732.00,5355.1584,N,02729.9708,E,1,06,1.9,00263.3,M,0023.3,M,,*60
$GPGSA,A,3,13,16,06,23,81,73,,,,,,,3.2,1.9,2.6*30
$GPGSV,4,1,14,01,01,023,47,02,17,256,,03,07,075,39,04,04,219,*78
$GPGSV,4,2,14,05,35,304,,06,07,060,48,07,81,169,,08,46,222,*7D
$GPGSV,4,3,14,10,61,260,,13,42,097,54,16,12,031,48,75,16,224,*79
$GPGSV,4,4,14,81,12,346,37,82,13,037,*7F
{"class":"SKY","tag":"GSV","xdop":1.57,"ydop":1.24,"vdop":2.60,"tdop":1.50,"hdop":1.90,"gdop":5.84,"pdop":3.20,"satellites":[{"PRN":1,"el":1,"az":23,"ss":47,"used":false},{"PRN":2,"el":17,"az":256,"ss":0,"used":false},{"PRN":3,"el":7,"az":75,"ss":39,"used":false},{"PRN":4,"el":4,"az":219,"ss":0,"used":false},{"PRN":5,"el":35,"az":304,"ss":0,"used":false},{"PRN":6,"el":7,"az":60,"ss":48,"used":true},{"PRN":7,"el":81,"az":169,"ss":0,"used":false},{"PRN":8,"el":46,"az":222,"ss":0,"used":false},{"PRN":10,"el":61,"az":260,"ss":0,"used":false},{"PRN":13,"el":42,"az":97,"ss":54,"used":true},{"PRN":16,"el":12,"az":31,"ss":48,"used":true},{"PRN":75,"el":16,"az":224,"ss":0,"used":false},{"PRN":81,"el":12,"az":346,"ss":37,"used":true},{"PRN":82,"el":13,"az":37,"ss":0,"used":false}]}
$GPRMC,073732.00,A,5355.1584,N,02729.9708,E,000.02146,177.0,090710,,,A*55
{"class":"TPV","tag":"RMC","mode":3,"time":"2010-07-09T07:37:32.000Z","ept":0.005,"lat":53.919306667,"lon":27.499513333,"alt":263.300,"epx":23.567,"epy":18.597,"epv":59.800,"track":177.0000,"speed":0.011,"climb":0.200,"eps":47.13}
$GPGGA,073733.00,5355.1588,N,02729.9716,E,1,06,1.9,00263.7,M,0023.3,M,,*66
$GPGSA,A,3,13,16,06,23,81,73,,,,,,,3.2,1.9,2.6*30
$GPGSV,4,1,14,01,01,023,47,02,17,256,,03,07,075,40,04,04,219,*76
$GPGSV,4,2,14,05,35,304,,06,07,060,48,07,81,169,,08,46,222,*7D
$GPGSV,4,3,14,10,61,260,,13,42,097,54,16,12,031,48,75,16,224,*79
$GPGSV,4,4,14,81,12,346,38,82,13,037,*70
{"class":"SKY","tag":"GSV","xdop":1.57,"ydop":1.24,"vdop":2.60,"tdop":1.50,"hdop":1.90,"gdop":5.84,"pdop":3.20,"satellites":[{"PRN":1,"el":1,"az":23,"ss":47,"used":false},{"PRN":2,"el":17,"az":256,"ss":0,"used":false},{"PRN":3,"el":7,"az":75,"ss":40,"used":false},{"PRN":4,"el":4,"az":219,"ss":0,"used":false},{"PRN":5,"el":35,"az":304,"ss":0,"used":false},{"PRN":6,"el":7,"az":60,"ss":48,"used":true},{"PRN":7,"el":81,"az":169,"ss":0,"used":false},{"PRN":8,"el":46,"az":222,"ss":0,"used":false},{"PRN":10,"el":61,"az":260,"ss":0,"used":false},{"PRN":13,"el":42,"az":97,"ss":54,"used":true},{"PRN":16,"el":12,"az":31,"ss":48,"used":true},{"PRN":75,"el":16,"az":224,"ss":0,"used":false},{"PRN":81,"el":12,"az":346,"ss":38,"used":true},{"PRN":82,"el":13,"az":37,"ss":0,"used":false}]}
$GPRMC,073733.00,A,5355.1588,N,02729.9716,E,000.01828,115.8,090710,,,A*59
{"class":"TPV","tag":"RMC","mode":3,"time":"2010-07-09T07:37:33.000Z","ept":0.005,"lat":53.919313333,"lon":27.499526667,"alt":263.700,"epx":23.567,"epy":18.597,"epv":59.800,"track":115.8000,"speed":0.009,"climb":0.400,"eps":47.13}
$GPGGA,073734.00,5355.1592,N,02729.9727,E,1,07,1.8,00264.2,M,0023.3,M,,*6A
$GPGSA,A,3,13,16,06,03,23,81,73,,,,,,3.1,1.8,2.5*32
$GPGSV,4,1,14,01,01,023,46,02,17,256,,03,07,075,40,04,04,219,*77
$GPGSV,4,2,14,05,35,304,,06,07,060,48,07,81,169,,08,46,222,*7D
$GPGSV,4,3,14,10,61,260,,13,42,097,53,16,12,031,48,75,16,224,*7E
$GPGSV,4,4,14,81,12,346,38,82,13,037,*70
{"class":"SKY","tag":"GSV","xdop":1.57,"ydop":1.24,"vdop":2.50,"tdop":1.50,"hdop":1.80,"gdop":5.84,"pdop":3.10,"satellites":[{"PRN":1,"el":1,"az":23,"ss":46,"used":false},{"PRN":2,"el":17,"az":256,"ss":0,"used":false},{"PRN":3,"el":7,"az":75,"ss":40,"used":true},{"PRN":4,"el":4,"az":219,"ss":0,"used":false},{"PRN":5,"el":35,"az":304,"ss":0,"used":false},{"PRN":6,"el":7,"az":60,"ss":48,"used":true},{"PRN":7,"el":81,"az":169,"ss":0,"used":false},{"PRN":8,"el":46,"az":222,"ss":0,"used":false},{"PRN":10,"el":61,"az":260,"ss":0,"used":false},{"PRN":13,"el":42,"az":97,"ss":53,"used":true},{"PRN":16,"el":12,"az":31,"ss":48,"used":true},{"PRN":75,"el":16,"az":224,"ss":0,"used":false},{"PRN":81,"el":12,"az":346,"ss":38,"used":true},{"PRN":82,"el":13,"az":37,"ss":0,"used":false}]}
$GPRMC,073734.00,A,5355.1592,N,02729.9727,E,000.03048,079.2,090710,,,A*5A
{"class":"TPV","tag":"RMC","mode":3,"time":"2010-07-09T07:37:34.000Z","ept":0.005,"lat":53.919320000,"lon":27.499545000,"alt":264.200,"epx":23.567,"epy":18.597,"epv":59.800,"track":79.2000,"speed":0.016,"climb":0.500,"eps":47.13}
$GPGGA,073735.00,5355.1597,N,02729.9738,E,1,07,1.8,00264.8,M,0023.3,M,,*6A
$GPGSA,A,3,13,16,06,03,23,81,73,,,,,,3.1,1.8,2.5*32
$GPGSV,4,1,15,01,01,023,46,02,17,256,,03,07,075,40,04,04,219,*76
$GPGSV,4,2,15,05,35,304,,06,07,060,48,07,81,169,,08,46,222,*7C
$GPGSV,4,3,15,10,61,260,,13,42,097,53,16,12,031,47,23,22,102,53*75
$GPGSV,4,4,15,75,16,224,,81,12,346,37,82,13,037,*4F
{"class":"SKY","tag":"GSV","xdop":1.57,"ydop":1.24,"vdop":2.50,"tdop":1.50,"hdop":1.80,"gdop":5.84,"pdop":3.10,"satellites":[{"PRN":1,"el":1,"az":23,"ss":46,"used":false},{"PRN":2,"el":17,"az":256,"ss":0,"used":false},{"PRN":3,"el":7,"az":75,"ss":40,"used":true},{"PRN":4,"el":4,"az":219,"ss":0,"used":false},{"PRN":5,"el":35,"az":304,"ss":0,"used":false},{"PRN":6,"el":7,"az":60,"ss":48,"used":true},{"PRN":7,"el":81,"az":169,"ss":0,"used":false},{"PRN":8,"el":46,"az":222,"ss":0,"used":false},{"PRN":10,"el":61,"az":260,"ss":0,"used":false},{"PRN":13,"el":42,"az":97,"ss":53,"used":true},{"PRN":16,"el":12,"az":31,"ss":47,"used":true},{"PRN":23,"el":22,"az":102,"ss":53,"used":true},{"PRN":75,"el":16,"az":224,"ss":0,"used":false},{"PRN":81,"el":12,"az":346,"ss":37,"used":true},{"PRN":82,"el":13,"az":37,"ss":0,"used":false}]}
$GPRMC,073735.00,A,5355.1597,N,02729.9738,E,000.04256,068.8,090710,,,A*50
{"class":"TPV","tag":"RMC","mode":3,"time":"2010-07-09T07:37:35.000Z","ept":0.005,"lat":53.919328333,"lon":27.499563333,"alt":264.800,"epx":23.567,"epy":18.597,"epv":57.500,"track":68.8000,"speed":0.022,"climb":0.600,"eps":47.13}
$GPGGA,073736.00,5355.1600,N,02729.9748,E,1,07,1.8,00265.2,M,0023.3,M,,*68
$GPGSA,A,3,13,16,06,03,23,81,73,,,,,,3.1,1.8,2.5*32
$GPGSV,4,1,15,01,01,023,45,02,17,256,,03,07,075,40,04,04,219,*75
$GPGSV,4,2,15,05,35,304,,06,07,060,47,07,81,169,,08,46,222,*73
$GPGSV,4,3,15,10,61,260,,13,42,097,52,16,12,031,46,23,22,102,52*74
$GPGSV,4,4,15,75,16,224,,81,12,346,37,82,13,037,*4F
{"class":"SKY","tag":"GSV","xdop":1.57,"ydop":1.24,"vdop":2.50,"tdop":1.50,"hdop":1.80,"gdop":5.84,"pdop":3.10,"satellites":[{"PRN":1,"el":1,"az":23,"ss":45,"used":false},{"PRN":2,"el":17,"az":256,"ss":0,"used":false},{"PRN":3,"el":7,"az":75,"ss":40,"used":true},{"PRN":4,"el":4,"az":219,"ss":0,"used":false},{"PRN":5,"el":35,"az":304,"ss":0,"used":false},{"PRN":6,"el":7,"az":60,"ss":47,"used":true},{"PRN":7,"el":81,"az":169,"ss":0,"used":false},{"PRN":8,"el":46,"az":222,"ss":0,"used":false},{"PRN":10,"el":61,"az":260,"ss":0,"used":false},{"PRN":13,"el":42,"az":97,"ss":52,"used":true},{"PRN":16,"el":12,"az":31,"ss":46,"used":true},{"PRN":23,"el":22,"az":102,"ss":52,"used":true},{"PRN":75,"el":16,"az":224,"ss":0,"used":false},{"PRN":81,"el":12,"az":346,"ss":37,"used":true},{"PRN":82,"el":13,"az":37,"ss":0,"used":false}]}
$GPRMC,073736.00,A,5355.1600,N,02729.9748,E,000.04548,070.2,090710,,,A*52
{"class":"TPV","tag":"RMC","mode":3,"time":"2010-07-09T07:37:36.000Z","ept":0.005,"lat":53.919333333,"lon":27.499580000,"alt":265.200,"epx":23.567,"epy":18.597,"epv":57.500,"track":70.2000,"speed":0.023,"climb":0.400,"eps":47.13}
$GPGGA,073737.00,5355.1604,N,02729.9756,E,1,07,1.8,00265.5,M,0023.3,M,,*65
$GPGSA,A,3,13,16,06,03,23,81,73,,,,,,3.1,1.8,2.5*32
$GPGSV,4,1,16,01,01,023,46,02,17,256,,03,07,075,40,04,04,219,*75
$GPGSV,4,2,16,05,35,304,,06,07,060,47,07,81,169,,08,46,222,*70
$GPGSV,4,3,16,10,61,260,,13,42,097,52,16,12,031,46,23,22,102,53*76
$GPGSV,4,4,16,25,68,073,,75,16,224,,81,12,346,37,82,13,037,*71
{"class":"SKY","tag":"GSV","xdop":1.57,"ydop":1.24,"vdop":2.50,"tdop":1.50,"hdop":1.80,"gdop":5.84,"pdop":3.10,"satellites":[{"PRN":1,"el":1,"az":23,"ss":46,"used":false},{"PRN":2,"el":17,"az":256,"ss":0,"used":false},{"PRN":3,"el":7,"az":75,"ss":40,"used":true},{"PRN":4,"el":4,"az":219,"ss":0,"used":false},{"PRN":5,"el":35,"az":304,"ss":0,"used":false},{"PRN":6,"el":7,"az":60,"ss":47,"used":true},{"PRN":7,"el":81,"az":169,"ss":0,"used":false},{"PRN":8,"el":46,"az":222,"ss":0,"used":false},{"PRN":10,"el":61,"az":260,"ss":0,"used":false},{"PRN":13,"el":42,"az":97,"ss":52,"used":true},{"PRN":16,"el":12,"az":31,"ss":46,"used":true},{"PRN":23,"el":22,"az":102,"ss":53,"used":true},{"PRN":25,"el":68,"az":73,"ss":0,"used":false},{"PRN":75,"el":16,"az":224,"ss":0,"used":false},{"PRN":81,"el":12,"az":346,"ss":37,"used":true},{"PRN":82,"el":13,"az":37,"ss":0,"used":false}]}
$GPRMC,073737.00,A,5355.1604,N,02729.9756,E,000.04316,074.3,090710,,,A*50
{"class":"TPV","tag":"RMC","mode":3,"time":"2010-07-09T07:37:37.000Z","ept":0.005,"lat":53.919340000,"lon":27.499593333,"alt":265.500,"epx":23.567,"epy":18.597,"epv":57.500,"track":74.3000,"speed":0.022,"climb":0.300,"eps":47.13}
$GPGGA,073738.00,5355.1606,N,02729.9763,E,1,07,1.8,00265.6,M,0023.4,M,,*6A
$GPGSA,A,3,13,16,06,03,23,81,73,,,,,,3.1,1.8,2.5*32
$GPGSV,4,1,16,01,01,023,46,02,17,256,,03,07,075,39,04,04,219,*7B
$GPGSV,4,2,16,05,35,304,,06,07,060,47,07,81,169,,08,46,222,*70
$GPGSV,4,3,16,10,61,260,,13,42,097,52,16,12,031,46,23,22,102,53*76
$GPGSV,4,4,16,25,68,073,,75,16,224,,81,12,346,37,82,13,037,*71
{"class":"SKY","tag":"GSV","xdop":1.57,"ydop":1.24,"vdop":2.50,"tdop":1.50,"hdop":1.80,"gdop":5.84,"pdop":3.10,"satellites":[{"PRN":1,"el":1,"az":23,"ss":46,"used":false},{"PRN":2,"el":17,"az":256,"ss":0,"used":false},{"PRN":3,"el":7,"az":75,"ss":39,"used":true},{"PRN":4,"el":4,"az":219,"ss":0,"used":false},{"PRN":5,"el":35,"az":304,"ss":0,"used":false},{"PRN":6,"el":7,"az":60,"ss":47,"used":true},{"PRN":7,"el":81,"az":169,"ss":0,"used":false},{"PRN":8,"el":46,"az":222,"ss":0,"used":false},{"PRN":10,"el":61,"az":260,"ss":0,"used":false},{"PRN":13,"el":42,"az":97,"ss":52,"used":true},{"PRN":16,"el":12,"az":31,"ss":46,"used":true},{"PRN":23,"el":22,"az":102,"ss":53,"used":true},{"PRN":25,"el":68,"az":73,"ss":0,"used":false},{"PRN":75,"el":16,"az":224,"ss":0,"used":false},{"PRN":81,"el":12,"az":346,"ss":37,"used":true},{"PRN":82,"el":13,"az":37,"ss":0,"used":false}]}
$GPRMC,073738.00,A,5355.1606,N,02729.9763,E,000.03571,081.8,090710,,,A*5A
{"class":"TPV","tag":"RMC","mode":3,"time":"2010-07-09T07:37:38.000Z","ept":0.005,"lat":53.919343333,"lon":27.499605000,"alt":265.600,"epx":23.567,"epy":18.597,"epv":57.500,"track":81.8000,"speed":0.018,"climb":0.100,"eps":47.13}
$GPGGA,073739.00,5355.1608,N,02729.9768,E,1,07,1.8,00265.8,M,0023.3,M,,*67
$GPGSA,A,3,13,16,06,03,23,81,73,,,,,,3.1,1.8,2.5*32
$GPGSV,4,1,16,01,01,023,46,02,17,256,,03,07,075,38,04,04,219,*7A
$GPGSV,4,2,16,05,35,304,,06,07,060,47,07,81,169,,08,46,222,*70
$GPGSV,4,3,16,10,61,260,,13,42,097,52,16,12,031,46,23,22,102,52*77
$GPGSV,4,4,16,25,68,073,,75,16,224,,81,12,346,37,82,13,037,*71
{"class":"SKY","tag":"GSV","xdop":1.57,"ydop":1.24,"vdop":2.50,"tdop":1.50,"hdop":1.80,"gdop":5.84,"pdop":3.10,"satellites":[{"PRN":1,"el":1,"az":23,"ss":46,"used":false},{"PRN":2,"el":17,"az":256,"ss":0,"used":false},{"PRN":3,"el":7,"az":75,"ss":38,"used":true},{"PRN":4,"el":4,"az":219,"ss":0,"used":false},{"PRN":5,"el":35,"az":304,"ss":0,"used":false},{"PRN":6,"el":7,"az":60,"ss":47,"used":true},{"PRN":7,"el":81,"az":169,"ss":0,"used":false},{"PRN":8,"el":46,"az":222,"ss":0,"used":false},{"PRN":10,"el":61,"az":260,"ss":0,"used":false},{"PRN":13,"el":42,"az":97,"ss":52,"used":true},{"PRN":16,"el":12,"az":31,"ss":46,"used":true},{"PRN":23,"el":22,"az":102,"ss":52,"used":true},{"PRN":25,"el":68,"az":73,"ss":0,"used":false},{"PRN":75,"el":16,"az":224,"ss":0,"used":false},{"PRN":81,"el":12,"az":346,"ss":37,"used":true},{"PRN":82,"el":13,"az":37,"ss":0,"used":false}]}
$GPRMC,073739.00,A,5355.1608,N,02729.9768,E,000.02156,121.9,090710,,,A*54
{"class":"TPV","tag":"RMC","mode":3,"time":"2010-07-09T07:37:39.000Z","ept":0.005,"lat":53.919346667,"lon":27.499613333,"alt":265.800,"epx":23.567,"epy":18.597,"epv":57.500,"track":121.9000,"speed":0.011,"climb":0.200,"eps":47.13}
$GPGGA,073740.00,5355.1609,N,02729.9773,E,1,07,1.8,00266.0,M,0023.3,M,,*69
$GPGSA,A,3,13,16,06,03,23,81,73,,,,,,3.1,1.8,2.5*32
$GPGSV,5,1,17,01,01,023,47,02,17,256,,03,07,075,37,04,04,219,*74
$GPGSV,5,2,17,05,35,304,,06,07,060,47,07,81,169,,08,46,222,*70
$GPGSV,5,3,17,10,61,260,,13,42,097,52,16,12,031,47,23,22,102,53*77
$GPGSV,5,4,17,25,68,073,,28,02,178,,75,16,224,,81,12,346,37*7B
$GPGSV,5,5,17,82,13,037,*43
{"class":"SKY","tag":"GSV","xdop":1.57,"ydop":1.24,"vdop":2.50,"tdop":1.50,"hdop":1.80,"gdop":5.84,"pdop":3.10,"satellites":[{"PRN":1,"el":1,"az":23,"ss":47,"used":false},{"PRN":2,"el":17,"az":256,"ss":0,"used":false},{"PRN":3,"el":7,"az":75,"ss":37,"used":true},{"PRN":4,"el":4,"az":219,"ss":0,"used":false},{"PRN":5,"el":35,"az":304,"ss":0,"used":false},{"PRN":6,"el":7,"az":60,"ss":47,"used":true},{"PRN":7,"el":81,"az":169,"ss":0,"used":false},{"PRN":8,"el":46,"az":222,"ss":0,"used":false},{"PRN":10,"el":61,"az":260,"ss":0,"used":false},{"PRN":13,"el":42,"az":97,"ss":52,"used":true},{"PRN":16,"el":12,"az":31,"ss":47,"used":true},{"PRN":23,"el":22,"az":102,"ss":53,"used":true},{"PRN":25,"el":68,"az":73,"ss":0,"used":false},{"PRN":28,"el":2,"az":178,"ss":0,"used":false},{"PRN":75,"el":16,"az":224,"ss":0,"used":false},{"PRN":81,"el":12,"az":346,"ss":37,"used":true},{"PRN":82,"el":13,"az":37,"ss":0,"used":false}]}
$GPRMC,073740.00,A,5355.1609,N,02729.9773,E,000.02405,175.8,090710,,,A*52
{"class":"TPV","tag":"RMC","mode":3,"time":"2010-07-09T07:37:40.000Z","ept":0.005,"lat":53.919348333,"lon":27.499621667,"alt":266.000,"epx":23.567,"epy":18.597,"epv":57.500,"track":175.8000,"speed":0.012,"climb":0.200,"eps":47.13}
$GPGGA,073741.00,5355.1610,N,02729.9777,E,1,07,1.8,00265.9,M,0023.3,M,,*6E
$GPGSA,A,3,13,16,06,03,23,81,73,,,,,,3.1,1.8,2.5*32
$GPGSV,5,1,17,01,01,023,47,02,17,256,,03,07,075,36,04,04,219,*75
$GPGSV,5,2,17,05,35,304,,06,07,060,47,07,81,169,,08,46,222,*70
$GPGSV,5,3,17,10,61,260,,13,42,097,52,16,12,031,47,23,22,102,52*76
$GPGSV,5,4,17,25,68,073,,28,02,178,,75,16,224,,81,12,346,37*7B
$GPGSV,5,5,17,82,13,037,*43
{"class":"SKY","tag":"GSV","xdop":1.57,"ydop":1.24,"vdop":2.50,"tdop":1.50,"hdop":1.80,"gdop":5.84,"pdop":3.10,"satellites":[{"PRN":1,"el":1,"az":23,"ss":47,"used":false},{"PRN":2,"el":17,"az":256,"ss":0,"used":false},{"PRN":3,"el":7,"az":75,"ss":36,"used":true},{"PRN":4,"el":4,"az":219,"ss":0,"used":false},{"PRN":5,"el":35,"az":304,"ss":0,"used":false},{"PRN":6,"el":7,"az":60,"ss":47,"used":true},{"PRN":7,"el":81,"az":169,"ss":0,"used":false},{"PRN":8,"el":46,"az":222,"ss":0,"used":false},{"PRN":10,"el":61,"az":260,"ss":0,"used":false},{"PRN":13,"el":42,"az":97,"ss":52,"used":true},{"PRN":16,"el":12,"az":31,"ss":47,"used":true},{"PRN":23,"el":22,"az":102,"ss":52,"used":true},{"PRN":25,"el":68,"az":73,"ss":0,"used":false},{"PRN":28,"el":2,"az":178,"ss":0,"used":false},{"PRN":75,"el":16,"az":224,"ss":0,"used":false},{"PRN":81,"el":12,"az":346,"ss":37,"used":true},{"PRN":82,"el":13,"az":37,"ss":0,"used":false}]}
$GPRMC,073741.00,A,5355.1610,N,02729.9777,E,000.03367,195.7,090710,,,A*5C
{"class":"TPV","tag":"RMC","mode":3,"time":"2010-07-09T07:37:41.000Z","ept":0.005,"lat":53.919350000,"lon":27.499628333,"alt":265.900,"epx":23.567,"epy":18.597,"epv":57.500,"track":195.7000,"speed":0.017,"climb":-0.100,"eps":47.13}
$GPGGA,073742.00,5355.1610,N,02729.9782,E,1,07,1.8,00265.6,M,0023.4,M,,*6F
$GPGSA,A,3,13,16,06,03,23,81,73,,,,,,3.1,1.8,2.5*32
$GPGSV,5,1,17,01,01,023,47,02,17,256,,03,07,075,35,04,04,219,*76
$GPGSV,5,2,17,05,35,304,,06,07,060,47,07,81,169,,08,46,222,*70
$GPGSV,5,3,17,10,61,260,,13,42,097,52,16,12,031,47,23,22,102,52*76
$GPGSV,5,4,17,25,68,073,,28,02,178,,75,16,224,,81,12,346,37*7B
$GPGSV,5,5,17,82,13,037,*43
{"class":"SKY","tag":"GSV","xdop":1.57,"ydop":1.24,"vdop":2.50,"tdop":1.50,"hdop":1.80,"gdop":5.84,"pdop":3.10,"satellites":[{"PRN":1,"el":1,"az":23,"ss":47,"used":false},{"PRN":2,"el":17,"az":256,"ss":0,"used":false},{"PRN":3,"el":7,"az":75,"ss":35,"used":true},{"PRN":4,"el":4,"az":219,"ss":0,"used":false},{"PRN":5,"el":35,"az":304,"ss":0,"used":false},{"PRN":6,"el":7,"az":60,"ss":47,"used":true},{"PRN":7,"el":81,"az":169,"ss":0,"used":false},{"PRN":8,"el":46,"az":222,"ss":0,"used":false},{"PRN":10,"el":61,"az":260,"ss":0,"used":false},{"PRN":13,"el":42,"az":97,"ss":52,"used":true},{"PRN":16,"el":12,"az":31,"ss":47,"used":true},{"PRN":23,"el":22,"az":102,"ss":52,"used":true},{"PRN":25,"el":68,"az":73,"ss":0,"used":false},{"PRN":28,"el":2,"az":178,"ss":0,"used":false},{"PRN":75,"el":16,"az":224,"ss":0,"used":false},{"PRN":81,"el":12,"az":346,"ss":37,"used":true},{"PRN":82,"el":13,"az":37,"ss":0,"used":false}]}
$GPRMC,073742.00,A,5355.1610,N,02729.9782,E,000.03697,191.9,090710,,,A*55
{"class":"TPV","tag":"RMC","mode":3,"time":"2010-07-09T07:37:42.000Z","ept":0.005,"lat":53.919350000,"lon":27.499636667,"alt":265.600,"epx":23.567,"epy":18.597,"epv":57.500,"track":191.9000,"speed":0.019,"climb":-0.300,"eps":47.13}
$GPGGA,073743.00,5355.1609,N,02729.9789,E,1,07,1.8,00265.0,M,0023.3,M,,*6C
$GPGSA,A,3,13,16,06,03,23,81,73,,,,,,3.1,1.8,2.5*32
$GPGSV,5,1,17,01,01,023,47,02,17,256,,03,07,075,35,04,04,219,*76
$GPGSV,5,2,17,05,35,304,,06,07,060,47,07,81,169,,08,46,222,*70
$GPGSV,5,3,17,10,61,260,,13,42,097,52,16,12,031,47,23,22,102,52*76
$GPGSV,5,4,17,25,68,073,,28,02,178,,75,16,224,,81,12,346,37*7B
$GPGSV,5,5,17,82,13,037,*43
{"class":"SKY","tag":"GSV","xdop":1.57,"ydop":1.24,"vdop":2.50,"tdop":1.50,"hdop":1.80,"gdop":5.84,"pdop":3.10,"satellites":[{"PRN":1,"el":1,"az":23,"ss":47,"used":false},{"PRN":2,"el":17,"az":256,"ss":0,"used":false},{"PRN":3,"el":7,"az":75,"ss":35,"used":true},{"PRN":4,"el":4,"az":219,"ss":0,"used":false},{"PRN":5,"el":35,"az":304,"ss":0,"used":false},{"PRN":6,"el":7,"az":60,"ss":47,"used":true},{"PRN":7,"el":81,"az":169,"ss":0,"used":false},{"PRN":8,"el":46,"az":222,"ss":0,"used":false},{"PRN":10,"el":61,"az":260,"ss":0,"used":false},{"PRN":13,"el":42,"az":97,"ss":52,"used":true},{"PRN":16,"el":12,"az":31,"ss":47,"used":true},{"PRN":23,"el":22,"az":102,"ss":52,"used":true},{"PRN":25,"el":68,"az":73,"ss":0,"used":false},{"PRN":28,"el":2,"az":178,"ss":0,"used":false},{"PRN":75,"el":16,"az":224,"ss":0,"used":false},{"PRN":81,"el":12,"az":346,"ss":37,"used":true},{"PRN":82,"el":13,"az":37,"ss":0,"used":false}]}
$GPRMC,073743.00,A,5355.1609,N,02729.9789,E,000.04599,150.1,090710,,,A*58
{"class":"TPV","tag":"RMC","mode":3,"time":"2010-07-09T07:37:43.000Z","ept":0.005,"lat":53.919348333,"lon":27.499648333,"alt":265.000,"epx":23.567,"epy":18.597,"epv":57.500,"track":150.1000,"speed":0.024,"climb":-0.600,"eps":47.13}
$GPGGA,073744.00,5355.1609,N,02729.9796,E,1,07,1.8,00264.6,M,0023.3,M,,*62
$GPGSA,A,3,13,16,06,03,23,81,73,,,,,,3.1,1.8,2.5*32
$GPGSV,5,1,17,01,01,023,47,02,17,256,,03,07,075,36,04,04,219,*75
$GPGSV,5,2,17,05,35,304,,06,07,060,47,07,81,169,,08,46,222,*70
$GPGSV,5,3,17,10,61,260,,13,42,097,53,16,12,031,47,23,22,102,52*77
$GPGSV,5,4,17,25,68,073,,28,02,178,,75,16,224,,81,12,346,37*7B
$GPGSV,5,5,17,82,13,037,*43
{"class":"SKY","tag":"GSV","xdop":1.57,"ydop":1.24,"vdop":2.50,"tdop":1.50,"hdop":1.80,"gdop":5.84,"pdop":3.10,"satellites":[{"PRN":1,"el":1,"az":23,"ss":47,"used":false},{"PRN":2,"el":17,"az":256,"ss":0,"used":false},{"PRN":3,"el":7,"az":75,"ss":36,"used":true},{"PRN":4,"el":4,"az":219,"ss":0,"used":false},{"PRN":5,"el":35,"az":304,"ss":0,"used":false},{"PRN":6,"el":7,"az":60,"ss":47,"used":true},{"PRN":7,"el":81,"az":169,"ss":0,"used":false},{"PRN":8,"el":46,"az":222,"ss":0,"used":false},{"PRN":10,"el":61,"az":260,"ss":0,"used":false},{"PRN":13,"el":42,"az":97,"ss":53,"used":true},{"PRN":16,"el":12,"az":31,"ss":47,"used":true},{"PRN":23,"el":22,"az":102,"ss":52,"used":true},{"PRN":25,"el":68,"az":73,"ss":0,"used":false},{"PRN":28,"el":2,"az":178,"ss":0,"used":false},{"PRN":75,"el":16,"az":224,"ss":0,"used":false},{"PRN":81,"el":12,"az":346,"ss":37,"used":true},{"PRN":82,"el":13,"az":37,"ss":0,"used":false}]}
$GPRMC,073744.00,A,5355.1609,N,02729.9796,E,000.05690,138.6,090710,,,A*53
{"class":"TPV","tag":"RMC","mode":3,"time":"2010-07-09T07:37:44.000Z","ept":0.005,"lat":53.919348333,"lon":27.499660000,"alt":264.600,"epx":23.567,"epy":18.597,"epv":57.500,"track":138.6000,"speed":0.029,"climb":-0.400,"eps":47.13}
$GPGGA,073745.00,5355.1608,N,02729.9800,E,1,07,1.8,00264.2,M,0023.3,M,,*66
$GPGSA,A,3,13,16,06,03,23,81,73,,,,,,3.1,1.8,2.5*32
$GPGSV,5,1,18,01,01,023,47,02,17,256,,03,07,075,39,04,04,219,*75
$GPGSV,5,2,18,05,35,304,,06,07,060,47,07,81,169,,08,46,222,*7F
$GPGSV,5,3,18,10,61,260,,13,42,097,53,16,12,031,47,23,22,102,52*78
$GPGSV,5,4,18,25,68,073,,28,02,178,,65,28,320,,75,16,224,*73
$GPGSV,5,5,18,81,12,346,37,82,13,037,*73
