$GPVTG,000.0,T,357.0,M,000.0,N,0000.1,K,A*13
$GPGGA,000343.03,4808.9993,N,01135.0798,E,1,04,01.4,00460.0,M,0046.2,M,,*56
{"class":"TPV","tag":"GGA","mode":3,"lat":48.149988333,"lon":11.584663333,"alt":460.000}
$GPGSA,A,3,20,,,,13,31,,04,,,,,02.7,01.4,02.3*05
{"class":"TPV","tag":"GSA","mode":3,"lat":48.149988333,"lon":11.584663333,"alt":460.000,"epv":52.900}
$GPGSV,3,1,12,20,76,058,40,11,73,252,,06,41,274,,14,41,185,*7D
$GPGSV,3,2,12,13,29,210,40,31,27,059,40,07,26,306,,04,20,308,40*75
$GPGLL,4808.9993,N,01135.0798,E,000343.03,A,A*60
{"class":"TPV","tag":"GLL","mode":3,"lat":48.149988333,"lon":11.584663333,"alt":460.000,"epv":52.900}
$GPRMC,000345.03,A,4808.9993,N,01135.0798,E,000.1,000.0,070419,003.0,E,A*33
$GPVTG,000.0,T,357.0,M,000.1,N,0000.1,K,A*12
$GPGGA,000345.03,4808.9993,N,01135.0798,E,1,04,01.4,00459.9,M,0046.2,M,,*53
$GPGSA,A,3,20,,,,13,31,,04,,,,,02.7,01.4,02.3*05
$GPGSV,3,1,12,20,76,058,40,11,73,252,,06,41,274,,14,41,185,*7D
$GPGSV,3,2,12,13,29,210,41,31,27,059,40,07,26,306,,04,20,308,40*74
$GPGLL,4808.9993,N,01135.0798,E,000345.03,A,A*66
{"class":"TPV","tag":"GLL","mode":3,"time":"2019-04-07T00:03:45.030Z","ept":0.005,"lat":48.149988333,"lon":11.584663333,"alt":459.900,"epv":52.900,"track":0.0000,"speed":0.051,"climb":0.000}
$PLCS,REV,PLN012054S07,070312,145743
$GPRMC,235948.00,V,0000.0000,N,00000.0000,E,,,161206,,,N*45
$GPRMC,235949.00,V,0000.0000,N,00000.0000,E,,,161206,,,N*44
$GPRMC,235950.00,V,0000.0000,N,00000.0000,E,,,161206,,,N*4C
$GPRMC,193515.00,V,0000.0000,N,00000.0000,E,,,300910,,,N*47
$GPRMC,235957.00,V,0000.0000,N,00000.0000,E,,,250910,,,N*46
$GPGSV,3,2,11,25,32,097
$GPRMC,235958.00,V,0000.0000,N,00000.0000,E,,,250910,,,N*49
$GPGSA,A,1,,,,,,,,,,,,,,,*1E
$GPRMC,235959.00,V,0000.0000,N,00000.0000,E,,,250910,,,N*48
$GPGSA,A,1,,,,,,,,,,,,,,,*1E
$GPRMC,000002.00,V,0000.0000,N,00000.0000,E,,,260910,,,N*48
$GP
$GPGGA,000410.00,0000.0000,N,00000.0000,E,0,00,0.0,,M,,M,,*58
$GPVTG,,T,,M,,N,,K,N*2C
$GPGSA,A,1,,,,,,,,,,,,,,,*1E
$GPGSV,3,3,12,2,40,16,00,090,*72
$GPRMC,000425.00,V,0000.0000,N,00000.0000,E,,,220899,,,N*4D
$GPVTG,,T,,M,2C
$GPGGA,000427.00,0000.0000,N,00000.0000,E,0,00,0.0,,M,,M,,*5C
$GPGSA,A,1,,,,,,,,,,,,,,,*1E
$GPGSV,3,1,12,23,86,270,,13,70,270,40,24,59,270,,04,41,270,40*79
$GPZDA,000427.00,22,08,1999,,*67
$GPVTG,,T,,M,,N,,K,N*2C
$GPGSA,A,1,,,,,,,,,,,,,,,*1E
$GPGSV,3,1,12,23,86,270,,13,70,270,40,24,59,270,,04,41,270,40*79
$GPGSV,3,2,12,25,31,090,,01,22,090,,17,13,270,,05,12,090,*71
$GPGSV,3,3,12,20,09,090,40,06,08,270,,16,00,090,,31,26,090,40*72
{"class":"SKY","tag":"GSV","vdop":0.00,"hdop":0.00,"pdop":0.00,"satellites":[{"PRN":23,"el":86,"az":270,"ss":0,"used":false},{"PRN":13,"el":70,"az":270,"ss":40,"used":false},{"PRN":24,"el":59,"az":270,"ss":0,"used":false},{"PRN":4,"el":41,"az":270,"ss":40,"used":false},{"PRN":25,"el":31,"az":90,"ss":0,"used":false},{"PRN":1,"el":22,"az":90,"ss":0,"used":false},{"PRN":17,"el":13,"az":270,"ss":0,"used":false},{"PRN":5,"el":12,"az":90,"ss":0,"used":false},{"PRN":20,"el":9,"az":90,"ss":40,"used":false},{"PRN":6,"el":8,"az":270,"ss":0,"used":false},{"PRN":16,"el":0,"az":90,"ss":0,"used":false},{"PRN":31,"el":26,"az":90,"ss":40,"used":false}]}
$GPGLL,0000.0000,N,00000.0000,E,000429.00,V,N*7E
{"class":"TPV","tag":"GLL","mode":0,"time":"1999-08-22T00:04:29.000Z","ept":0.005}
$GPZDA,000429.00,22,08,1999,,*69
$GPRMC,000430.00,V,0000.0000,N,00000.0000,E,,,220899,,,N*49
$GPVTG,,T,,M,,N,,K,N*2C
$GPGGA,000430.00,0000.0000,N,00000.0000,E,0,00,0.0,,M,,M,,*5A
$GPGSA,A,1,,,,,,,,,,,,,,,*1E
$GPGSV,3,1,12,23,86,270,,13,70,270,40,24,59,270,,04,41,270,40*79
$GPGSV,3,2,12,25,31,090,,01,22,090,,17,13,270,,05,12,090,*71
$GPGSV,3,3,12,20,09,090,40,06,08,270,,16,00,090,,31,26,090,40*72
{"class":"SKY","tag":"GSV","vdop":0.00,"hdop":0.00,"pdop":0.00,"satellites":[{"PRN":23,"el":86,"az":270,"ss":0,"used":false},{"PRN":13,"el":70,"az":270,"ss":40,"used":false},{"PRN":24,"el":59,"az":270,"ss":0,"used":false},{"PRN":4,"el":41,"az":270,"ss":40,"used":false},{"PRN":25,"el":31,"az":90,"ss":0,"used":false},{"PRN":1,"el":22,"az":90,"ss":0,"used":false},{"PRN":17,"el":13,"az":270,"ss":0,"used":false},{"PRN":5,"el":12,"az":90,"ss":0,"used":false},{"PRN":20,"el":9,"az":90,"ss":40,"used":false},{"PRN":6,"el":8,"az":270,"ss":0,"used":false},{"PRN":16,"el":0,"az":90,"ss":0,"used":false},{"PRN":31,"el":26,"az":90,"ss":40,"used":false}]}
$GPGLL,0000.0000,N,00000.0000,E,000430.00,V,N*76
{"class":"TPV","tag":"GLL","mode":0,"time":"1999-08-22T00:04:30.000Z","ept":0.005}
$GPZDA,000430.00,22,08,1999,,*61
$GPRMC,000431.00,V,0000.0000,N,00000.0000,E,,,220899,,,N*48
$GPVTG,,T,,M,,N,,K,N*2C
$GPGGA,000431.00,0000.0000,N,00000.0000,E,0,00,0.0,,M,,M,,*5B
$GPGSA,A,1,,,,,,,,,,,,,,,*1E
$GPGSV,3,1,12,23,86,270,,13,70,270,40,24,59,270,,04,41,270,40*79
$GPGSV,3,2,12,25,31,090,,01,22,090,,17,13,270,,05,12,090,*71
$GPGSV,3,3,12,20,09,090,40,06,08,270,,31,26,090,40,16,00,090,*72
{"class":"SKY","tag":"GSV","vdop":0.00,"hdop":0.00,"pdop":0.00,"satellites":[{"PRN":23,"el":86,"az":270,"ss":0,"used":false},{"PRN":13,"el":70,"az":270,"ss":40,"used":false},{"PRN":24,"el":59,"az":270,"ss":0,"used":false},{"PRN":4,"el":41,"az":270,"ss":40,"used":false},{"PRN":25,"el":31,"az":90,"ss":0,"used":false},{"PRN":1,"el":22,"az":90,"ss":0,"used":false},{"PRN":17,"el":13,"az":270,"ss":0,"used":false},{"PRN":5,"el":12,"az":90,"ss":0,"used":false},{"PRN":20,"el":9,"az":90,"ss":40,"used":false},{"PRN":6,"el":8,"az":270,"ss":0,"used":false},{"PRN":31,"el":26,"az":90,"ss":40,"used":false},{"PRN":16,"el":0,"az":90,"ss":0,"used":false}]}
$GPGLL,0000.0000,N,00000.0000,E,000431.00,V,N*77
{"class":"TPV","tag":"GLL","mode":0,"time":"1999-08-22T00:04:31.000Z","ept":0.005}
$GPZDA,000431.00,22,08,1999,,*60
$GPRMC,000432.00,V,0000.0000,N,00000.0000,E,,,220899,,,N*4B
$GPVTG,,T,,M,,N,,K,N*2C
$GPGGA,000432.00,0000.0000,N,00000.0000,E,0,00,0.0,,M,,M,,*58
$GPGSA,A,1,,,,,,,,,,,,,,,*1E
$GPGSV,3,1,12,23,86,270,,13,70,270,40,24,59,270,,04,41,270,40*79
$GPGSV,3,2,12,25,31,090,,01,22,090,,17,13,270,,05,12,090,*71
$GPGSV,3,3,12,20,09,090,40,06,08,270,,31,26,090,41,16,00,090,*73
{"class":"SKY","tag":"GSV","vdop":0.00,"hdop":0.00,"pdop":0.00,"satellites":[{"PRN":23,"el":86,"az":270,"ss":0,"used":false},{"PRN":13,"el":70,"az":270,"ss":40,"used":false},{"PRN":24,"el":59,"az":270,"ss":0,"used":false},{"PRN":4,"el":41,"az":270,"ss":40,"used":false},{"PRN":25,"el":31,"az":90,"ss":0,"used":false},{"PRN":1,"el":22,"az":90,"ss":0,"used":false},{"PRN":17,"el":13,"az":270,"ss":0,"used":false},{"PRN":5,"el":12,"az":90,"ss":0,"used":false},{"PRN":20,"el":9,"az":90,"ss":40,"used":false},{"PRN":6,"el":8,"az":270,"ss":0,"used":false},{"PRN":31,"el":26,"az":90,"ss":41,"used":false},{"PRN":16,"el":0,"az":90,"ss":0,"used":false}]}
$GPGLL,0000.0000,N,00000.0000,E,000432.00,V,N*74
{"class":"TPV","tag":"GLL","mode":0,"time":"1999-08-22T00:04:32.000Z","ept":0.005}
$GPZDA,000432.00,22,08,1999,,*63
$GPRMC,000433.00,V,0000.0000,N,00000.0000,E,,,220899,,,N*4A
$GPVTG,,T,,M,,N,,K,N*2C
$GPGGA,000433.00,0000.0000,N,00000.0000,E,0,00,0.0,,M,,M,,*59
$GPGSA,A,1,,,,,,,,,,,,,,,*1E
$GPGSV,3,1,12,23,86,270,,13,70,270,40,24,59,270,,04,41,270,40*79
$GPGSV,3,2,12,25,31,090,,01,22,090,,17,13,270,,05,12,090,*71
$GPGSV,3,3,12,20,09,090,40,06,08,270,,31,26,090,41,16,00,090,*73
{"class":"SKY","tag":"GSV","vdop":0.00,"hdop":0.00,"pdop":0.00,"satellites":[{"PRN":23,"el":86,"az":270,"ss":0,"used":false},{"PRN":13,"el":70,"az":270,"ss":40,"used":false},{"PRN":24,"el":59,"az":270,"ss":0,"used":false},{"PRN":4,"el":41,"az":270,"ss":40,"used":false},{"PRN":25,"el":31,"az":90,"ss":0,"used":false},{"PRN":1,"el":22,"az":90,"ss":0,"used":false},{"PRN":17,"el":13,"az":270,"ss":0,"used":false},{"PRN":5,"el":12,"az":90,"ss":0,"used":false},{"PRN":20,"el":9,"az":90,"ss":40,"used":false},{"PRN":6,"el":8,"az":270,"ss":0,"used":false},{"PRN":31,"el":26,"az":90,"ss":41,"used":false},{"PRN":16,"el":0,"az":90,"ss":0,"used":false}]}
$GPGLL,0000.0000,N,00000.0000,E,000433.00,V,N*75
{"class":"TPV","tag":"GLL","mode":0,"time":"1999-08-22T00:04:33.000Z","ept":0.005}
$GPZDA,000433.00,22,08,1999,,*62
$GPRMC,000434.00,V,0000.0000,N,00000.0000,E,,,220899,,,N*4D
$GPVTG,,T,,M,,N,,K,N*2C
$GPGGA,000434.00,0000.0000,N,00000.0000,E,0,00,0.0,,M,,M,,*5E
$GPGSA,A,1,,,,,,,,,,,,,,,*1E
$GPGSV,3,1,12,23,86,270,,13,70,270,40,24,59,270,,04,41,270,40*79
$GPGSV,3,2,12,25,31,090,,01,22,090,,17,13,270,,05,12,090,*71
$GPGSV,3,3,12,20,09,090,40,06,08,270,,31,26,090,41,16,00,090,*73
{"class":"SKY","tag":"GSV","vdop":0.00,"hdop":0.00,"pdop":0.00,"satellites":[{"PRN":23,"el":86,"az":270,"ss":0,"used":false},{"PRN":13,"el":70,"az":270,"ss":40,"used":false},{"PRN":24,"el":59,"az":270,"ss":0,"used":false},{"PRN":4,"el":41,"az":270,"ss":40,"used":false},{"PRN":25,"el":31,"az":90,"ss":0,"used":false},{"PRN":1,"el":22,"az":90,"ss":0,"used":false},{"PRN":17,"el":13,"az":270,"ss":0,"used":false},{"PRN":5,"el":12,"az":90,"ss":0,"used":false},{"PRN":20,"el":9,"az":90,"ss":40,"used":false},{"PRN":6,"el":8,"az":270,"ss":0,"used":false},{"PRN":31,"el":26,"az":90,"ss":41,"used":false},{"PRN":16,"el":0,"az":90,"ss":0,"used":false}]}
$GPGLL,0000.0000,N,00000.0000,E,000434.00,V,N*72
{"class":"TPV","tag":"GLL","mode":0,"time":"1999-08-22T00:04:34.000Z","ept":0.005}
$GPZDA,000434.00,22,08,1999,,*65
$GPRMC,000435.00,V,0000.0000,N,00000.0000,E,,,220899,,,N*4C
$GPVTG,,T,,M,,N,,K,N*2C
$GPGGA,000435.00,0000.0000,N,00000.0000,E,0,00,0.0,,M,,M,,*5F
$GPGSA,A,1,,,,,,,,,,,,,,,*1E
$GPGSV,3,1,12,23,86,270,,13,70,270,40,24,59,270,,04,20,270,40*7E
$GPGSV,3,2,12,25,31,090,,01,22,090,,17,13,270,,05,12,090,*71
$GPGSV,3,3,12,20,09,090,40,06,08,270,,31,26,090,41,16,00,090,*73
{"class":"SKY","tag":"GSV","vdop":0.00,"hdop":0.00,"pdop":0.00,"satellites":[{"PRN":23,"el":86,"az":270,"ss":0,"used":false},{"PRN":13,"el":70,"az":270,"ss":40,"used":false},{"PRN":24,"el":59,"az":270,"ss":0,"used":false},{"PRN":4,"el":20,"az":270,"ss":40,"used":false},{"PRN":25,"el":31,"az":90,"ss":0,"used":false},{"PRN":1,"el":22,"az":90,"ss":0,"used":false},{"PRN":17,"el":13,"az":270,"ss":0,"used":false},{"PRN":5,"el":12,"az":90,"ss":0,"used":false},{"PRN":20,"el":9,"az":90,"ss":40,"used":false},{"PRN":6,"el":8,"az":270,"ss":0,"used":false},{"PRN":31,"el":26,"az":90,"ss":41,"used":false},{"PRN":16,"el":0,"az":90,"ss":0,"used":false}]}
