$GPGSV,3,2,12,31,27,063,40,13,26,209,40,07,25,309,,04,17,308,40*73
$GPGLL,4808.9977,N,01135.0800,E,235723.02,A,A*63
{"class":"TPV","tag":"GLL","mode":2,"lat":48.149961667,"lon":11.584666667}
$GPRMC,235724.02,A,4808.9978,N,01135.0800,E,000.0,000.0,060419,003.0,E,A*3E
$GPVTG,000.0,T,357.0,M,000.0,N,0000.1,K,A*13
$GPGGA,235724.02,4808.9978,N,01135.0800,E,1,04,01.4,00464.4,M,0046.2,M,,*5D
$GPGSA,A,3,20,,,,31,13,,04,,,,,02.6,01.4,02.1*06
$GPGSV,3,1,12,20,78,050,41,11,72,261,,06,41,278,,14,38,185,*79
$GPGSV,3,2,12,31,27,063,41,13,26,209,40,07,25,309,,04,17,308,40*72
$GPGLL,4808.9978,N,01135.0800,E,235724.02,A,A*6B
{"class":"TPV","tag":"GLL","mode":3,"time":"2019-04-06T23:57:24.020Z","ept":0.005,"lat":48.149963333,"lon":11.584666667,"alt":464.400,"epv":48.300,"track":0.0000,"speed":0.000,"climb":0.000}
$GPRMC,235725.02,A,4808.9977,N,01135.0800,E,000.0,000.0,060419,003.0,E,A*30
$GPVTG,000.0,T,357.0,M,000.0,N,0000.1,K,A*13
$GPGGA,235725.02,4808.9977,N,01135.0800,E,1,04,01.4,00464.5,M,0046.2,M,,*52
$GPGSA,A,3,20,,,,31,13,,04,,,,,02.6,01.4,02.1*06
$GPGSV,3,1,12,20,78,050,41,11,72,261,,06,41,278,,14,38,185,*79
$GPGSV,3,2,12,31,27,063,40,13,26,209,40,07,25,309,,04,17,308,40*73
$GPGLL,4808.9977,N,01135.0800,E,235725.02,A,A*65
{"class":"TPV","tag":"GLL","mode":3,"time":"2019-04-06T23:57:25.020Z","ept":0.005,"lat":48.149961667,"lon":11.584666667,"alt":464.500,"epv":48.300,"track":0.0000,"speed":0.000,"climb":0.000}
$GPRMC,235726.02,A,4808.9978,N,01135.0800,E,000.0,000.0,060419,003.0,E,A*3C
$GPVTG,000.0,T,357.0,M,000.0,N,0000.1,K,A*13
$GPGGA,235726.02,4808.9978,N,01135.0800,E,1,04,01.4,00464.5,M,0046.2,M,,*5E
$GPGSA,A,3,20,,,,31,13,,04,,,,,02.6,01.4,02.1*06
$GPGSV,3,1,12,20,78,050,41,11,72,261,,06,41,278,,14,38,185,*79
$GPGSV,3,2,12,31,27,063,40,13,26,209,40,07,25,309,,04,17,308,40*73
$GPGSV,3,3,12,09,16,099,,03,14,190,,08,10,039,,10,02,065,*79
{"class":"SKY","tag":"GSV","xdop":2.54,"ydop":2.51,"vdop":2.10,"tdop":5.78,"hdop":1.40,"gdop":9.19,"pdop":2.60,"satellites":[{"PRN":20,"el":78,"az":50,"ss":41,"used":true},{"PRN":11,"el":72,"az":261,"ss":0,"used":false},{"PRN":6,"el":41,"az":278,"ss":0,"used":false},{"PRN":14,"el":38,"az":185,"ss":0,"used":false},{"PRN":31,"el":27,"az":63,"ss":40,"used":true},{"PRN":13,"el":26,"az":209,"ss":40,"used":true},{"PRN":7,"el":25,"az":309,"ss":0,"used":false},{"PRN":4,"el":17,"az":308,"ss":40,"used":true},{"PRN":9,"el":16,"az":99,"ss":0,"used":false},{"PRN":3,"el":14,"az":190,"ss":0,"used":false},{"PRN":8,"el":10,"az":39,"ss":0,"used":false},{"PRN":10,"el":2,"az":65,"ss":0,"used":false}]}
$GPRMC,235727.02,A,4808.9978,N,01135.0800,E,000.0,000.0,060419,003.0,E,A*3D
$GPVTG,000.0,T,357.0,M,000.0,N,0000.1,K,A*13
$GPGGA,235727.02,4808.9978,N,01135.0800,E,1,04,01.4,00464.5,M,0046.2,M,,*5F
{"class":"TPV","tag":"GGA","mode":3,"time":"2019-04-06T23:57:27.020Z","ept":0.005,"lat":48.149963333,"lon":11.584666667,"alt":464.500,"epx":38.149,"epy":37.648,"epv":48.300,"track":0.0000,"speed":0.000,"eps":76.30}
$GPGSA,A,3,20,,,,31,13,,04,,,,,02.6,01.4,02.1*06
$GPGSV,3,1,12,20,78,050,41,11,72,261,,06,41,278,,14,38,185,*79
$GPGSV,3,2,12,31,27,062,40,13,26,209,40,07,25,309,,04,17,308,40*72
$GPZDA,235727.02,06,04,2019,,*6A
$GPRMC,235728.02,A,4808.9978,N,01135.0800,E,000.0,000.0,060419,003.0,E,A*32
$GPVTG,000.0,T,357.0,M,000.0,N,0000.1,K,A*13
$GPGGA,235728.02,4808.9978,N,01135.0800,E,1,04,01.4,00464.4,M,0046.2,M,,*51
{"class":"TPV","tag":"GGA","mode":3,"time":"2019-04-06T23:57:28.020Z","ept":0.005,"lat":48.149963333,"lon":11.584666667,"alt":464.400,"epx":38.149,"epy":37.648,"epv":48.300,"track":0.0000,"speed":0.000,"eps":76.30}
$GPGSA,A,3,20,,,,31,13,,04,,,,,02.6,01.4,02.2*05
$GPGSV,3,1,12,20,78,050,41,11,72,261,,06,41,278,,14,38,185,*79
$GPGSV,3,2,12,31,27,062,40,13,26,209,40,07,25,309,,04,17,308,40*72
$GPGLL,4808.9978,N,01135.0800,E,235728.02,A,A*67
{"class":"TPV","tag":"GLL","mode":3,"time":"2019-04-06T23:57:28.020Z","ept":0.005,"lat":48.149963333,"lon":11.584666667,"alt":464.400,"epx":38.149,"epy":37.648,"epv":48.300,"track":0.0000,"speed":0.000,"climb":0.000,"eps":76.30}
$GPRMC,235729.02,A,4808.9978,N,01135.0800,E,000.1,000.0,060419,003.0,E,A*32
$GPVTG,000.0,T,357.0,M,000.1,N,0000.1,K,A*12
$GPGGA,235729.02,4808.9978,N,01135.0800,E,1,04,01.4,00464.5,M,0046.2,M,,*51
{"class":"TPV","tag":"GGA","mode":3,"time":"2019-04-06T23:57:29.020Z","ept":0.005,"lat":48.149963333,"lon":11.584666667,"alt":464.500,"epx":38.149,"epy":37.648,"epv":50.600,"track":0.0000,"speed":0.051,"eps":76.30}
$GPGSA,A,3,20,,,,31,13,,04,,,,,02.6,01.4,02.2*05
$GPGSV,3,1,12,20,78,050,40,11,72,261,,06,41,278,,14,38,185,*78
$GPGSV,3,2,12,31,27,062,40,13,26,209,40,07,25,309,,04,17,308,40*72
$GPGLL,4808.9978,N,01135.0800,E,235729.02,A,A*66
{"class":"TPV","tag":"GLL","mode":3,"time":"2019-04-06T23:57:29.020Z","ept":0.005,"lat":48.149963333,"lon":11.584666667,"alt":464.500,"epx":38.149,"epy":37.648,"epv":50.600,"track":0.0000,"speed":0.051,"climb":0.000,"eps":76.30}
$GPRMC,235730.02,A,4808.9978,N,01135.0800,E,000.1,000.0,060419,003.0,E,A*3A
$GPVTG,000.0,T,357.0,M,000.1,N,0000.1,K,A*12
$GPGGA,235730.02,4808.9978,N,01135.0800,E,1,04,01.4,00464.4,M,0046.2,M,,*58
{"class":"TPV","tag":"GGA","mode":3,"time":"2019-04-06T23:57:30.020Z","ept":0.005,"lat":48.149963333,"lon":11.584666667,"alt":464.400,"epx":38.149,"epy":37.648,"epv":50.600,"track":0.0000,"speed":0.051,"eps":76.30}
$GPGSA,A,3,20,,,,31,13,,04,,,,,02.6,01.4,02.2*05
$GPGSV,3,1,12,20,78,050,40,11,72,261,,06,41,278,,14,38,185,*78
$GPGSV,3,2,12,31,27,062,40,13,26,209,40,07,25,309,,04,17,308,40*72
$GPGLL,4808.9978,N,01135.0800,E,235730.02,A,A*6E
{"class":"TPV","tag":"GLL","mode":3,"time":"2019-04-06T23:57:30.020Z","ept":0.005,"lat":48.149963333,"lon":11.584666667,"alt":464.400,"epx":38.149,"epy":37.648,"epv":50.600,"track":0.0000,"speed":0.051,"climb":0.000,"eps":76.30}
$GPRMC,235731.02,A,4808.9978,N,01135.0801,E,000.1,000.0,060419,003.0,E,A*3A
$GPVTG,000.0,T,357.0,M,000.1,N,0000.1,K,A*12
$GPGGA,235731.02,4808.9978,N,01135.0801,E,1,04,01.4,00464.5,M,0046.2,M,,*59
{"class":"TPV","tag":"GGA","mode":3,"time":"2019-04-06T23:57:31.020Z","ept":0.005,"lat":48.149963333,"lon":11.584668333,"alt":464.500,"epx":38.149,"epy":37.648,"epv":50.600,"track":0.0000,"speed":0.051,"eps":76.30}
$GPGSA,A,3,20,,,,31,13,,04,,,,,02.6,01.4,02.2*05
$GPGSV,3,1,12,20,78,050,40,11,72,261,,06,41,278,,14,38,185,*78
$GPGSV,3,2,12,31,27,062,40,13,26,209,40,07,25,309,,04,17,308,40*72
$GPGSV,3,3,12,09,16,099,,03,14,190,,08,10,039,,10,02,065,*79
{"class":"SKY","tag":"GSV","xdop":2.54,"ydop":2.51,"vdop":2.20,"tdop":5.78,"hdop":1.40,"gdop":9.19,"pdop":2.60,"satellites":[{"PRN":20,"el":78,"az":50,"ss":40,"used":true},{"PRN":11,"el":72,"az":261,"ss":0,"used":false},{"PRN":6,"el":41,"az":278,"ss":0,"used":false},{"PRN":14,"el":38,"az":185,"ss":0,"used":false},{"PRN":31,"el":27,"az":62,"ss":40,"used":true},{"PRN":13,"el":26,"az":209,"ss":40,"used":true},{"PRN":7,"el":25,"az":309,"ss":0,"used":false},{"PRN":4,"el":17,"az":308,"ss":40,"used":true},{"PRN":9,"el":16,"az":99,"ss":0,"used":false},{"PRN":3,"el":14,"az":190,"ss":0,"used":false},{"PRN":8,"el":10,"az":39,"ss":0,"used":false},{"PRN":10,"el":2,"az":65,"ss":0,"used":false}]}
$GPRMC,235732.02,A,4808.9978,N,01135.0801,E,000.0,000.0,060419,003.0,E,A*38
$GPVTG,000.0,T,357.0,M,000.0,N,0000.0,K,A*12
$GPGGA,235732.02,4808.9978,N,01135.0801,E,1,04,01.4,00464.5,M,0046.2,M,,*5A
{"class":"TPV","tag":"GGA","mode":3,"time":"2019-04-06T23:57:32.020Z","ept":0.005,"lat":48.149963333,"lon":11.584668333,"alt":464.500,"epx":38.149,"epy":37.648,"epv":50.600,"track":0.0000,"speed":0.000,"eps":76.30}
$GPGSA,A,3,20,,,,31,13,,04,,,,,02.6,01.4,02.2*05
$GPGSV,3,1,12,20,78,050,40,11,72,261,,06,41,278,,14,38,185,*78
$GPGSV,3,2,12,31,27,062,40,13,26,209,40,07,25,309,,04,17,308,40*72
$GPGLL,4808.9978,N,01135.0801,E,235732.02,A,A*6D
{"class":"TPV","tag":"GLL","mode":3,"time":"2019-04-06T23:57:32.020Z","ept":0.005,"lat":48.149963333,"lon":11.584668333,"alt":464.500,"epx":38.149,"epy":37.648,"epv":50.600,"track":0.0000,"speed":0.000,"climb":0.000,"eps":76.30}
$GPRMC,235733.02,A,4808.9978,N,01135.0801,E,000.0,000.0,060419,003.0,E,A*39
$GPVTG,000.0,T,357.0,M,000.0,N,0000.0,K,A*12
$GPGGA,235733.02,4808.9978,N,01135.0801,E,1,04,01.4,00464.5,M,0046.2,M,,*5B
{"class":"TPV","tag":"GGA","mode":3,"time":"2019-04-06T23:57:33.020Z","ept":0.005,"lat":48.149963333,"lon":11.584668333,"alt":464.500,"epx":38.149,"epy":37.648,"epv":50.600,"track":0.0000,"speed":0.000,"eps":76.30}
$GPGSA,A,3,20,,,,31,13,,04,,,,,02.6,01.4,02.2*05
$GPGSV,3,1,12,20,78,050,40,11,72,261,,06,41,278,,14,38,185,*78
$GPGSV,3,2,12,31,27,062,40,13,26,209,40,07,25,309,,04,17,308,40*72
$GPGLL,4808.9978,N,01135.0801,E,235733.02,A,A*6C
{"class":"TPV","tag":"GLL","mode":3,"time":"2019-04-06T23:57:33.020Z","ept":0.005,"lat":48.149963333,"lon":11.584668333,"alt":464.500,"epx":38.149,"epy":37.648,"epv":50.600,"track":0.0000,"speed":0.000,"climb":0.000,"eps":76.30}
$GPRMC,235734.02,A,4808.9978,N,01135.0801,E,000.0,000.0,060419,003.0,E,A*3E
$GPVTG,000.0,T,357.0,M,000.0,N,0000.1,K,A*13
$GPGGA,235734.02,4808.9978,N,01135.0801,E,1,04,01.4,00464.5,M,0046.2,M,,*5C
{"class":"TPV","tag":"GGA","mode":3,"time":"2019-04-06T23:57:34.020Z","ept":0.005,"lat":48.149963333,"lon":11.584668333,"alt":464.500,"epx":38.149,"epy":37.648,"epv":50.600,"track":0.0000,"speed":0.000,"eps":76.30}
$GPGSA,A,3,20,,,,31,13,,04,,,,,02.6,01.4,02.2*05
$GPGSV,3,1,12,20,78,050,40,11,72,261,,06,41,278,,14,38,185,*78
$GPGSV,3,2,12,31,27,062,40,13,26,209,40,07,25,309,,04,17,308,40*72
$GPGSV,3,3,12,09,16,099,,03,14,190,,08,10,039,,10,02,065,*79
{"class":"SKY","tag":"GSV","xdop":2.54,"ydop":2.51,"vdop":2.20,"tdop":5.78,"hdop":1.40,"gdop":9.19,"pdop":2.60,"satellites":[{"PRN":20,"el":78,"az":50,"ss":40,"used":true},{"PRN":11,"el":72,"az":261,"ss":0,"used":false},{"PRN":6,"el":41,"az":278,"ss":0,"used":false},{"PRN":14,"el":38,"az":185,"ss":0,"used":false},{"PRN":31,"el":27,"az":62,"ss":40,"used":true},{"PRN":13,"el":26,"az":209,"ss":40,"used":true},{"PRN":7,"el":25,"az":309,"ss":0,"used":false},{"PRN":4,"el":17,"az":308,"ss":40,"used":true},{"PRN":9,"el":16,"az":99,"ss":0,"used":false},{"PRN":3,"el":14,"az":190,"ss":0,"used":false},{"PRN":8,"el":10,"az":39,"ss":0,"used":false},{"PRN":10,"el":2,"az":65,"ss":0,"used":false}]}
$GPRMC,235735.02,A,4808.9978,N,01135.0801,E,000.0,000.0,060419,003.0,E,A*3F
$GPVTG,000.0,T,357.0,M,000.0,N,0000.1,K,A*13
$GPGGA,235735.02,4808.9978,N,01135.0801,E,1,04,01.4,00464.4,M,0046.2,M,,*5C
{"class":"TPV","tag":"GGA","mode":3,"time":"2019-04-06T23:57:35.020Z","ept":0.005,"lat":48.149963333,"lon":11.584668333,"alt":464.400,"epx":38.149,"epy":37.648,"epv":50.600,"track":0.0000,"speed":0.000,"eps":76.30}
$GPGSA,A,3,20,,,,31,13,,04,,,,,02.6,01.4,02.2*05
$GPGSV,3,1,12,20,78,050,40,11,72,261,,06,41,278,,14,38,185,*78
$GPGSV,3,2,12,31,27,062,40,13,26,209,40,07,25,309,,04,17,308,40*72
$GPGSV,3,3,12,09,16,099,,03,14,190,,08,10,039,,10,02,065,*79
{"class":"SKY","tag":"GSV","xdop":2.54,"ydop":2.51,"vdop":2.20,"tdop":5.78,"hdop":1.40,"gdop":9.19,"pdop":2.60,"satellites":[{"PRN":20,"el":78,"az":50,"ss":40,"used":true},{"PRN":11,"el":72,"az":261,"ss":0,"used":false},{"PRN":6,"el":41,"az":278,"ss":0,"used":false},{"PRN":14,"el":38,"az":185,"ss":0,"used":false},{"PRN":31,"el":27,"az":62,"ss":40,"used":true},{"PRN":13,"el":26,"az":209,"ss":40,"used":true},{"PRN":7,"el":25,"az":309,"ss":0,"used":false},{"PRN":4,"el":17,"az":308,"ss":40,"used":true},{"PRN":9,"el":16,"az":99,"ss":0,"used":false},{"PRN":3,"el":14,"az":190,"ss":0,"used":false},{"PRN":8,"el":10,"az":39,"ss":0,"used":false},{"PRN":10,"el":2,"az":65,"ss":0,"used":false}]}
$GPRMC,235736.02,A,4808.9979,N,01135.0801,E,000.0,000.0,060419,003.0,E,A*3D
$GPVTG,000.0,T,357.0,M,000.0,N,0000.1,K,A*13
$GPGGA,235736.02,4808.9979,N,01135.0801,E,1,04,01.4,00464.4,M,0046.2,M,,*5E
{"class":"TPV","tag":"GGA","mode":3,"time":"2019-04-06T23:57:36.020Z","ept":0.005,"lat":48.149965000,"lon":11.584668333,"alt":464.400,"epx":38.149,"epy":37.648,"epv":50.600,"track":0.0000,"speed":0.000,"eps":76.30}
$GPGSA,A,3,20,,,,31,13,,04,,,,,02.6,01.4,02.2*05
$GPGSV,3,1,12,20,78,050,40,11,72,261,,06,41,278,,14,38,185,*78
$GPGSV,3,2,12,31,27,062,40,13,26,209,40,07,25,309,,04,17,308,40*72
$GPGSV,3,3,12,09,16,099,,03,14,190,,08,10,039,,10,02,065,*79
{"class":"SKY","tag":"GSV","xdop":2.54,"ydop":2.51,"vdop":2.20,"tdop":5.78,"hdop":1.40,"gdop":9.19,"pdop":2.60,"satellites":[{"PRN":20,"el":78,"az":50,"ss":40,"used":true},{"PRN":11,"el":72,"az":261,"ss":0,"used":false},{"PRN":6,"el":41,"az":278,"ss":0,"used":false},{"PRN":14,"el":38,"az":185,"ss":0,"used":false},{"PRN":31,"el":27,"az":62,"ss":40,"used":true},{"PRN":13,"el":26,"az":209,"ss":40,"used":true},{"PRN":7,"el":25,"az":309,"ss":0,"used":false},{"PRN":4,"el":17,"az":308,"ss":40,"used":true},{"PRN":9,"el":16,"az":99,"ss":0,"used":false},{"PRN":3,"el":14,"az":190,"ss":0,"used":false},{"PRN":8,"el":10,"az":39,"ss":0,"used":false},{"PRN":10,"el":2,"az":65,"ss":0,"used":false}]}
$GPRMC,235737.02,A,4808.9979,N,01135.0801,E,000.0,000.0,060419,003.0,E,A*3C
$GPVTG,000.0,T,357.0,M,000.0,N,0000.1,K,A*13
$GPGGA,235737.02,4808.9979,N,01135.0801,E,1,04,01.4,00464.4,M,0046.2,M,,*5F
{"class":"TPV","tag":"GGA","mode":3,"time":"2019-04-06T23:57:37.020Z","ept":0.005,"lat":48.149965000,"lon":11.584668333,"alt":464.400,"epx":38.149,"epy":37.648,"epv":50.600,"track":0.0000,"speed":0.000,"eps":76.30}
$GPGSA,A,3,20,,,,31,13,,04,,,,,02.6,01.4,02.2*05
$GPGSV,3,1,12,20,78,050,40,11,72,261,,06,41,278,,14,38,185,*78
$GPGSV,3,2,12,31,27,062,40,13,26,209,40,07,25,309,,04,17,308,40*72
$GPZDA,235737.02,06,04,2019,,*6B
$GPRMC,235738.02,A,4808.9979,N,01135.0801,E,000.1,000.0,060419,003.0,E,A*32
$GPVTG,000.0,T,357.0,M,000.1,N,0000.1,K,A*12
$GPGGA,235738.02,4808.9979,N,01135.0801,E,1,04,01.4,00464.5,M,0046.2,M,,*51
{"class":"TPV","tag":"GGA","mode":3,"time":"2019-04-06T23:57:38.020Z","ept":0.005,"lat":48.149965000,"lon":11.584668333,"alt":464.500,"epx":38.149,"epy":37.648,"epv":50.600,"track":0.0000,"speed":0.051,"eps":76.30}
$GPGSA,A,3,20,,,,31,13,,04,,,,,02.6,01.4,02.2*05
$GPGSV,3,1,12,20,78,050,40,11,72,261,,06,41,278,,14,38,185,*78
$GPGSV,3,2,12,31,27,062,40,13,26,209,40,07,25,309,,04,17,308,40*72
$GPGSV,3,3,12,09,16,099,,03,14,190,,08,10,039,,10,02,065,*79
{"class":"SKY","tag":"GSV","xdop":2.54,"ydop":2.51,"vdop":2.20,"tdop":5.78,"hdop":1.40,"gdop":9.19,"pdop":2.60,"satellites":[{"PRN":20,"el":78,"az":50,"ss":40,"used":true},{"PRN":11,"el":72,"az":261,"ss":0,"used":false},{"PRN":6,"el":41,"az":278,"ss":0,"used":false},{"PRN":14,"el":38,"az":185,"ss":0,"used":false},{"PRN":31,"el":27,"az":62,"ss":40,"used":true},{"PRN":13,"el":26,"az":209,"ss":40,"used":true},{"PRN":7,"el":25,"az":309,"ss":0,"used":false},{"PRN":4,"el":17,"az":308,"ss":40,"used":true},{"PRN":9,"el":16,"az":99,"ss":0,"used":false},{"PRN":3,"el":14,"az":190,"ss":0,"used":false},{"PRN":8,"el":10,"az":39,"ss":0,"used":false},{"PRN":10,"el":2,"az":65,"ss":0,"used":false}]}
$GPRMC,235739.02,A,4808.9979,N,01135.0800,E,000.1,000.0,060419,003.0,E,A*32
$GPVTG,000.0,T,357.0,M,000.1,N,0000.1,K,A*12
$GPGGA,235739.02,4808.9979,N,01135.0800,E,1,04,01.4,00464.4,M,0046.2,M,,*50
{"class":"TPV","tag":"GGA","mode":3,"time":"2019-04-06T23:57:39.020Z","ept":0.005,"lat":48.149965000,"lon":11.584666667,"alt":464.400,"epx":38.149,"epy":37.648,"epv":50.600,"track":0.0000,"speed":0.051,"eps":76.30}
$GPGSA,A,3,20,,,,31,13,,04,,,,,02.6,01.4,02.2*05
$GPGSV,3,1,12,20,78,050,40,11,72,261,,06,41,277,,14,38,185,*77
$GPGSV,3,2,12,31,27,062,40,13,26,209,40,07,25,309,,04,17,308,40*72
$GPGSV,3,3,12,09,16,099,,03,14,190,,08,10,039,,10,02,065,*79
{"class":"SKY","tag":"GSV","xdop":2.54,"ydop":2.51,"vdop":2.20,"tdop":5.78,"hdop":1.40,"gdop":9.19,"pdop":2.60,"satellites":[{"PRN":20,"el":78,"az":50,"ss":40,"used":true},{"PRN":11,"el":72,"az":261,"ss":0,"used":false},{"PRN":6,"el":41,"az":277,"ss":0,"used":false},{"PRN":14,"el":38,"az":185,"ss":0,"used":false},{"PRN":31,"el":27,"az":62,"ss":40,"used":true},{"PRN":13,"el":26,"az":209,"ss":40,"used":true},{"PRN":7,"el":25,"az":309,"ss":0,"used":false},{"PRN":4,"el":17,"az":308,"ss":40,"used":true},{"PRN":9,"el":16,"az":99,"ss":0,"used":false},{"PRN":3,"el":14,"az":190,"ss":0,"used":false},{"PRN":8,"el":10,"az":39,"ss":0,"used":false},{"PRN":10,"el":2,"az":65,"ss":0,"used":false}]}
$GPRMC,235740.02,A,4808.9979,N,01135.0800,E,000.1,000.0,060419,003.0,E,A*3C
$GPVTG,000.0,T,357.0,M,000.1,N,0000.1,K,A*12
$GPGGA,235740.02,4808.9979,N,01135.0800,E,1,04,01.4,00464.4,M,0046.2,M,,*5E
{"class":"TPV","tag":"GGA","mode":3,"time":"2019-04-06T23:57:40.020Z","ept":0.005,"lat":48.149965000,"lon":11.584666667,"alt":464.400,"epx":38.149,"epy":37.648,"epv":50.600,"track":0.0000,"speed":0.051,"eps":76.30}
$GPGSA,A,3,20,,,,31,13,,04,,,,,02.6,01.4,02.2*05
$GPGSV,3,1,12,20,78,050,40,11,72,261,,06,41,277,,14,38,185,*77
$GPGSV,3,2,12,31,27,062,40,13,26,209,40,07,25,308,,04,17,308,40*73
$GPGSV,3,3,12,09,16,099,,03,14,190,,08,10,039,,10,02,065,*79
{"class":"SKY","tag":"GSV","xdop":2.54,"ydop":2.51,"vdop":2.20,"tdop":5.78,"hdop":1.40,"gdop":9.19,"pdop":2.60,"satellites":[{"PRN":20,"el":78,"az":50,"ss":40,"used":true},{"PRN":11,"el":72,"az":261,"ss":0,"used":false},{"PRN":6,"el":41,"az":277,"ss":0,"used":false},{"PRN":14,"el":38,"az":185,"ss":0,"used":false},{"PRN":31,"el":27,"az":62,"ss":40,"used":true},{"PRN":13,"el":26,"az":209,"ss":40,"used":true},{"PRN":7,"el":25,"az":308,"ss":0,"used":false},{"PRN":4,"el":17,"az":308,"ss":40,"used":true},{"PRN":9,"el":16,"az":99,"ss":0,"used":false},{"PRN":3,"el":14,"az":190,"ss":0,"used":false},{"PRN":8,"el":10,"az":39,"ss":0,"used":false},{"PRN":10,"el":2,"az":65,"ss":0,"used":false}]}
$GPRMC,235741.02,A,4808.9979,N,01135.0800,E,000.1,000.0,060419,003.0,E,A*3D
$GPVTG,000.0,T,357.0,M,000.1,N,0000.2,K,A*11
$GPGGA,235741.02,4808.9979,N,01135.0800,E,1,04,01.4,00464.4,M,0046.2,M,,*5F
{"class":"TPV","tag":"GGA","mode":3,"time":"2019-04-06T23:57:41.020Z","ept":0.005,"lat":48.149965000,"lon":11.584666667,"alt":464.400,"epx":38.149,"epy":37.648,"epv":50.600,"track":0.0000,"speed":0.051,"eps":76.30}
$GPGSA,A,3,20,,,,31,13,,04,,,,,02.6,01.4,02.2*05
$GPGSV,3,1,12,20,78,050,40,11,72,261,,06,41,277,,14,38,185,*77
$GPGSV,3,2,12,31,27,062,40,13,26,209,40,07,25,308,,04,17,308,40*73
$GPGLL,4808.9979,N,01135.0800,E,235741.02,A,A*69
{"class":"TPV","tag":"GLL","mode":3,"time":"2019-04-06T23:57:41.020Z","ept":0.005,"lat":48.149965000,"lon":11.584666667,"alt":464.400,"epx":38.149,"epy":37.648,"epv":50.600,"track":0.0000,"speed":0.051,"climb":0.000,"eps":76.30}
$GPRMC,235742.02,A,4808.9979,N,01135.0800,E,000.1,000.0,060419,003.0,E,A*3E
$GPVTG,000.0,T,357.0,M,000.1,N,0000.2,K,A*11
$GPGGA,235742.02,4808.9979,N,01135.0800,E,1,04,01.4,00464.4,M,0046.2,M,,*5C
{"class":"TPV","tag":"GGA","mode":3,"time":"2019-04-06T23:57:42.020Z","ept":0.005,"lat":48.149965000,"lon":11.584666667,"alt":464.400,"epx":38.149,"epy":37.648,"epv":50.600,"track":0.0000,"speed":0.051,"eps":76.30}
$GPGSA,A,3,20,,,,31,13,,04,,,,,02.6,01.4,02.2*05
$GPGSV,3,1,12,20,78,050,40,11,72,261,,06,41,277,,14,38,185,*77
$GPGSV,3,2,12,31,27,062,40,13,26,209,40,07,25,308,,04,17,308,40*73
$GPGSV,3,3,12,09,16,099,,03,14,190,,08,10,039,,10,02,065,*79
{"class":"SKY","tag":"GSV","xdop":2.54,"ydop":2.51,"vdop":2.20,"tdop":5.78,"hdop":1.40,"gdop":9.19,"pdop":2.60,"satellites":[{"PRN":20,"el":78,"az":50,"ss":40,"used":true},{"PRN":11,"el":72,"az":261,"ss":0,"used":false},{"PRN":6,"el":41,"az":277,"ss":0,"used":false},{"PRN":14,"el":38,"az":185,"ss":0,"used":false},{"PRN":31,"el":27,"az":62,"ss":40,"used":true},{"PRN":13,"el":26,"az":209,"ss":40,"used":true},{"PRN":7,"el":25,"az":308,"ss":0,"used":false},{"PRN":4,"el":17,"az":308,"ss":40,"used":true},{"PRN":9,"el":16,"az":99,"ss":0,"used":false},{"PRN":3,"el":14,"az":190,"ss":0,"used":false},{"PRN":8,"el":10,"az":39,"ss":0,"used":false},{"PRN":10,"el":2,"az":65,"ss":0,"used":false}]}
$GPRMC,235743.02,A,4808.9979,N,01135.0800,E,000.1,000.0,060419,003.0,E,A*3F
$GPVTG,000.0,T,357.0,M,000.1,N,0000.2,K,A*11
$GPGGA,235743.02,4808.9979,N,01135.0800,E,1,04,01.4,00464.4,M,0046.2,M,,*5D
{"class":"TPV","tag":"GGA","mode":3,"time":"2019-04-06T23:57:43.020Z","ept":0.005,"lat":48.149965000,"lon":11.584666667,"alt":464.400,"epx":38.149,"epy":37.648,"epv":50.600,"track":0.0000,"speed":0.051,"eps":76.30}
$GPGSA,A,3,20,,,,31,13,,04,,,,,02.6,01.4,02.2*05
$GPGSV,3,1,12,20,78,050,40,11,72,261,,06,41,277,,14,38,185,*77
$GPGSV,3,2,12,31,27,062,40,13,26,209,40,07,25,308,,04,17,308,40*73
