# Name: GPS-320FW
# Chipset: SE4100L + PL-6313
# Description: OEM module from RF Solutions, Inc
# Submitter: f4eru <f4eru@free.fr> 
# Date: 2010-10-16
# Notes: This is the chip in normal operation after warm boot, but
#        with a sat simulator spoofing it into thinking it is
#        2019-06-04, just after a 10-bit GPS week wraparound.
#        Because the receiver has not been restarted, it displays
#        a correct time.
#
$GPGSV,3,2,12,31,27,063,40,13,26,209,40,07,25,309,,04,17,308,40*73
$GPGLL,4808.9977,N,01135.0800,E,235723.02,A,A*63
$GPRMC,235724.02,A,4808.9978,N,01135.0800,E,000.0,000.0,060419,003.0,E,A*3E
$GPVTG,000.0,T,357.0,M,000.0,N,0000.1,K,A*13
$GPGGA,235724.02,4808.9978,N,01135.0800,E,1,04,01.4,00464.4,M,0046.2,M,,*5D
$GPGSA,A,3,20,,,,31,13,,04,,,,,02.6,01.4,02.1*06
$GPGSV,3,1,12,20,78,050,41,11,72,261,,06,41,278,,14,38,185,*79
$GPGSV,3,2,12,31,27,063,41,13,26,209,40,07,25,309,,04,17,308,40*72
$GPGLL,4808.9978,N,01135.0800,E,235724.02,A,A*6B
$GPRMC,235725.02,A,4808.9977,N,01135.0800,E,000.0,000.0,060419,003.0,E,A*30
$GPVTG,000.0,T,357.0,M,000.0,N,0000.1,K,A*13
$GPGGA,235725.02,4808.9977,N,01135.0800,E,1,04,01.4,00464.5,M,0046.2,M,,*52
$GPGSA,A,3,20,,,,31,13,,04,,,,,02.6,01.4,02.1*06
$GPGSV,3,1,12,20,78,050,41,11,72,261,,06,41,278,,14,38,185,*79
$GPGSV,3,2,12,31,27,063,40,13,26,209,40,07,25,309,,04,17,308,40*73
$GPGLL,4808.9977,N,01135.0800,E,235725.02,A,A*65
$GPRMC,235726.02,A,4808.9978,N,01135.0800,E,000.0,000.0,060419,003.0,E,A*3C
$GPVTG,000.0,T,357.0,M,000.0,N,0000.1,K,A*13
$GPGGA,235726.02,4808.9978,N,01135.0800,E,1,04,01.4,00464.5,M,0046.2,M,,*5E
$GPGSA,A,3,20,,,,31,13,,04,,,,,02.6,01.4,02.1*06
$GPGSV,3,1,12,20,78,050,41,11,72,261,,06,41,278,,14,38,185,*79
$GPGSV,3,2,12,31,27,063,40,13,26,209,40,07,25,309,,04,17,308,40*73
$GPGSV,3,3,12,09,16,099,,03,14,190,,08,10,039,,10,02,065,*79
$GPRMC,235727.02,A,4808.9978,N,01135.0800,E,000.0,000.0,060419,003.0,E,A*3D
$GPVTG,000.0,T,357.0,M,000.0,N,0000.1,K,A*13
$GPGGA,235727.02,4808.9978,N,01135.0800,E,1,04,01.4,00464.5,M,0046.2,M,,*5F
$GPGSA,A,3,20,,,,31,13,,04,,,,,02.6,01.4,02.1*06
$GPGSV,3,1,12,20,78,050,41,11,72,261,,06,41,278,,14,38,185,*79
$GPGSV,3,2,12,31,27,062,40,13,26,209,40,07,25,309,,04,17,308,40*72
$GPZDA,235727.02,06,04,2019,,*6A
$GPRMC,235728.02,A,4808.9978,N,01135.0800,E,000.0,000.0,060419,003.0,E,A*32
$GPVTG,000.0,T,357.0,M,000.0,N,0000.1,K,A*13
$GPGGA,235728.02,4808.9978,N,01135.0800,E,1,04,01.4,00464.4,M,0046.2,M,,*51
$GPGSA,A,3,20,,,,31,13,,04,,,,,02.6,01.4,02.2*05
$GPGSV,3,1,12,20,78,050,41,11,72,261,,06,41,278,,14,38,185,*79
$GPGSV,3,2,12,31,27,062,40,13,26,209,40,07,25,309,,04,17,308,40*72
$GPGLL,4808.9978,N,01135.0800,E,235728.02,A,A*67
$GPRMC,235729.02,A,4808.9978,N,01135.0800,E,000.1,000.0,060419,003.0,E,A*32
$GPVTG,000.0,T,357.0,M,000.1,N,0000.1,K,A*12
$GPGGA,235729.02,4808.9978,N,01135.0800,E,1,04,01.4,00464.5,M,0046.2,M,,*51
$GPGSA,A,3,20,,,,31,13,,04,,,,,02.6,01.4,02.2*05
$GPGSV,3,1,12,20,78,050,40,11,72,261,,06,41,278,,14,38,185,*78
$GPGSV,3,2,12,31,27,062,40,13,26,209,40,07,25,309,,04,17,308,40*72
$GPGLL,4808.9978,N,01135.0800,E,235729.02,A,A*66
$GPRMC,235730.02,A,4808.9978,N,01135.0800,E,000.1,000.0,060419,003.0,E,A*3A
$GPVTG,000.0,T,357.0,M,000.1,N,0000.1,K,A*12
$GPGGA,235730.02,4808.9978,N,01135.0800,E,1,04,01.4,00464.4,M,0046.2,M,,*58
$GPGSA,A,3,20,,,,31,13,,04,,,,,02.6,01.4,02.2*05
$GPGSV,3,1,12,20,78,050,40,11,72,261,,06,41,278,,14,38,185,*78
$GPGSV,3,2,12,31,27,062,40,13,26,209,40,07,25,309,,04,17,308,40*72
$GPGLL,4808.9978,N,01135.0800,E,235730.02,A,A*6E
$GPRMC,235731.02,A,4808.9978,N,01135.0801,E,000.1,000.0,060419,003.0,E,A*3A
$GPVTG,000.0,T,357.0,M,000.1,N,0000.1,K,A*12
$GPGGA,235731.02,4808.9978,N,01135.0801,E,1,04,01.4,00464.5,M,0046.2,M,,*59
$GPGSA,A,3,20,,,,31,13,,04,,,,,02.6,01.4,02.2*05
$GPGSV,3,1,12,20,78,050,40,11,72,261,,06,41,278,,14,38,185,*78
$GPGSV,3,2,12,31,27,062,40,13,26,209,40,07,25,309,,04,17,308,40*72
$GPGSV,3,3,12,09,16,099,,03,14,190,,08,10,039,,10,02,065,*79
$GPRMC,235732.02,A,4808.9978,N,01135.0801,E,000.0,000.0,060419,003.0,E,A*38
$GPVTG,000.0,T,357.0,M,000.0,N,0000.0,K,A*12
$GPGGA,235732.02,4808.9978,N,01135.0801,E,1,04,01.4,00464.5,M,0046.2,M,,*5A
$GPGSA,A,3,20,,,,31,13,,04,,,,,02.6,01.4,02.2*05
$GPGSV,3,1,12,20,78,050,40,11,72,261,,06,41,278,,14,38,185,*78
$GPGSV,3,2,12,31,27,062,40,13,26,209,40,07,25,309,,04,17,308,40*72
$GPGLL,4808.9978,N,01135.0801,E,235732.02,A,A*6D
$GPRMC,235733.02,A,4808.9978,N,01135.0801,E,000.0,000.0,060419,003.0,E,A*39
$GPVTG,000.0,T,357.0,M,000.0,N,0000.0,K,A*12
$GPGGA,235733.02,4808.9978,N,01135.0801,E,1,04,01.4,00464.5,M,0046.2,M,,*5B
$GPGSA,A,3,20,,,,31,13,,04,,,,,02.6,01.4,02.2*05
$GPGSV,3,1,12,20,78,050,40,11,72,261,,06,41,278,,14,38,185,*78
$GPGSV,3,2,12,31,27,062,40,13,26,209,40,07,25,309,,04,17,308,40*72
$GPGLL,4808.9978,N,01135.0801,E,235733.02,A,A*6C
$GPRMC,235734.02,A,4808.9978,N,01135.0801,E,000.0,000.0,060419,003.0,E,A*3E
$GPVTG,000.0,T,357.0,M,000.0,N,0000.1,K,A*13
$GPGGA,235734.02,4808.9978,N,01135.0801,E,1,04,01.4,00464.5,M,0046.2,M,,*5C
$GPGSA,A,3,20,,,,31,13,,04,,,,,02.6,01.4,02.2*05
$GPGSV,3,1,12,20,78,050,40,11,72,261,,06,41,278,,14,38,185,*78
$GPGSV,3,2,12,31,27,062,40,13,26,209,40,07,25,309,,04,17,308,40*72
$GPGSV,3,3,12,09,16,099,,03,14,190,,08,10,039,,10,02,065,*79
$GPRMC,235735.02,A,4808.9978,N,01135.0801,E,000.0,000.0,060419,003.0,E,A*3F
$GPVTG,000.0,T,357.0,M,000.0,N,0000.1,K,A*13
$GPGGA,235735.02,4808.9978,N,01135.0801,E,1,04,01.4,00464.4,M,0046.2,M,,*5C
$GPGSA,A,3,20,,,,31,13,,04,,,,,02.6,01.4,02.2*05
$GPGSV,3,1,12,20,78,050,40,11,72,261,,06,41,278,,14,38,185,*78
$GPGSV,3,2,12,31,27,062,40,13,26,209,40,07,25,309,,04,17,308,40*72
$GPGSV,3,3,12,09,16,099,,03,14,190,,08,10,039,,10,02,065,*79
$GPRMC,235736.02,A,4808.9979,N,01135.0801,E,000.0,000.0,060419,003.0,E,A*3D
$GPVTG,000.0,T,357.0,M,000.0,N,0000.1,K,A*13
$GPGGA,235736.02,4808.9979,N,01135.0801,E,1,04,01.4,00464.4,M,0046.2,M,,*5E
$GPGSA,A,3,20,,,,31,13,,04,,,,,02.6,01.4,02.2*05
$GPGSV,3,1,12,20,78,050,40,11,72,261,,06,41,278,,14,38,185,*78
$GPGSV,3,2,12,31,27,062,40,13,26,209,40,07,25,309,,04,17,308,40*72
$GPGSV,3,3,12,09,16,099,,03,14,190,,08,10,039,,10,02,065,*79
$GPRMC,235737.02,A,4808.9979,N,01135.0801,E,000.0,000.0,060419,003.0,E,A*3C
$GPVTG,000.0,T,357.0,M,000.0,N,0000.1,K,A*13
$GPGGA,235737.02,4808.9979,N,01135.0801,E,1,04,01.4,00464.4,M,0046.2,M,,*5F
$GPGSA,A,3,20,,,,31,13,,04,,,,,02.6,01.4,02.2*05
$GPGSV,3,1,12,20,78,050,40,11,72,261,,06,41,278,,14,38,185,*78
$GPGSV,3,2,12,31,27,062,40,13,26,209,40,07,25,309,,04,17,308,40*72
$GPZDA,235737.02,06,04,2019,,*6B
$GPRMC,235738.02,A,4808.9979,N,01135.0801,E,000.1,000.0,060419,003.0,E,A*32
$GPVTG,000.0,T,357.0,M,000.1,N,0000.1,K,A*12
$GPGGA,235738.02,4808.9979,N,01135.0801,E,1,04,01.4,00464.5,M,0046.2,M,,*51
$GPGSA,A,3,20,,,,31,13,,04,,,,,02.6,01.4,02.2*05
$GPGSV,3,1,12,20,78,050,40,11,72,261,,06,41,278,,14,38,185,*78
$GPGSV,3,2,12,31,27,062,40,13,26,209,40,07,25,309,,04,17,308,40*72
$GPGSV,3,3,12,09,16,099,,03,14,190,,08,10,039,,10,02,065,*79
$GPRMC,235739.02,A,4808.9979,N,01135.0800,E,000.1,000.0,060419,003.0,E,A*32
$GPVTG,000.0,T,357.0,M,000.1,N,0000.1,K,A*12
$GPGGA,235739.02,4808.9979,N,01135.0800,E,1,04,01.4,00464.4,M,0046.2,M,,*50
$GPGSA,A,3,20,,,,31,13,,04,,,,,02.6,01.4,02.2*05
$GPGSV,3,1,12,20,78,050,40,11,72,261,,06,41,277,,14,38,185,*77
$GPGSV,3,2,12,31,27,062,40,13,26,209,40,07,25,309,,04,17,308,40*72
$GPGSV,3,3,12,09,16,099,,03,14,190,,08,10,039,,10,02,065,*79
$GPRMC,235740.02,A,4808.9979,N,01135.0800,E,000.1,000.0,060419,003.0,E,A*3C
$GPVTG,000.0,T,357.0,M,000.1,N,0000.1,K,A*12
$GPGGA,235740.02,4808.9979,N,01135.0800,E,1,04,01.4,00464.4,M,0046.2,M,,*5E
$GPGSA,A,3,20,,,,31,13,,04,,,,,02.6,01.4,02.2*05
$GPGSV,3,1,12,20,78,050,40,11,72,261,,06,41,277,,14,38,185,*77
$GPGSV,3,2,12,31,27,062,40,13,26,209,40,07,25,308,,04,17,308,40*73
$GPGSV,3,3,12,09,16,099,,03,14,190,,08,10,039,,10,02,065,*79
$GPRMC,235741.02,A,4808.9979,N,01135.0800,E,000.1,000.0,060419,003.0,E,A*3D
$GPVTG,000.0,T,357.0,M,000.1,N,0000.2,K,A*11
$GPGGA,235741.02,4808.9979,N,01135.0800,E,1,04,01.4,00464.4,M,0046.2,M,,*5F
$GPGSA,A,3,20,,,,31,13,,04,,,,,02.6,01.4,02.2*05
$GPGSV,3,1,12,20,78,050,40,11,72,261,,06,41,277,,14,38,185,*77
$GPGSV,3,2,12,31,27,062,40,13,26,209,40,07,25,308,,04,17,308,40*73
$GPGLL,4808.9979,N,01135.0800,E,235741.02,A,A*69
$GPRMC,235742.02,A,4808.9979,N,01135.0800,E,000.1,000.0,060419,003.0,E,A*3E
$GPVTG,000.0,T,357.0,M,000.1,N,0000.2,K,A*11
$GPGGA,235742.02,4808.9979,N,01135.0800,E,1,04,01.4,00464.4,M,0046.2,M,,*5C
$GPGSA,A,3,20,,,,31,13,,04,,,,,02.6,01.4,02.2*05
$GPGSV,3,1,12,20,78,050,40,11,72,261,,06,41,277,,14,38,185,*77
$GPGSV,3,2,12,31,27,062,40,13,26,209,40,07,25,308,,04,17,308,40*73
$GPGSV,3,3,12,09,16,099,,03,14,190,,08,10,039,,10,02,065,*79
$GPRMC,235743.02,A,4808.9979,N,01135.0800,E,000.1,000.0,060419,003.0,E,A*3F
$GPVTG,000.0,T,357.0,M,000.1,N,0000.2,K,A*11
$GPGGA,235743.02,4808.9979,N,01135.0800,E,1,04,01.4,00464.4,M,0046.2,M,,*5D
$GPGSA,A,3,20,,,,31,13,,04,,,,,02.6,01.4,02.2*05
$GPGSV,3,1,12,20,78,050,40,11,72,261,,06,41,277,,14,38,185,*77
$GPGSV,3,2,12,31,27,062,40,13,26,209,40,07,25,308,,04,17,308,40*73
