# Name: GPS-320FW
# Chipset: SE4100L + PL-6313
# Description: OEM module from RF Solutions, Inc
# Submitter: f4eru <f4eru@free.fr> 
# Date: 2010-10-16
# Notes: This is the chip in normal operation, but with a sat simulator
#        spoofing it into thinking it is 2019-03-28.  The chip is known to have
#        bugs that result in incorrect time reporting at GPS week 10-bit
#        rollover boundaries. No such boundary is crossed in this log.
#
$GPGLL,4808.9985,N,01135.0867,E,164516.99,A,A*6E
$GPRMC,164517.99,A,4808.9985,N,01135.0867,E,000.0,000.0,280319,003.0,E,A*31
$GPVTG,000.0,T,357.0,M,000.0,N,0000.0,K,A*12
$GPGGA,164517.99,4808.9985,N,01135.0867,E,1,04,01.3,00463.0,M,0046.2,M,,*5D
$GPGSA,A,3,,21,,,,06,18,,05,,,,02.3,01.3,01.9*00
$GPGSV,3,1,12,17,77,041,13,21,76,138,47,09,47,236,18,04,37,056,*75
$GPGSV,3,2,12,12,32,298,,06,29,277,47,18,20,143,47,08,15,173,*71
$GPGLL,4808.9985,N,01135.0867,E,164517.99,A,A*6F
$GPRMC,164518.99,A,4808.9985,N,01135.0867,E,000.0,000.0,280319,003.0,E,A*3E
$GPVTG,000.0,T,357.0,M,000.0,N,0000.0,K,A*12
$GPGGA,164518.99,4808.9985,N,01135.0867,E,1,04,01.3,00462.9,M,0046.2,M,,*5A
$GPGSA,A,3,,21,,,,06,18,,05,,,,02.3,01.3,01.9*00
$GPGSV,3,1,12,17,77,041,12,21,76,138,48,09,47,236,18,04,37,056,*7B
$GPGSV,3,2,12,12,32,298,,06,29,277,47,18,20,143,47,08,15,173,*71
$GPGLL,4808.9985,N,01135.0867,E,164518.99,A,A*60
$GPRMC,164519.99,A,4808.9985,N,01135.0867,E,000.0,000.0,280319,003.0,E,A*3F
$GPVTG,000.0,T,357.0,M,000.0,N,0000.0,K,A*12
$GPGGA,164519.99,4808.9985,N,01135.0867,E,1,04,01.3,00462.9,M,0046.2,M,,*5B
$GPGSA,A,3,,21,,,,06,18,,05,,,,02.3,01.3,01.9*00
$GPGSV,3,1,12,17,77,041,13,21,76,138,48,09,47,236,18,04,37,056,*7A
$GPGSV,3,2,12,12,32,298,,06,29,277,47,18,20,143,47,08,15,173,*71
$GPGSV,3,3,12,05,13,037,47,14,06,303,,01,00,359,,02,00,204,*73
$GPRMC,164520.99,A,4808.9985,N,01135.0868,E,000.0,000.0,280319,003.0,E,A*3A
$GPVTG,000.0,T,357.0,M,000.0,N,0000.0,K,A*12
$GPGGA,164520.99,4808.9985,N,01135.0868,E,1,04,01.3,00462.8,M,0046.2,M,,*5F
$GPGSA,A,3,,21,,,,06,18,,05,,,,02.3,01.3,01.9*00
$GPGSV,3,1,12,17,77,041,14,21,76,137,47,09,47,236,18,04,37,056,*7D
$GPGSV,3,2,12,12,32,298,,06,29,277,47,18,20,143,47,08,15,173,*71
$GPZDA,164520.99,28,03,2019,,*61
$GPRMC,164521.99,A,4808.9985,N,01135.0868,E,000.0,000.0,280319,003.0,E,A*3B
$GPVTG,000.0,T,357.0,M,000.0,N,0000.0,K,A*12
$GPGGA,164521.99,4808.9985,N,01135.0868,E,1,04,01.3,00462.8,M,0046.2,M,,*5E
$GPGSA,A,3,,21,,,,06,18,,05,,,,02.3,01.3,01.9*00
$GPGSV,3,1,12,17,77,041,15,21,76,137,47,09,47,236,18,04,37,056,*7C
$GPGSV,3,2,12,12,32,298,,06,29,277,47,18,20,143,47,08,15,173,*71
$GPGSV,3,3,12,05,13,037,47,14,06,303,,01,00,359,,02,00,204,*73
$GPRMC,164522.99,A,4808.9985,N,01135.0869,E,000.0,000.0,280319,003.0,E,A*39
$GPVTG,000.0,T,357.0,M,000.0,N,0000.0,K,A*12
$GPGGA,164522.99,4808.9985,N,01135.0869,E,1,04,01.3,00462.8,M,0046.2,M,,*5C
$GPGSA,A,3,,21,,,,06,18,,05,,,,02.3,01.3,01.9*00
$GPGSV,3,1,12,17,77,041,16,21,76,137,47,09,47,236,18,04,37,056,*7F
$GPGSV,3,2,12,12,32,298,,06,29,277,47,18,20,143,47,08,15,173,*71
$GPGLL,4808.9985,N,01135.0869,E,164522.99,A,A*67
$GPRMC,164523.99,A,4808.9985,N,01135.0869,E,000.0,000.0,280319,003.0,E,A*38
$GPVTG,000.0,T,357.0,M,000.0,N,0000.0,K,A*12
$GPGGA,164523.99,4808.9985,N,01135.0869,E,1,04,01.3,00462.7,M,0046.2,M,,*52
$GPGSA,A,3,,21,,,,06,18,,05,,,,02.3,01.3,01.9*00
$GPGSV,3,1,12,17,77,041,16,21,76,137,47,09,47,236,17,04,37,056,*70
$GPGSV,3,2,12,12,32,298,,06,29,277,47,18,20,143,47,08,15,173,*71
$GPGLL,4808.9985,N,01135.0869,E,164523.99,A,A*66
$GPRMC,164524.99,A,4808.9985,N,01135.0869,E,000.0,000.0,280319,003.0,E,A*3F
$GPVTG,000.0,T,357.0,M,000.0,N,0000.0,K,A*12
$GPGGA,164524.99,4808.9985,N,01135.0869,E,1,04,01.3,00462.7,M,0046.2,M,,*55
$GPGSA,A,3,,21,,,,06,18,,05,,,,02.3,01.3,01.9*00
$GPGSV,3,1,12,17,77,041,16,21,76,137,47,09,47,236,17,04,37,056,*70
$GPGSV,3,2,12,12,32,298,,06,29,277,47,18,20,143,47,08,15,173,*71
$GPGSV,3,3,12,05,13,037,47,14,06,303,,02,00,204,,01,00,359,*73
$GPRMC,164525.99,A,4808.9985,N,01135.0869,E,000.0,000.0,280319,003.0,E,A*3E
$GPVTG,000.0,T,357.0,M,000.0,N,0000.0,K,A*12
$GPGGA,164525.99,4808.9985,N,01135.0869,E,1,04,01.3,00462.7,M,0046.2,M,,*54
$GPGSA,A,3,,21,,,,06,18,,05,,,,02.3,01.3,01.9*00
$GPGSV,3,1,12,17,77,041,15,21,76,137,48,09,47,236,17,04,37,056,*7C
$GPGSV,3,2,12,12,32,298,,06,29,277,47,18,20,143,47,08,15,173,*71
$GPGLL,4808.9985,N,01135.0869,E,164525.99,A,A*60
$GPRMC,164526.99,A,4808.9985,N,01135.0869,E,000.0,000.0,280319,003.0,E,A*3D
$GPVTG,000.0,T,357.0,M,000.0,N,0000.0,K,A*12
$GPGGA,164526.99,4808.9985,N,01135.0869,E,1,04,01.3,00462.7,M,0046.2,M,,*57
$GPGSA,A,3,,21,,,,06,18,,05,,,,02.3,01.3,01.9*00
$GPGSV,3,1,12,17,77,041,15,21,76,137,47,09,47,236,18,04,37,056,*7C
$GPGSV,3,2,12,12,32,298,,06,29,277,47,18,20,143,47,08,15,173,*71
$GPGLL,4808.9985,N,01135.0869,E,164526.99,A,A*63
$GPRMC,164527.99,A,4808.9985,N,01135.0869,E,000.0,000.0,280319,003.0,E,A*3C
$GPVTG,000.0,T,357.0,M,000.0,N,0000.0,K,A*12
$GPGGA,164527.99,4808.9985,N,01135.0869,E,1,04,01.3,00462.7,M,0046.2,M,,*56
$GPGSA,A,3,,21,,,,06,18,,05,,,,02.3,01.3,01.9*00
$GPGSV,3,1,12,17,77,041,14,21,76,137,48,09,47,236,17,04,37,056,*7D
$GPGSV,3,2,12,12,32,298,,06,29,277,47,18,20,143,48,08,15,173,*7E
$GPZDA,164527.99,28,03,2019,,*66
$GPRMC,164528.99,A,4808.9985,N,01135.0870,E,000.0,000.0,280319,003.0,E,A*3B
$GPVTG,000.0,T,357.0,M,000.0,N,0000.0,K,A*12
$GPGGA,164528.99,4808.9985,N,01135.0870,E,1,04,01.3,00462.7,M,0046.2,M,,*51
$GPGSA,A,3,,21,,,,06,18,,05,,,,02.3,01.3,01.9*00
$GPGSV,3,1,12,17,77,041,13,21,76,137,47,09,47,236,17,04,37,056,*75
$GPGSV,3,2,12,12,32,298,,06,29,277,47,18,20,143,47,08,15,173,*71
$GPGSV,3,3,12,05,13,037,47,14,06,303,,02,00,204,,01,00,359,*73
$GPRMC,164529.99,A,4808.9985,N,01135.0870,E,000.0,000.0,280319,003.0,E,A*3A
$GPVTG,000.0,T,357.0,M,000.0,N,0000.0,K,A*12
$GPGGA,164529.99,4808.9985,N,01135.0870,E,1,04,01.3,00462.6,M,0046.2,M,,*51
$GPGSA,A,3,,21,,,,06,18,,05,,,,02.3,01.3,01.9*00
$GPGSV,3,1,12,17,77,041,13,21,76,137,47,09,47,236,17,04,37,056,*75
$GPGSV,3,2,12,12,32,298,,06,29,277,47,18,20,143,47,08,15,173,*71
$GPGLL,4808.9985,N,01135.0870,E,164529.99,A,A*64
$GPRMC,164530.99,A,4808.9985,N,01135.0870,E,000.0,000.0,280319,003.0,E,A*32
$GPVTG,000.0,T,357.0,M,000.0,N,0000.0,K,A*12
$GPGGA,164530.99,4808.9985,N,01135.0870,E,1,04,01.3,00462.6,M,0046.2,M,,*59
$GPGSA,A,3,,21,,,,06,18,,05,,,,02.3,01.3,01.9*00
$GPGSV,3,1,12,17,77,041,13,21,76,137,47,09,47,236,17,04,37,056,*75
$GPGSV,3,2,12,12,32,298,,06,29,277,47,18,20,143,47,08,15,173,*71
$GPGSV,3,3,12,05,13,037,47,14,06,303,,01,00,359,,02,00,204,*73
$GPRMC,164531.99,A,4808.9986,N,01135.0871,E,000.0,000.0,280319,003.0,E,A*31
$GPVTG,000.0,T,357.0,M,000.0,N,0000.0,K,A*12
$GPGGA,164531.99,4808.9986,N,01135.0871,E,1,04,01.3,00462.6,M,0046.2,M,,*5A
$GPGSA,A,3,,21,,,,06,18,,05,,,,02.3,01.3,01.9*00
$GPGSV,3,1,12,17,77,041,12,21,76,137,47,09,47,236,17,04,37,056,*74
$GPGSV,3,2,12,12,32,298,,06,29,277,47,18,20,143,47,08,15,173,*71
$GPZDA,164531.99,28,03,2019,,*61
$GPRMC,164532.99,A,4808.9986,N,01135.0871,E,000.0,000.0,280319,003.0,E,A*32
$GPVTG,000.0,T,357.0,M,000.0,N,0000.0,K,A*12
$GPGGA,164532.99,4808.9986,N,01135.0871,E,1,04,01.3,00462.6,M,0046.2,M,,*59
$GPGSA,A,3,,21,,,,06,18,,05,,,,02.3,01.3,01.9*00
$GPGSV,3,1,12,17,77,041,12,21,76,137,47,09,47,236,17,04,37,056,*74
$GPGSV,3,2,12,12,32,298,,06,29,277,47,18,20,143,47,08,15,173,*71
$GPGLL,4808.9986,N,01135.0871,E,164532.99,A,A*6C
$GPRMC,164533.99,A,4808.9986,N,01135.0871,E,000.0,000.0,280319,003.0,E,A*33
$GPVTG,000.0,T,357.0,M,000.0,N,0000.0,K,A*12
$GPGGA,164533.99,4808.9986,N,01135.0871,E,1,04,01.3,00462.5,M,0046.2,M,,*5B
$GPGSA,A,3,,21,,,,06,18,,05,,,,02.3,01.3,02.0*0A
$GPGSV,3,1,12,17,77,041,13,21,76,137,47,09,47,236,17,04,37,056,*75
$GPGSV,3,2,12,12,32,298,,06,29,277,47,18,20,143,47,08,15,173,*71
$GPGLL,4808.9986,N,01135.0871,E,164533.99,A,A*6D
$GPRMC,164534.99,A,4808.9986,N,01135.0871,E,000.0,000.0,280319,003.0,E,A*34
$GPVTG,000.0,T,357.0,M,000.0,N,0000.0,K,A*12
$GPGGA,164534.99,4808.9986,N,01135.0871,E,1,04,01.3,00462.5,M,0046.2,M,,*5C
$GPGSA,A,3,,21,,,,06,18,,05,,,,02.3,01.3,02.0*0A
$GPGSV,3,1,12,17,77,041,13,21,76,137,47,09,47,236,17,04,37,056,*75
$GPGSV,3,2,12,12,32,298,,06,29,277,48,18,20,143,48,08,15,173,*71
$GPZDA,164534.99,28,03,2019,,*64
$GPRMC,164535.99,A,4808.9986,N,01135.0872,E,000.0,000.0,280319,003.0,E,A*36
$GPVTG,000.0,T,357.0,M,000.0,N,0000.0,K,A*12
$GPGGA,164535.99,4808.9986,N,01135.0872,E,1,04,01.3,00462.5,M,0046.2,M,,*5E
$GPGSA,A,3,,21,,,,06,18,,05,,,,02.3,01.3,02.0*0A
$GPGSV,3,1,12,17,77,041,12,21,76,137,47,09,47,236,17,04,37,056,*74
$GPGSV,3,2,12,12,32,298,,06,29,277,48,18,20,143,48,08,15,173,*71
$GPGSV,3,3,12,05,13,037,47,14,06,303,,01,00,359,,02,00,204,*73
$GPRMC,164536.99,A,4808.9986,N,01135.0872,E,000.0,000.0,280319,003.0,E,A*35
$GPVTG,000.0,T,357.0,M,000.0,N,0000.0,K,A*12
$GPGGA,164536.99,4808.9986,N,01135.0872,E,1,04,01.3,00462.5,M,0046.2,M,,*5D
