$GPGSA,A,3,28,11,26,29,,,,,,,,,12.9,12.5,3.1*39
{"class":"TPV","tag":"GSA","mode":3,"epv":71.300}
$GPRMC,021612.949,A,5029.3800,N,10441.0390,W,0.039560,189.06,280706,,*18
{"class":"TPV","tag":"RMC","mode":2,"time":"2006-07-28T02:16:12.949Z","ept":0.005,"lat":50.489666667,"lon":-104.683983333,"track":189.0600,"speed":0.020}
$GPGGA,021613.949,5029.3800,N,10441.0389,W,1,04,12.5,572.4,M,-20.3,M,0.0,0000*7E
$GPGLL,5029.3800,N,10441.0389,W,021613.949,A*22
$GPGSA,A,3,28,11,26,29,,,,,,,,,12.9,12.5,3.1*39
$GPRMC,021613.949,A,5029.3800,N,10441.0389,W,0.009850,267.99,280706,,*19
{"class":"TPV","tag":"RMC","mode":3,"time":"2006-07-28T02:16:13.949Z","ept":0.005,"lat":50.489666667,"lon":-104.683981667,"alt":572.400,"epv":71.300,"track":267.9900,"speed":0.005,"climb":0.000}
$GPGGA,021614.949,5029.3800,N,10441.0388,W,1,04,12.5,572.3,M,-20.3,M,0.0,0000*7F
$GPGLL,5029.3800,N,10441.0388,W,021614.949,A*24
$GPGSA,A,3,28,11,26,29,,,,,,,,,12.9,12.5,3.1*39
$GPGSV,3,1,9,8,49,156,27,17,49,212,0,28,82,35,36,11,38,84,37*4A
$GPGSV,3,2,9,26,32,278,39,29,31,270,38,19,6,48,0,27,22,152,26*71
$GPGSV,3,3,9,123,0,0,0*40
{"class":"SKY","tag":"GSV","xdop":2.18,"ydop":2.31,"vdop":3.10,"tdop":5.16,"hdop":12.50,"gdop":8.30,"pdop":12.90,"satellites":[{"PRN":8,"el":49,"az":156,"ss":27,"used":false},{"PRN":17,"el":49,"az":212,"ss":0,"used":false},{"PRN":28,"el":82,"az":35,"ss":36,"used":true},{"PRN":11,"el":38,"az":84,"ss":37,"used":true},{"PRN":26,"el":32,"az":278,"ss":39,"used":true},{"PRN":29,"el":31,"az":270,"ss":38,"used":true},{"PRN":19,"el":6,"az":48,"ss":0,"used":false},{"PRN":27,"el":22,"az":152,"ss":26,"used":false},{"PRN":123,"el":0,"az":0,"ss":0,"used":false}]}
$GPRMC,021614.949,A,5029.3800,N,10441.0388,W,0.016538,341.48,280706,,*1B
{"class":"TPV","tag":"RMC","mode":3,"time":"2006-07-28T02:16:14.949Z","ept":0.005,"lat":50.489666667,"lon":-104.683980000,"alt":572.300,"epx":32.645,"epy":34.721,"epv":71.300,"track":341.4800,"speed":0.009,"climb":-0.100}
$GPGGA,021615.949,5029.3799,N,10441.0387,W,1,04,12.5,572.1,M,-20.3,M,0.0,0000*7C
$GPGLL,5029.3799,N,10441.0387,W,021615.949,A*25
$GPGSA,A,3,28,11,26,29,,,,,,,,,12.9,12.5,3.1*39
$GPRMC,021615.949,A,5029.3799,N,10441.0387,W,0.024470,357.79,280706,,*13
{"class":"TPV","tag":"RMC","mode":3,"time":"2006-07-28T02:16:15.949Z","ept":0.005,"lat":50.489665000,"lon":-104.683978333,"alt":572.100,"epx":32.645,"epy":34.721,"epv":71.300,"track":357.7900,"speed":0.013,"climb":-0.200,"eps":69.44}
$GPGGA,021616.949,5029.3800,N,10441.0387,W,1,04,12.5,571.9,M,-20.3,M,0.0,0000*7B
$GPGLL,5029.3800,N,10441.0387,W,021616.949,A*29
$GPGSA,A,3,28,11,26,29,,,,,,,,,12.9,12.5,3.1*39
$GPRMC,021616.949,A,5029.3800,N,10441.0387,W,0.064679,355.50,280706,,*19
{"class":"TPV","tag":"RMC","mode":3,"time":"2006-07-28T02:16:16.949Z","ept":0.005,"lat":50.489666667,"lon":-104.683978333,"alt":571.900,"epx":32.645,"epy":34.721,"epv":71.300,"track":355.5000,"speed":0.033,"climb":-0.200,"eps":69.44}
$GPGGA,021617.949,5029.3800,N,10441.0387,W,1,04,12.5,571.9,M,-20.3,M,0.0,0000*7A
$GPGLL,5029.3800,N,10441.0387,W,021617.949,A*28
$GPGSA,A,3,28,11,26,29,,,,,,,,,12.9,12.5,3.1*39
$GPRMC,021617.949,A,5029.3800,N,10441.0387,W,0.081945,359.64,280706,,*18
{"class":"TPV","tag":"RMC","mode":3,"time":"2006-07-28T02:16:17.949Z","ept":0.005,"lat":50.489666667,"lon":-104.683978333,"alt":571.900,"epx":32.645,"epy":34.721,"epv":71.300,"track":359.6400,"speed":0.042,"climb":0.000,"eps":69.44}
$GPGGA,021618.949,5029.3801,N,10441.0387,W,1,04,12.5,571.8,M,-20.3,M,0.0,0000*75
$GPGLL,5029.3801,N,10441.0387,W,021618.949,A*26
$GPGSA,A,3,28,11,26,29,,,,,,,,,12.9,12.5,3.1*39
$GPRMC,021618.949,A,5029.3801,N,10441.0387,W,0.123681,359.07,280706,,*1D
{"class":"TPV","tag":"RMC","mode":3,"time":"2006-07-28T02:16:18.949Z","ept":0.005,"lat":50.489668333,"lon":-104.683978333,"alt":571.800,"epx":32.645,"epy":34.721,"epv":71.300,"track":359.0700,"speed":0.064,"climb":-0.100,"eps":69.44}
$GPGGA,021619.949,5029.3802,N,10441.0387,W,1,04,12.5,571.6,M,-20.3,M,0.0,0000*79
$GPGLL,5029.3802,N,10441.0387,W,021619.949,A*24
$GPGSA,A,3,28,11,26,29,,,,,,,,,12.9,12.5,3.1*39
$GPGSV,3,1,9,8,48,156,25,17,50,212,0,28,82,37,36,11,38,84,36*42
$GPGSV,3,2,9,26,32,277,39,29,31,270,38,19,6,48,0,27,22,152,20*78
$GPGSV,3,3,9,123,0,0,0*40
{"class":"SKY","tag":"GSV","xdop":2.18,"ydop":2.31,"vdop":3.10,"tdop":5.16,"hdop":12.50,"gdop":8.30,"pdop":12.90,"satellites":[{"PRN":8,"el":48,"az":156,"ss":25,"used":false},{"PRN":17,"el":50,"az":212,"ss":0,"used":false},{"PRN":28,"el":82,"az":37,"ss":36,"used":true},{"PRN":11,"el":38,"az":84,"ss":36,"used":true},{"PRN":26,"el":32,"az":277,"ss":39,"used":true},{"PRN":29,"el":31,"az":270,"ss":38,"used":true},{"PRN":19,"el":6,"az":48,"ss":0,"used":false},{"PRN":27,"el":22,"az":152,"ss":20,"used":false},{"PRN":123,"el":0,"az":0,"ss":0,"used":false}]}
$GPRMC,021619.949,A,5029.3802,N,10441.0387,W,0.152675,359.28,280706,,*1F
{"class":"TPV","tag":"RMC","mode":3,"time":"2006-07-28T02:16:19.949Z","ept":0.005,"lat":50.489670000,"lon":-104.683978333,"alt":571.600,"epx":32.645,"epy":34.721,"epv":71.300,"track":359.2800,"speed":0.079,"climb":-0.200,"eps":69.44}
$GPGGA,021620.949,5029.3803,N,10441.0387,W,1,04,12.5,571.7,M,-20.3,M,0.0,0000*73
$GPGLL,5029.3803,N,10441.0387,W,021620.949,A*2F
$GPGSA,A,3,28,11,26,29,,,,,,,,,12.9,12.5,3.1*39
$GPRMC,021620.949,A,5029.3803,N,10441.0387,W,0.149670,359.57,280706,,*13
{"class":"TPV","tag":"RMC","mode":3,"time":"2006-07-28T02:16:20.949Z","ept":0.005,"lat":50.489671667,"lon":-104.683978333,"alt":571.700,"epx":32.645,"epy":34.721,"epv":71.300,"track":359.5700,"speed":0.077,"climb":0.100,"eps":69.44}
$GPGGA,021621.949,5029.3805,N,10441.0387,W,1,04,12.5,571.9,M,-20.3,M,0.0,0000*7A
$GPGLL,5029.3805,N,10441.0387,W,021621.949,A*28
$GPGSA,A,3,28,11,26,29,,,,,,,,,12.9,12.5,3.1*39
$GPRMC,021621.949,A,5029.3805,N,10441.0387,W,0.139805,358.04,280706,,*18
{"class":"TPV","tag":"RMC","mode":3,"time":"2006-07-28T02:16:21.949Z","ept":0.005,"lat":50.489675000,"lon":-104.683978333,"alt":571.900,"epx":32.645,"epy":34.721,"epv":71.300,"track":358.0400,"speed":0.072,"climb":0.200,"eps":69.44}
$GPGGA,021622.949,5029.3806,N,10441.0387,W,1,04,12.5,571.7,M,-20.3,M,0.0,0000*74
$GPGLL,5029.3806,N,10441.0387,W,021622.949,A*28
$GPGSA,A,3,28,11,26,29,,,,,,,,,12.9,12.5,3.1*39
$GPRMC,021622.949,A,5029.3806,N,10441.0387,W,0.159851,358.60,280706,,*1D
{"class":"TPV","tag":"RMC","mode":3,"time":"2006-07-28T02:16:22.949Z","ept":0.005,"lat":50.489676667,"lon":-104.683978333,"alt":571.700,"epx":32.645,"epy":34.721,"epv":71.300,"track":358.6000,"speed":0.082,"climb":-0.200,"eps":69.44}
$GPGGA,021623.949,5029.3808,N,10441.0387,W,1,04,12.5,571.2,M,-20.3,M,0.0,0000*7E
$GPGLL,5029.3808,N,10441.0387,W,021623.949,A*27
$GPGSA,A,3,28,11,26,29,,,,,,,,,12.9,12.5,3.1*39
$GPRMC,021623.949,A,5029.3808,N,10441.0387,W,0.211601,1.82,280706,,*15
{"class":"TPV","tag":"RMC","mode":3,"time":"2006-07-28T02:16:23.949Z","ept":0.005,"lat":50.489680000,"lon":-104.683978333,"alt":571.200,"epx":32.645,"epy":34.721,"epv":71.300,"track":1.8200,"speed":0.109,"climb":-0.500,"eps":69.44}
$GPGGA,021624.949,5029.3810,N,10441.0386,W,1,04,12.5,570.7,M,-20.3,M,0.0,0000*75
$GPGLL,5029.3810,N,10441.0386,W,021624.949,A*28
$GPGSA,A,3,28,11,26,29,,,,,,,,,12.9,12.5,3.1*39
$GPGSV,3,1,9,8,48,156,25,17,50,212,0,28,82,37,37,11,38,84,37*42
$GPGSV,3,2,9,26,32,277,39,29,31,270,38,19,6,48,0,27,22,152,21*79
$GPGSV,3,3,9,123,0,0,0*40
{"class":"SKY","tag":"GSV","xdop":2.18,"ydop":2.31,"vdop":3.10,"tdop":5.16,"hdop":12.50,"gdop":8.30,"pdop":12.90,"satellites":[{"PRN":8,"el":48,"az":156,"ss":25,"used":false},{"PRN":17,"el":50,"az":212,"ss":0,"used":false},{"PRN":28,"el":82,"az":37,"ss":37,"used":true},{"PRN":11,"el":38,"az":84,"ss":37,"used":true},{"PRN":26,"el":32,"az":277,"ss":39,"used":true},{"PRN":29,"el":31,"az":270,"ss":38,"used":true},{"PRN":19,"el":6,"az":48,"ss":0,"used":false},{"PRN":27,"el":22,"az":152,"ss":21,"used":false},{"PRN":123,"el":0,"az":0,"ss":0,"used":false}]}
$GPRMC,021624.949,A,5029.3810,N,10441.0386,W,0.200234,356.84,280706,,*1F
{"class":"TPV","tag":"RMC","mode":3,"time":"2006-07-28T02:16:24.949Z","ept":0.005,"lat":50.489683333,"lon":-104.683976667,"alt":570.700,"epx":32.645,"epy":34.721,"epv":71.300,"track":356.8400,"speed":0.103,"climb":-0.500,"eps":69.44}
$GPGGA,021625.949,5029.3812,N,10441.0386,W,1,04,12.5,570.1,M,-20.3,M,0.0,0000*70
$GPGLL,5029.3812,N,10441.0386,W,021625.949,A*2B
$GPGSA,A,3,28,11,26,29,,,,,,,,,12.9,12.5,3.1*39
$GPRMC,021625.949,A,5029.3812,N,10441.0386,W,0.222299,359.84,280706,,*14
{"class":"TPV","tag":"RMC","mode":3,"time":"2006-07-28T02:16:25.949Z","ept":0.005,"lat":50.489686667,"lon":-104.683976667,"alt":570.100,"epx":32.645,"epy":34.721,"epv":71.300,"track":359.8400,"speed":0.114,"climb":-0.600,"eps":69.44}
$GPGGA,021626.949,5029.3814,N,10441.0385,W,1,04,12.5,569.4,M,-20.3,M,0.0,0000*7B
$GPGLL,5029.3814,N,10441.0385,W,021626.949,A*2D
$GPGSA,A,3,28,11,26,29,,,,,,,,,12.9,12.5,3.1*39
$GPRMC,021626.949,A,5029.3814,N,10441.0385,W,0.196906,0.09,280706,,*19
{"class":"TPV","tag":"RMC","mode":3,"time":"2006-07-28T02:16:26.949Z","ept":0.005,"lat":50.489690000,"lon":-104.683975000,"alt":569.400,"epx":32.645,"epy":34.721,"epv":71.300,"track":0.0900,"speed":0.101,"climb":-0.700,"eps":69.44}
$GPGGA,021627.948,5029.3815,N,10441.0384,W,1,04,12.5,568.8,M,-20.3,M,0.0,0000*76
$GPGLL,5029.3815,N,10441.0384,W,021627.948,A*2D
$GPGSA,A,3,28,11,26,29,,,,,,,,,12.9,12.5,3.1*39
$GPRMC,021627.948,A,5029.3815,N,10441.0384,W,0.200037,355.83,280706,,*1F
{"class":"TPV","tag":"RMC","mode":3,"time":"2006-07-28T02:16:27.948Z","ept":0.005,"lat":50.489691667,"lon":-104.683973333,"alt":568.800,"epx":32.645,"epy":34.721,"epv":71.300,"track":355.8300,"speed":0.103,"climb":-0.601,"eps":69.51}
$GPGGA,021628.948,5029.3828,N,10441.0382,W,1,05,2.0,567.6,M,-20.3,M,0.0,0000*45
$GPGLL,5029.3828,N,10441.0382,W,021628.948,A*2A
$GPGSA,A,3,28,11,26,29,27,,,,,,,,3.6,2.0,3.0*36
$GPRMC,021628.948,A,5029.3828,N,10441.0382,W,0.144151,5.63,280706,,*12
{"class":"TPV","tag":"RMC","mode":3,"time":"2006-07-28T02:16:28.948Z","ept":0.005,"lat":50.489713333,"lon":-104.683970000,"alt":567.600,"epx":32.645,"epy":34.721,"epv":71.300,"track":5.6300,"speed":0.074,"climb":-1.200,"eps":69.44}
$GPGGA,021629.948,5029.3826,N,10441.0381,W,1,05,2.0,567.0,M,-20.3,M,0.0,0000*4F
$GPGLL,5029.3826,N,10441.0381,W,021629.948,A*26
$GPGSA,A,3,28,11,26,29,27,,,,,,,,3.6,2.0,3.0*36
$GPGSV,3,1,9,8,48,156,0,17,50,212,0,28,82,37,37,11,38,84,36*74
$GPGSV,3,2,9,26,32,277,39,29,31,270,37,19,6,48,0,27,22,152,28*7F
$GPGSV,3,3,9,124,0,0,0*47
{"class":"SKY","tag":"GSV","xdop":2.18,"ydop":2.31,"vdop":3.00,"tdop":5.16,"hdop":2.00,"gdop":8.30,"pdop":3.60,"satellites":[{"PRN":8,"el":48,"az":156,"ss":0,"used":false},{"PRN":17,"el":50,"az":212,"ss":0,"used":false},{"PRN":28,"el":82,"az":37,"ss":37,"used":true},{"PRN":11,"el":38,"az":84,"ss":36,"used":true},{"PRN":26,"el":32,"az":277,"ss":39,"used":true},{"PRN":29,"el":31,"az":270,"ss":37,"used":true},{"PRN":19,"el":6,"az":48,"ss":0,"used":false},{"PRN":27,"el":22,"az":152,"ss":28,"used":true},{"PRN":124,"el":0,"az":0,"ss":0,"used":false}]}
$GPRMC,021629.948,A,5029.3826,N,10441.0381,W,0.066422,8.45,280706,,*17
{"class":"TPV","tag":"RMC","mode":3,"time":"2006-07-28T02:16:29.948Z","ept":0.005,"lat":50.489710000,"lon":-104.683968333,"alt":567.000,"epx":32.645,"epy":34.721,"epv":69.000,"track":8.4500,"speed":0.034,"climb":-0.600,"eps":69.44}
$GPGGA,021630.948,5029.3826,N,10441.0380,W,1,04,12.5,567.0,M,-20.3,M,0.0,0000*73
$GPGLL,5029.3826,N,10441.0380,W,021630.948,A*2F
$GPGSA,A,3,28,11,26,29,,,,,,,,,12.9,12.5,3.1*39
$GPRMC,021630.948,A,5029.3826,N,10441.0380,W,0.067726,5.22,280706,,*14
{"class":"TPV","tag":"RMC","mode":3,"time":"2006-07-28T02:16:30.948Z","ept":0.005,"lat":50.489710000,"lon":-104.683966667,"alt":567.000,"epx":32.645,"epy":34.721,"epv":69.000,"track":5.2200,"speed":0.035,"climb":0.000,"eps":69.44}
$GPGGA,021631.948,5029.3826,N,10441.0377,W,1,04,12.5,567.2,M,-20.3,M,0.0,0000*78
$GPGLL,5029.3826,N,10441.0377,W,021631.948,A*26
$GPGSA,A,3,28,11,26,29,,,,,,,,,12.9,12.5,3.1*39
$GPRMC,021631.948,A,5029.3826,N,10441.0377,W,0.050347,4.93,280706,,*11
{"class":"TPV","tag":"RMC","mode":3,"time":"2006-07-28T02:16:31.948Z","ept":0.005,"lat":50.489710000,"lon":-104.683961667,"alt":567.200,"epx":32.645,"epy":34.721,"epv":71.300,"track":4.9300,"speed":0.026,"climb":0.200,"eps":69.44}
$GPGGA,021632.948,5029.3826,N,10441.0370,W,1,05,2.0,567.2,M,-20.3,M,0.0,0000*49
$GPGLL,5029.3826,N,10441.0370,W,021632.948,A*22
$GPGSA,A,3,28,11,26,29,27,,,,,,,,3.6,2.0,3.0*36
$GPRMC,021632.948,A,5029.3826,N,10441.0370,W,0.033580,1.77,280706,,*12
{"class":"TPV","tag":"RMC","mode":3,"time":"2006-07-28T02:16:32.948Z","ept":0.005,"lat":50.489710000,"lon":-104.683950000,"alt":567.200,"epx":32.645,"epy":34.721,"epv":71.300,"track":1.7700,"speed":0.017,"climb":0.000,"eps":69.44}
$GPGGA,021633.948,5029.3826,N,10441.0370,W,1,04,12.5,566.9,M,-20.3,M,0.0,0000*77
$GPGLL,5029.3826,N,10441.0370,W,021633.948,A*23
$GPGSA,A,3,28,11,26,29,,,,,,,,,12.9,12.5,3.1*39
$GPRMC,021633.948,A,5029.3826,N,10441.0370,W,0.019509,345.64,280706,,*1B
{"class":"TPV","tag":"RMC","mode":3,"time":"2006-07-28T02:16:33.948Z","ept":0.005,"lat":50.489710000,"lon":-104.683950000,"alt":566.900,"epx":32.645,"epy":34.721,"epv":69.000,"track":345.6400,"speed":0.010,"climb":-0.300,"eps":69.44}
$GPGGA,021634.948,5029.3825,N,10441.0370,W,1,04,12.5,566.7,M,-20.3,M,0.0,0000*7D
$GPGLL,5029.3825,N,10441.0370,W,021634.948,A*27
$GPGSA,A,3,28,11,26,29,,,,,,,,,12.9,12.5,3.1*39
$GPGSV,3,1,9,8,48,156,0,17,50,212,0,28,82,37,37,11,38,84,36*74
$GPGSV,3,2,9,26,32,277,38,29,31,270,37,19,6,48,0,27,22,152,27*71
$GPGSV,3,3,9,124,0,0,0*47
{"class":"SKY","tag":"GSV","xdop":2.18,"ydop":2.31,"vdop":3.10,"tdop":5.16,"hdop":12.50,"gdop":8.30,"pdop":12.90,"satellites":[{"PRN":8,"el":48,"az":156,"ss":0,"used":false},{"PRN":17,"el":50,"az":212,"ss":0,"used":false},{"PRN":28,"el":82,"az":37,"ss":37,"used":true},{"PRN":11,"el":38,"az":84,"ss":36,"used":true},{"PRN":26,"el":32,"az":277,"ss":38,"used":true},{"PRN":29,"el":31,"az":270,"ss":37,"used":true},{"PRN":19,"el":6,"az":48,"ss":0,"used":false},{"PRN":27,"el":22,"az":152,"ss":27,"used":false},{"PRN":124,"el":0,"az":0,"ss":0,"used":false}]}
$GPRMC,021634.948,A,5029.3825,N,10441.0370,W,0.003955,192.84,280706,,*17
{"class":"TPV","tag":"RMC","mode":3,"time":"2006-07-28T02:16:34.948Z","ept":0.005,"lat":50.489708333,"lon":-104.683950000,"alt":566.700,"epx":32.645,"epy":34.721,"epv":71.300,"track":192.8400,"speed":0.002,"climb":-0.200,"eps":69.44}
$GPGGA,021635.948,5029.3825,N,10441.0370,W,1,04,12.5,566.4,M,-20.3,M,0.0,0000*7F
$GPGLL,5029.3825,N,10441.0370,W,021635.948,A*26
$GPGSA,A,3,28,11,26,29,,,,,,,,,12.9,12.5,3.1*39
$GPRMC,021635.948,A,5029.3825,N,10441.0370,W,0.095177,180.09,280706,,*17
{"class":"TPV","tag":"RMC","mode":3,"time":"2006-07-28T02:16:35.948Z","ept":0.005,"lat":50.489708333,"lon":-104.683950000,"alt":566.400,"epx":32.645,"epy":34.721,"epv":71.300,"track":180.0900,"speed":0.049,"climb":-0.300,"eps":69.44}
$GPGGA,021636.948,5029.3825,N,10441.0371,W,1,05,2.0,565.5,M,-20.3,M,0.0,0000*4A
$GPGLL,5029.3825,N,10441.0371,W,021636.948,A*24
$GPGSA,A,3,28,11,26,29,27,,,,,,,,3.6,2.0,3.0*36
$GPRMC,021636.948,A,5029.3825,N,10441.0371,W,0.023886,330.86,280706,,*11
{"class":"TPV","tag":"RMC","mode":3,"time":"2006-07-28T02:16:36.948Z","ept":0.005,"lat":50.489708333,"lon":-104.683951667,"alt":565.500,"epx":32.645,"epy":34.721,"epv":71.300,"track":330.8600,"speed":0.012,"climb":-0.900,"eps":69.44}
$GPGGA,021637.948,5029.3827,N,10441.0372,W,1,05,2.0,566.2,M,-20.3,M,0.0,0000*4E
$GPGLL,5029.3827,N,10441.0372,W,021637.948,A*24
$GPGSA,A,3,28,11,26,29,27,,,,,,,,3.6,2.0,3.0*36
$GPRMC,021637.948,A,5029.3827,N,10441.0372,W,0.061487,357.24,280706,,*13
{"class":"TPV","tag":"RMC","mode":3,"time":"2006-07-28T02:16:37.948Z","ept":0.005,"lat":50.489711667,"lon":-104.683953333,"alt":566.200,"epx":32.645,"epy":34.721,"epv":69.000,"track":357.2400,"speed":0.032,"climb":0.700,"eps":69.44}
$GPGGA,021638.948,5029.3824,N,10441.0374,W,1,05,2.0,566.2,M,-20.3,M,0.0,0000*44
$GPGLL,5029.3824,N,10441.0374,W,021638.948,A*2E
$GPGSA,A,3,28,11,26,29,27,,,,,,,,3.6,2.0,3.0*36
$GPRMC,021638.948,A,5029.3824,N,10441.0374,W,0.024092,262.30,280706,,*1A
{"class":"TPV","tag":"RMC","mode":3,"time":"2006-07-28T02:16:38.948Z","ept":0.005,"lat":50.489706667,"lon":-104.683956667,"alt":566.200,"epx":32.645,"epy":34.721,"epv":69.000,"track":262.3000,"speed":0.012,"climb":0.000,"eps":69.44}
$GPGGA,021639.948,5029.3825,N,10441.0375,W,1,05,2.0,565.6,M,-20.3,M,0.0,0000*42
$GPGLL,5029.3825,N,10441.0375,W,021639.948,A*2F
$GPGSA,A,3,28,11,26,29,27,,,,,,,,3.6,2.0,3.0*36
$GPGSV,3,1,9,8,48,156,0,17,50,212,0,28,82,37,37,11,38,84,36*74
$GPGSV,3,2,9,26,32,277,38,29,31,270,36,19,6,48,0,27,22,152,28*7F
$GPGSV,3,3,9,124,0,0,0*47
{"class":"SKY","tag":"GSV","xdop":2.18,"ydop":2.31,"vdop":3.00,"tdop":5.16,"hdop":2.00,"gdop":8.30,"pdop":3.60,"satellites":[{"PRN":8,"el":48,"az":156,"ss":0,"used":false},{"PRN":17,"el":50,"az":212,"ss":0,"used":false},{"PRN":28,"el":82,"az":37,"ss":37,"used":true},{"PRN":11,"el":38,"az":84,"ss":36,"used":true},{"PRN":26,"el":32,"az":277,"ss":38,"used":true},{"PRN":29,"el":31,"az":270,"ss":36,"used":true},{"PRN":19,"el":6,"az":48,"ss":0,"used":false},{"PRN":27,"el":22,"az":152,"ss":28,"used":true},{"PRN":124,"el":0,"az":0,"ss":0,"used":false}]}
$GPRMC,021639.948,A,5029.3825,N,10441.0375,W,0.024297,20.59,280706,,*27
{"class":"TPV","tag":"RMC","mode":3,"time":"2006-07-28T02:16:39.948Z","ept":0.005,"lat":50.489708333,"lon":-104.683958333,"alt":565.600,"epx":32.645,"epy":34.721,"epv":69.000,"track":20.5900,"speed":0.012,"climb":-0.600,"eps":69.44}
$GPGGA,021640.948,5029.3825,N,10441.0376,W,1,04,12.5,565.3,M,-20.3,M,0.0,0000*7F
$GPGLL,5029.3825,N,10441.0376,W,021640.948,A*22
$GPGSA,A,3,28,11,26,29,,,,,,,,,12.9,12.5,3.1*39
$GPRMC,021640.948,A,5029.3825,N,10441.0376,W,0.027357,327.53,280706,,*1A
{"class":"TPV","tag":"RMC","mode":3,"time":"2006-07-28T02:16:40.948Z","ept":0.005,"lat":50.489708333,"lon":-104.683960000,"alt":565.300,"epx":32.645,"epy":34.721,"epv":69.000,"track":327.5300,"speed":0.014,"climb":-0.300,"eps":69.44}
$GPGGA,021641.948,5029.3825,N,10441.0376,W,1,04,12.5,565.0,M,-20.3,M,0.0,0000*7D
$GPGLL,5029.3825,N,10441.0376,W,021641.948,A*23
$GPGSA,A,3,28,11,26,29,,,,,,,,,12.9,12.5,3.1*39
$GPRMC,021641.948,A,5029.3825,N,10441.0376,W,0.039535,27.78,280706,,*2C
{"class":"TPV","tag":"RMC","mode":3,"time":"2006-07-28T02:16:41.948Z","ept":0.005,"lat":50.489708333,"lon":-104.683960000,"alt":565.000,"epx":32.645,"epy":34.721,"epv":71.300,"track":27.7800,"speed":0.020,"climb":-0.300,"eps":69.44}
$GPGGA,021642.948,5029.3829,N,10441.0379,W,1,05,2.0,564.7,M,-20.3,M,0.0,0000*4E
$GPGLL,5029.3829,N,10441.0379,W,021642.948,A*23
$GPGSA,A,3,17,28,11,26,29,,,,,,,,3.5,2.0,2.8*3F
$GPRMC,021642.948,A,5029.3829,N,10441.0379,W,0.167129,0.94,280706,,*18
{"class":"TPV","tag":"RMC","mode":3,"time":"2006-07-28T02:16:42.948Z","ept":0.005,"lat":50.489715000,"lon":-104.683965000,"alt":564.700,"epx":32.645,"epy":34.721,"epv":71.300,"track":0.9400,"speed":0.086,"climb":-0.300,"eps":69.44}
$GPGGA,021643.947,5029.3837,N,10441.0381,W,1,05,2.0,563.6,M,-20.3,M,0.0,0000*4E
$GPGLL,5029.3837,N,10441.0381,W,021643.947,A*25
$GPGSA,A,3,17,28,11,26,29,,,,,,,,3.5,2.0,2.8*3F
$GPRMC,021643.947,A,5029.3837,N,10441.0381,W,0.234120,354.99,280706,,*1D
{"class":"TPV","tag":"RMC","mode":3,"time":"2006-07-28T02:16:43.947Z","ept":0.005,"lat":50.489728333,"lon":-104.683968333,"alt":563.600,"epx":32.645,"epy":34.721,"epv":64.400,"track":354.9900,"speed":0.120,"climb":-1.101,"eps":69.51}
$GPGGA,021644.947,5029.3844,N,10441.0383,W,1,05,2.0,562.5,M,-20.3,M,0.0,0000*4D
$GPGLL,5029.3844,N,10441.0383,W,021644.947,A*24
$GPGSA,A,3,17,28,11,26,29,,,,,,,,3.5,2.0,2.8*3F
$GPGSV,3,1,9,8,48,156,0,17,50,212,33,28,82,37,36,11,38,84,35*46
$GPGSV,3,2,9,26,32,277,37,29,31,270,36,19,6,48,0,27,22,152,25*7D
$GPGSV,3,3,9,124,0,0,0*47
{"class":"SKY","tag":"GSV","xdop":2.18,"ydop":2.31,"vdop":2.80,"tdop":5.16,"hdop":2.00,"gdop":8.30,"pdop":3.50,"satellites":[{"PRN":8,"el":48,"az":156,"ss":0,"used":false},{"PRN":17,"el":50,"az":212,"ss":33,"used":true},{"PRN":28,"el":82,"az":37,"ss":36,"used":true},{"PRN":11,"el":38,"az":84,"ss":35,"used":true},{"PRN":26,"el":32,"az":277,"ss":37,"used":true},{"PRN":29,"el":31,"az":270,"ss":36,"used":true},{"PRN":19,"el":6,"az":48,"ss":0,"used":false},{"PRN":27,"el":22,"az":152,"ss":25,"used":false},{"PRN":124,"el":0,"az":0,"ss":0,"used":false}]}
$GPRMC,021644.947,A,5029.3844,N,10441.0383,W,0.225686,357.97,280706,,*1A
{"class":"TPV","tag":"RMC","mode":3,"time":"2006-07-28T02:16:44.947Z","ept":0.005,"lat":50.489740000,"lon":-104.683971667,"alt":562.500,"epx":32.645,"epy":34.721,"epv":64.400,"track":357.9700,"speed":0.116,"climb":-1.100,"eps":69.44}
$GPGGA,021645.947,5029.3848,N,10441.0383,W,1,06,1.4,561.4,M,-20.3,M,0.0,0000*46
$GPGLL,5029.3848,N,10441.0383,W,021645.947,A*29
$GPGSA,A,3,17,28,11,26,29,27,,,,,,,2.7,1.4,2.3*35
$GPRMC,021645.947,A,5029.3848,N,10441.0383,W,0.073479,119.81,280706,,*1B
{"class":"TPV","tag":"RMC","mode":3,"time":"2006-07-28T02:16:45.947Z","ept":0.005,"lat":50.489746667,"lon":-104.683971667,"alt":561.400,"epx":32.645,"epy":34.721,"epv":64.400,"track":119.8100,"speed":0.038,"climb":-1.100,"eps":69.44}
$GPGGA,021646.947,5029.3851,N,10441.0382,W,1,05,2.0,561.1,M,-20.3,M,0.0,0000*4D
$GPGLL,5029.3851,N,10441.0382,W,021646.947,A*23
$GPGSA,A,3,17,28,11,26,29,,,,,,,,3.5,2.0,2.8*3F
$GPRMC,021646.947,A,5029.3851,N,10441.0382,W,0.079997,2.84,280706,,*18
{"class":"TPV","tag":"RMC","mode":3,"time":"2006-07-28T02:16:46.947Z","ept":0.005,"lat":50.489751667,"lon":-104.683970000,"alt":561.100,"epx":32.645,"epy":34.721,"epv":52.900,"track":2.8400,"speed":0.041,"climb":-0.300,"eps":69.44}
$GPGGA,021647.947,5029.3853,N,10441.0382,W,1,05,2.0,560.4,M,-20.3,M,0.0,0000*4A
$GPGLL,5029.3853,N,10441.0382,W,021647.947,A*20
$GPGSA,A,3,17,28,11,26,29,,,,,,,,3.5,2.0,2.8*3F
$GPRMC,021647.947,A,5029.3853,N,10441.0382,W,0.134821,345.50,280706,,*16
{"class":"TPV","tag":"RMC","mode":3,"time":"2006-07-28T02:16:47.947Z","ept":0.005,"lat":50.489755000,"lon":-104.683970000,"alt":560.400,"epx":32.645,"epy":34.721,"epv":64.400,"track":345.5000,"speed":0.069,"climb":-0.700,"eps":69.44}
$GPGGA,021648.947,5029.3855,N,10441.0380,W,1,05,2.0,560.0,M,-20.3,M,0.0,0000*45
$GPGLL,5029.3855,N,10441.0380,W,021648.947,A*2B
$GPGSA,A,3,17,28,11,26,29,,,,,,,,3.5,2.0,2.8*3F
$GPRMC,021648.947,A,5029.3855,N,10441.0380,W,0.135447,3.49,280706,,*19
{"class":"TPV","tag":"RMC","mode":3,"time":"2006-07-28T02:16:48.947Z","ept":0.005,"lat":50.489758333,"lon":-104.683966667,"alt":560.000,"epx":32.645,"epy":34.721,"epv":64.400,"track":3.4900,"speed":0.070,"climb":-0.400,"eps":69.44}
$GPGGA,021649.947,5029.3856,N,10441.0379,W,1,05,2.0,559.3,M,-20.3,M,0.0,0000*48
$GPGLL,5029.3856,N,10441.0379,W,021649.947,A*2F
$GPGSA,A,3,17,28,11,26,29,,,,,,,,3.5,2.0,2.8*3F
$GPGSV,3,1,9,8,48,156,0,17,50,212,34,28,82,39,35,11,38,84,33*4A
$GPGSV,3,2,9,26,32,277,37,29,31,269,34,19,6,48,0,27,22,152,28*7A
$GPGSV,3,3,9,124,0,0,0*47
{"class":"SKY","tag":"GSV","xdop":2.18,"ydop":2.31,"vdop":2.80,"tdop":5.16,"hdop":2.00,"gdop":8.30,"pdop":3.50,"satellites":[{"PRN":8,"el":48,"az":156,"ss":0,"used":false},{"PRN":17,"el":50,"az":212,"ss":34,"used":true},{"PRN":28,"el":82,"az":39,"ss":35,"used":true},{"PRN":11,"el":38,"az":84,"ss":33,"used":true},{"PRN":26,"el":32,"az":277,"ss":37,"used":true},{"PRN":29,"el":31,"az":269,"ss":34,"used":true},{"PRN":19,"el":6,"az":48,"ss":0,"used":false},{"PRN":27,"el":22,"az":152,"ss":28,"used":false},{"PRN":124,"el":0,"az":0,"ss":0,"used":false}]}
$GPRMC,021649.947,A,5029.3856,N,10441.0379,W,0.118754,16.61,280706,,*2D
{"class":"TPV","tag":"RMC","mode":3,"time":"2006-07-28T02:16:49.947Z","ept":0.005,"lat":50.489760000,"lon":-104.683965000,"alt":559.300,"epx":32.645,"epy":34.721,"epv":64.400,"track":16.6100,"speed":0.061,"climb":-0.700,"eps":69.44}
$GPGGA,021650.947,5029.3857,N,10441.0380,W,1,05,2.0,559.1,M,-20.3,M,0.0,0000*45
$GPGLL,5029.3857,N,10441.0380,W,021650.947,A*20
$GPGSA,A,3,17,28,11,26,29,,,,,,,,3.5,2.0,2.8*3F
$GPRMC,021650.947,A,5029.3857,N,10441.0380,W,0.122534,2.49,280706,,*10
{"class":"TPV","tag":"RMC","mode":3,"time":"2006-07-28T02:16:50.947Z","ept":0.005,"lat":50.489761667,"lon":-104.683966667,"alt":559.100,"epx":32.645,"epy":34.721,"epv":64.400,"track":2.4900,"speed":0.063,"climb":-0.200,"eps":69.44}
$GPGGA,021651.947,5029.3856,N,10441.0382,W,1,05,2.0,559.4,M,-20.3,M,0.0,0000*42
$GPGLL,5029.3856,N,10441.0382,W,021651.947,A*22
$GPGSA,A,3,17,28,11,26,29,,,,,,,,3.5,2.0,2.8*3F
$GPRMC,021651.947,A,5029.3856,N,10441.0382,W,0.117097,1.44,280706,,*16
{"class":"TPV","tag":"RMC","mode":3,"time":"2006-07-28T02:16:51.947Z","ept":0.005,"lat":50.489760000,"lon":-104.683970000,"alt":559.400,"epx":32.645,"epy":34.721,"epv":64.400,"track":1.4400,"speed":0.060,"climb":0.300,"eps":69.44}
$GPGGA,021652.947,5029.3856,N,10441.0383,W,1,05,2.0,559.6,M,-20.3,M,0.0,0000*42
$GPGLL,5029.3856,N,10441.0383,W,021652.947,A*20
$GPGSA,A,3,17,28,11,26,29,,,,,,,,3.5,2.0,2.8*3F
$GPRMC,021652.947,A,5029.3856,N,10441.0383,W,0.110183,9.39,280706,,*15
{"class":"TPV","tag":"RMC","mode":3,"time":"2006-07-28T02:16:52.947Z","ept":0.005,"lat":50.489760000,"lon":-104.683971667,"alt":559.600,"epx":32.645,"epy":34.721,"epv":64.400,"track":9.3900,"speed":0.057,"climb":0.200,"eps":69.44}
$GPGGA,021653.947,5029.3855,N,10441.0382,W,1,05,2.0,559.4,M,-20.3,M,0.0,0000*43
$GPGLL,5029.3855,N,10441.0382,W,021653.947,A*23
$GPGSA,A,3,17,28,11,26,29,,,,,,,,3.5,2.0,2.8*3F
$GPRMC,021653.947,A,5029.3855,N,10441.0382,W,0.104481,9.00,280706,,*1E
{"class":"TPV","tag":"RMC","mode":3,"time":"2006-07-28T02:16:53.947Z","ept":0.005,"lat":50.489758333,"lon":-104.683970000,"alt":559.400,"epx":32.645,"epy":34.721,"epv":64.400,"track":9.0000,"speed":0.054,"climb":-0.200,"eps":69.44}
$GPGGA,021654.947,5029.3855,N,10441.0381,W,1,05,2.0,559.5,M,-20.3,M,0.0,0000*46
$GPGLL,5029.3855,N,10441.0381,W,021654.947,A*27
$GPGSA,A,3,17,28,11,26,29,,,,,,,,3.5,2.0,2.8*3F
$GPGSV,3,1,9,8,48,156,0,17,50,212,34,28,82,39,36,11,38,84,33*49
$GPGSV,3,2,9,26,32,277,37,29,31,269,34,19,6,48,0,27,22,152,0*40
$GPGSV,3,3,9,124,0,0,0*47
{"class":"SKY","tag":"GSV","xdop":2.18,"ydop":2.31,"vdop":2.80,"tdop":5.16,"hdop":2.00,"gdop":8.30,"pdop":3.50,"satellites":[{"PRN":8,"el":48,"az":156,"ss":0,"used":false},{"PRN":17,"el":50,"az":212,"ss":34,"used":true},{"PRN":28,"el":82,"az":39,"ss":36,"used":true},{"PRN":11,"el":38,"az":84,"ss":33,"used":true},{"PRN":26,"el":32,"az":277,"ss":37,"used":true},{"PRN":29,"el":31,"az":269,"ss":34,"used":true},{"PRN":19,"el":6,"az":48,"ss":0,"used":false},{"PRN":27,"el":22,"az":152,"ss":0,"used":false},{"PRN":124,"el":0,"az":0,"ss":0,"used":false}]}
$GPRMC,021654.947,A,5029.3855,N,10441.0381,W,0.142516,3.80,280706,,*15
{"class":"TPV","tag":"RMC","mode":3,"time":"2006-07-28T02:16:54.947Z","ept":0.005,"lat":50.489758333,"lon":-104.683968333,"alt":559.500,"epx":32.645,"epy":34.721,"epv":64.400,"track":3.8000,"speed":0.073,"climb":0.100,"eps":69.44}
$GPGGA,021655.947,5029.3855,N,10441.0381,W,1,05,2.0,559.8,M,-20.3,M,0.0,0000*4A
$GPGLL,5029.3855,N,10441.0381,W,021655.947,A*26
$GPGSA,A,3,17,28,11,26,29,,,,,,,,3.5,2.0,2.8*3F
$GPRMC,021655.947,A,5029.3855,N,10441.0381,W,0.120701,358.47,280706,,*12
{"class":"TPV","tag":"RMC","mode":3,"time":"2006-07-28T02:16:55.947Z","ept":0.005,"lat":50.489758333,"lon":-104.683968333,"alt":559.800,"epx":32.645,"epy":34.721,"epv":64.400,"track":358.4700,"speed":0.062,"climb":0.300,"eps":69.44}
$GPGGA,021656.947,5029.3855,N,10441.0379,W,1,06,1.4,559.8,M,-20.3,M,0.0,0000*4A
$GPGLL,5029.3855,N,10441.0379,W,021656.947,A*22
$GPGSA,A,3,17,28,11,26,29,27,,,,,,,2.7,1.4,2.3*35
$GPRMC,021656.947,A,5029.3855,N,10441.0379,W,0.094143,14.12,280706,,*23
{"class":"TPV","tag":"RMC","mode":3,"time":"2006-07-28T02:16:56.947Z","ept":0.005,"lat":50.489758333,"lon":-104.683965000,"alt":559.800,"epx":32.645,"epy":34.721,"epv":64.400,"track":14.1200,"speed":0.048,"climb":0.000,"eps":69.44}
$GPGGA,021657.947,5029.3855,N,10441.0378,W,1,06,1.4,559.8,M,-20.3,M,0.0,0000*4A
$GPGLL,5029.3855,N,10441.0378,W,021657.947,A*22
$GPGSA,A,3,17,28,11,26,29,27,,,,,,,2.7,1.4,2.3*35
$GPRMC,021657.947,A,5029.3855,N,10441.0378,W,0.096695,9.89,280706,,*13
{"class":"TPV","tag":"RMC","mode":3,"time":"2006-07-28T02:16:57.947Z","ept":0.005,"lat":50.489758333,"lon":-104.683963333,"alt":559.800,"epx":32.645,"epy":34.721,"epv":52.900,"track":9.8900,"speed":0.050,"climb":0.000,"eps":69.44}
$GPGGA,021658.947,5029.3855,N,10441.0378,W,1,05,2.0,560.0,M,-20.3,M,0.0,0000*43
$GPGLL,5029.3855,N,10441.0378,W,021658.947,A*2D
$GPGSA,A,3,17,28,11,26,29,,,,,,,,3.5,2.0,2.8*3F
$GPRMC,021658.947,A,5029.3855,N,10441.0378,W,0.111024,0.77,280706,,*16
{"class":"TPV","tag":"RMC","mode":3,"time":"2006-07-28T02:16:58.947Z","ept":0.005,"lat":50.489758333,"lon":-104.683963333,"alt":560.000,"epx":32.645,"epy":34.721,"epv":52.900,"track":0.7700,"speed":0.057,"climb":0.200,"eps":69.44}
$GPGGA,021659.946,5029.3855,N,10441.0376,W,1,05,2.0,559.8,M,-20.3,M,0.0,0000*4F
$GPGLL,5029.3855,N,10441.0376,W,021659.946,A*23
$GPGSA,A,3,17,28,11,26,29,,,,,,,,3.5,2.0,2.8*3F
$GPGSV,3,1,9,8,48,156,0,17,50,212,33,28,82,39,36,11,38,84,32*4F
$GPGSV,3,2,9,26,32,277,36,29,31,269,34,19,6,48,0,27,22,152,27*74
$GPGSV,3,3,9,124,0,0,0*47
{"class":"SKY","tag":"GSV","xdop":2.18,"ydop":2.31,"vdop":2.80,"tdop":5.16,"hdop":2.00,"gdop":8.30,"pdop":3.50,"satellites":[{"PRN":8,"el":48,"az":156,"ss":0,"used":false},{"PRN":17,"el":50,"az":212,"ss":33,"used":true},{"PRN":28,"el":82,"az":39,"ss":36,"used":true},{"PRN":11,"el":38,"az":84,"ss":32,"used":true},{"PRN":26,"el":32,"az":277,"ss":36,"used":true},{"PRN":29,"el":31,"az":269,"ss":34,"used":true},{"PRN":19,"el":6,"az":48,"ss":0,"used":false},{"PRN":27,"el":22,"az":152,"ss":27,"used":false},{"PRN":124,"el":0,"az":0,"ss":0,"used":false}]}
$GPRMC,021659.946,A,5029.3855,N,10441.0376,W,0.144243,359.38,280706,,*1F
{"class":"TPV","tag":"RMC","mode":3,"time":"2006-07-28T02:16:59.946Z","ept":0.005,"lat":50.489758333,"lon":-104.683960000,"alt":559.800,"epx":32.645,"epy":34.721,"epv":64.400,"track":359.3800,"speed":0.074,"climb":-0.200,"eps":69.51}
$GPGGA,021700.946,5029.3856,N,10441.0373,W,1,05,2.0,559.4,M,-20.3,M,0.0,0000*48
$GPGLL,5029.3856,N,10441.0373,W,021700.946,A*28
$GPGSA,A,3,17,28,11,26,29,,,,,,,,3.5,2.0,2.8*3F
$GPRMC,021700.946,A,5029.3856,N,10441.0373,W,0.127513,359.47,280706,,*1B
{"class":"TPV","tag":"RMC","mode":3,"time":"2006-07-28T02:17:00.946Z","ept":0.005,"lat":50.489760000,"lon":-104.683955000,"alt":559.400,"epx":32.645,"epy":34.721,"epv":64.400,"track":359.4700,"speed":0.066,"climb":-0.400,"eps":69.44}
$GPGGA,021701.946,5029.3856,N,10441.0369,W,1,05,2.0,558.6,M,-20.3,M,0.0,0000*41
$GPGLL,5029.3856,N,10441.0369,W,021701.946,A*22
$GPGSA,A,3,17,28,11,26,29,,,,,,,,3.5,2.0,2.8*3F
$GPRMC,021701.946,A,5029.3856,N,10441.0369,W,0.082985,16.78,280706,,*28
{"class":"TPV","tag":"RMC","mode":3,"time":"2006-07-28T02:17:01.946Z","ept":0.005,"lat":50.489760000,"lon":-104.683948333,"alt":558.600,"epx":32.645,"epy":34.721,"epv":64.400,"track":16.7800,"speed":0.043,"climb":-0.800,"eps":69.44}
$GPGGA,021702.946,5029.3856,N,10441.0365,W,1,05,2.0,557.8,M,-20.3,M,0.0,0000*4F
$GPGLL,5029.3856,N,10441.0365,W,021702.946,A*2D
$GPGSA,A,3,17,28,11,26,29,,,,,,,,3.5,2.0,2.8*3F
$GPRMC,021702.946,A,5029.3856,N,10441.0365,W,0.108057,8.59,280706,,*1E
{"class":"TPV","tag":"RMC","mode":3,"time":"2006-07-28T02:17:02.946Z","ept":0.005,"lat":50.489760000,"lon":-104.683941667,"alt":557.800,"epx":32.645,"epy":34.721,"epv":64.400,"track":8.5900,"speed":0.056,"climb":-0.800,"eps":69.44}
$GPGGA,021703.946,5029.3857,N,10441.0363,W,1,05,2.0,556.8,M,-20.3,M,0.0,0000*48
$GPGLL,5029.3857,N,10441.0363,W,021703.946,A*2B
$GPGSA,A,3,17,28,11,26,29,,,,,,,,3.5,2.0,2.8*3F
$GPRMC,021703.946,A,5029.3857,N,10441.0363,W,0.193741,10.55,280706,,*2F
{"class":"TPV","tag":"RMC","mode":3,"time":"2006-07-28T02:17:03.946Z","ept":0.005,"lat":50.489761667,"lon":-104.683938333,"alt":556.800,"epx":32.645,"epy":34.721,"epv":64.400,"track":10.5500,"speed":0.100,"climb":-1.000,"eps":69.44}
$GPGGA,021704.946,5029.3858,N,10441.0363,W,1,07,1.3,556.0,M,-20.3,M,0.0,0000*4A
$GPGLL,5029.3858,N,10441.0363,W,021704.946,A*23
$GPGSA,A,3,08,17,28,11,26,29,27,,,,,,2.5,1.3,2.1*3A
$GPGSV,3,1,9,8,48,156,31,17,50,212,32,28,82,39,39,11,38,84,33*72
$GPGSV,3,2,9,26,32,277,37,29,31,269,34,19,6,48,0,27,22,152,30*73
$GPGSV,3,3,9,124,0,0,0*47
{"class":"SKY","tag":"GSV","xdop":2.18,"ydop":2.31,"vdop":2.10,"tdop":5.16,"hdop":1.30,"gdop":8.30,"pdop":2.50,"satellites":[{"PRN":8,"el":48,"az":156,"ss":31,"used":true},{"PRN":17,"el":50,"az":212,"ss":32,"used":true},{"PRN":28,"el":82,"az":39,"ss":39,"used":true},{"PRN":11,"el":38,"az":84,"ss":33,"used":true},{"PRN":26,"el":32,"az":277,"ss":37,"used":true},{"PRN":29,"el":31,"az":269,"ss":34,"used":true},{"PRN":19,"el":6,"az":48,"ss":0,"used":false},{"PRN":27,"el":22,"az":152,"ss":30,"used":true},{"PRN":124,"el":0,"az":0,"ss":0,"used":false}]}
$GPRMC,021704.946,A,5029.3858,N,10441.0363,W,0.096613,335.19,280706,,*19
{"class":"TPV","tag":"RMC","mode":3,"time":"2006-07-28T02:17:04.946Z","ept":0.005,"lat":50.489763333,"lon":-104.683938333,"alt":556.000,"epx":32.645,"epy":34.721,"epv":64.400,"track":335.1900,"speed":0.050,"climb":-0.800,"eps":69.44}
$GPGGA,021705.946,5029.3859,N,10441.0363,W,1,07,1.3,555.4,M,-20.3,M,0.0,0000*4D
$GPGLL,5029.3859,N,10441.0363,W,021705.946,A*23
$GPGSA,A,3,08,17,28,11,26,29,27,,,,,,2.5,1.3,2.1*3A
$GPRMC,021705.946,A,5029.3859,N,10441.0363,W,0.061763,22.98,280706,,*2B
{"class":"TPV","tag":"RMC","mode":3,"time":"2006-07-28T02:17:05.946Z","ept":0.005,"lat":50.489765000,"lon":-104.683938333,"alt":555.400,"epx":32.645,"epy":34.721,"epv":48.300,"track":22.9800,"speed":0.032,"climb":-0.600,"eps":69.44}
$GPGGA,021706.946,5029.3860,N,10441.0364,W,1,07,1.3,554.9,M,-20.3,M,0.0,0000*4F
$GPGLL,5029.3860,N,10441.0364,W,021706.946,A*2D
$GPGSA,A,3,08,17,28,11,26,29,27,,,,,,2.5,1.3,2.1*3A
