# Name: Holux GPSlim 236
# Chipset: SiRF-III
# Submitter:  "Kévin REDON" <kevredon@gmail.com>
# Date: 2006-07-22
#
# This file is Copyright (c) 2010 by the GPSD project
# BSD terms apply: see the file COPYING in the distribution root for details.
#
$GPGGA,185244.000,4854.2575,N,00219.9816,E,1,05,1.7,124.4,M,47.3,M,,0000*56
$GPGSA,A,3,14,01,30,06,09,,,,,,,,2.8,1.7,2.2*36
$GPGSV,3,1,11,30,79,308,20,05,54,079,16,06,43,204,29,14,39,247,41*75
$GPGSV,3,2,11,01,31,303,31,02,28,077,20,25,17,309,,09,17,138,25*7A
$GPGSV,3,3,11,04,14,040,,24,02,020,,20,00,342,*4D
$GPRMC,185244.000,A,4854.2575,N,00219.9816,E,0.00,296.61,210706,,,A*6C
$GPVTG,296.61,T,,M,0.00,N,0.0,K,A*07
$GPGGA,185245.000,4854.2575,N,00219.9815,E,1,05,1.7,124.1,M,47.3,M,,0000*51
$GPRMC,185245.000,A,4854.2575,N,00219.9815,E,0.00,296.61,210706,,,A*6E
$GPVTG,296.61,T,,M,0.00,N,0.0,K,A*07
$GPGGA,185246.000,4854.2575,N,00219.9814,E,1,05,1.7,124.0,M,47.3,M,,0000*52
$GPRMC,185246.000,A,4854.2575,N,00219.9814,E,0.00,296.61,210706,,,A*6C
$GPVTG,296.61,T,,M,0.00,N,0.0,K,A*07
$GPGGA,185247.000,4854.2575,N,00219.9814,E,1,05,1.7,124.3,M,47.3,M,,0000*50
$GPRMC,185247.000,A,4854.2575,N,00219.9814,E,0.00,296.61,210706,,,A*6D
$GPVTG,296.61,T,,M,0.00,N,0.0,K,A*07
$GPGGA,185248.000,4854.2574,N,00219.9812,E,1,05,1.7,123.6,M,47.3,M,,0000*5A
$GPRMC,185248.000,A,4854.2574,N,00219.9812,E,0.00,296.61,210706,,,A*65
$GPVTG,296.61,T,,M,0.00,N,0.0,K,A*07
$GPGGA,185249.000,4854.2572,N,00219.9810,E,1,05,1.7,123.0,M,47.3,M,,0000*59
$GPGSA,A,3,14,01,30,06,09,,,,,,,,2.8,1.7,2.2*36
$GPGSV,3,1,11,30,79,308,22,05,54,079,16,06,43,204,28,14,39,247,41*76
$GPGSV,3,2,11,01,31,303,31,02,28,077,21,25,17,309,07,09,17,138,25*7C
$GPGSV,3,3,11,04,14,040,15,24,02,020,17,20,00,342,13*4D
$GPRMC,185249.000,A,4854.2572,N,00219.9810,E,0.00,296.61,210706,,,A*60
$GPVTG,296.61,T,,M,0.00,N,0.0,K,A*07
$GPGGA,185250.000,4854.2571,N,00219.9807,E,1,05,1.7,122.0,M,47.3,M,,0000*55
$GPRMC,185250.000,A,4854.2571,N,00219.9807,E,0.00,296.61,210706,,,A*6D
$GPVTG,296.61,T,,M,0.00,N,0.0,K,A*07
$GPGGA,185251.000,4854.2570,N,00219.9806,E,1,05,1.7,121.8,M,47.3,M,,0000*5F
$GPRMC,185251.000,A,4854.2570,N,00219.9806,E,0.00,296.61,210706,,,A*6C
$GPVTG,296.61,T,,M,0.00,N,0.0,K,A*07
$GPGGA,185252.000,4854.2569,N,00219.9804,E,1,05,1.7,121.2,M,47.3,M,,0000*5C
$GPRMC,185252.000,A,4854.2569,N,00219.9804,E,0.00,296.61,210706,,,A*65
$GPVTG,296.61,T,,M,0.00,N,0.0,K,A*07
$GPGGA,185253.000,4854.2569,N,00219.9803,E,1,05,1.7,121.1,M,47.3,M,,0000*59
$GPRMC,185253.000,A,4854.2569,N,00219.9803,E,0.00,296.61,210706,,,A*63
$GPVTG,296.61,T,,M,0.00,N,0.0,K,A*07
$GPGGA,185254.000,4854.2565,N,00219.9796,E,1,05,1.7,118.1,M,47.3,M,,0000*5B
$GPGSA,A,3,14,01,30,06,09,,,,,,,,2.8,1.7,2.2*36
$GPGSV,3,1,11,30,79,308,23,05,54,079,17,06,43,204,28,14,39,247,40*77
$GPGSV,3,2,11,01,31,303,31,02,28,077,20,25,17,309,11,09,17,138,25*7A
$GPGSV,3,3,11,04,14,040,08,24,02,020,11,20,00,342,*45
$GPRMC,185254.000,A,4854.2565,N,00219.9796,E,0.00,296.61,210706,,,A*6B
$GPVTG,296.61,T,,M,0.00,N,0.0,K,A*07
$GPGGA,185255.000,4854.2562,N,00219.9788,E,1,05,1.7,115.0,M,47.3,M,,0000*5E
$GPRMC,185255.000,A,4854.2562,N,00219.9788,E,0.00,296.61,210706,,,A*62
$GPVTG,296.61,T,,M,0.00,N,0.0,K,A*07
$GPGGA,185256.000,4854.2559,N,00219.9783,E,1,05,1.7,113.0,M,47.3,M,,0000*58
$GPRMC,185256.000,A,4854.2559,N,00219.9783,E,0.00,296.61,210706,,,A*62
$GPVTG,296.61,T,,M,0.00,N,0.0,K,A*07
$GPGGA,185257.000,4854.2556,N,00219.9777,E,1,05,1.7,110.4,M,47.3,M,,0000*5A
$GPRMC,185257.000,A,4854.2556,N,00219.9777,E,0.00,296.61,210706,,,A*67
$GPVTG,296.61,T,,M,0.00,N,0.0,K,A*07
$GPGGA,185258.000,4854.2554,N,00219.9772,E,1,05,1.7,108.4,M,47.3,M,,0000*5B
$GPRMC,185258.000,A,4854.2554,N,00219.9772,E,0.00,296.61,210706,,,A*6F
$GPVTG,296.61,T,,M,0.00,N,0.0,K,A*07
$GPGGA,185259.000,4854.2550,N,00219.9764,E,1,05,1.7,105.3,M,47.3,M,,0000*53
$GPGSA,A,3,14,01,30,06,09,,,,,,,,2.8,1.7,2.2*36
$GPGSV,3,1,11,30,79,308,24,05,54,079,17,06,43,204,29,14,39,247,40*71
$GPGSV,3,2,11,01,31,303,31,02,28,077,13,25,17,309,10,09,17,138,25*7B
$GPGSV,3,3,11,04,14,040,10,24,02,020,18,20,00,342,09*4C
$GPRMC,185259.000,A,4854.2550,N,00219.9764,E,0.00,296.61,210706,,,A*6D
$GPVTG,296.61,T,,M,0.00,N,0.0,K,A*07
$GPGGA,185300.000,4854.2547,N,00219.9759,E,1,05,1.7,103.6,M,47.3,M,,0000*55
$GPRMC,185300.000,A,4854.2547,N,00219.9759,E,0.00,296.61,210706,,,A*68
$GPVTG,296.61,T,,M,0.00,N,0.0,K,A*07
$GPGGA,185301.000,4854.2545,N,00219.9754,E,1,05,1.7,101.5,M,47.3,M,,0000*5A
$GPRMC,185301.000,A,4854.2545,N,00219.9754,E,0.00,296.61,210706,,,A*66
$GPVTG,296.61,T,,M,0.00,N,0.0,K,A*07
$GPGGA,185302.000,4854.2543,N,00219.9751,E,1,05,1.7,100.1,M,47.3,M,,0000*5F
$GPRMC,185302.000,A,4854.2543,N,00219.9751,E,0.00,296.61,210706,,,A*66
$GPVTG,296.61,T,,M,0.00,N,0.0,K,A*07
$GPGGA,185303.000,4854.2543,N,00219.9750,E,1,05,1.7,99.5,M,47.3,M,,0000*6A
$GPRMC,185303.000,A,4854.2543,N,00219.9750,E,0.00,296.61,210706,,,A*66
$GPVTG,296.61,T,,M,0.00,N,0.0,K,A*07
$GPGGA,185304.000,4854.2543,N,00219.9749,E,1,05,1.7,99.3,M,47.3,M,,0000*63
$GPGSA,A,3,14,01,30,06,09,,,,,,,,2.8,1.7,2.2*36
$GPGSV,3,1,11,30,79,308,24,05,54,079,18,06,43,204,31,14,39,247,40*77
$GPGSV,3,2,11,01,31,303,31,02,28,077,11,25,17,309,13,09,17,138,24*7B
$GPGSV,3,3,11,04,14,040,10,24,02,020,07,20,00,342,12*48
$GPRMC,185304.000,A,4854.2543,N,00219.9749,E,0.00,296.61,210706,,,A*69
$GPVTG,296.61,T,,M,0.00,N,0.0,K,A*07
$GPGGA,185305.000,4854.2542,N,00219.9749,E,1,05,1.7,99.0,M,47.3,M,,0000*60
$GPRMC,185305.000,A,4854.2542,N,00219.9749,E,0.00,296.61,210706,,,A*69
$GPVTG,296.61,T,,M,0.00,N,0.0,K,A*07
$GPGGA,185306.000,4854.2543,N,00219.9751,E,1,05,1.7,99.2,M,47.3,M,,0000*69
$GPRMC,185306.000,A,4854.2543,N,00219.9751,E,0.00,296.61,210706,,,A*62
$GPVTG,296.61,T,,M,0.00,N,0.0,K,A*07
$GPGGA,185307.000,4854.2542,N,00219.9749,E,1,05,1.7,98.8,M,47.3,M,,0000*6B
$GPRMC,185307.000,A,4854.2542,N,00219.9749,E,0.00,296.61,210706,,,A*6B
$GPVTG,296.61,T,,M,0.00,N,0.0,K,A*07
$GPGGA,185308.000,4854.2542,N,00219.9746,E,1,05,1.7,98.8,M,47.3,M,,0000*6B
$GPRMC,185308.000,A,4854.2542,N,00219.9746,E,1.05,277.83,210706,,,A*6C
$GPVTG,277.83,T,,M,1.05,N,1.9,K,A*08
$GPGGA,185309.000,4854.2542,N,00219.9744,E,1,05,1.7,98.4,M,47.3,M,,0000*64
$GPGSA,A,3,14,01,30,06,09,,,,,,,,2.8,1.7,2.2*36
$GPGSV,3,1,11,30,79,308,23,05,54,079,18,06,43,204,32,14,39,247,40*73
$GPGSV,3,2,11,01,31,303,31,02,28,077,15,25,17,309,11,09,17,138,24*7D
$GPGSV,3,3,11,04,14,040,,24,02,020,,20,00,342,11*4D
$GPRMC,185309.000,A,4854.2542,N,00219.9744,E,0.00,277.83,210706,,,A*6B
$GPVTG,277.83,T,,M,0.00,N,0.0,K,A*04
$GPGGA,185310.000,4854.2540,N,00219.9743,E,1,05,1.7,97.3,M,47.3,M,,0000*61
$GPRMC,185310.000,A,4854.2540,N,00219.9743,E,0.00,277.83,210706,,,A*66
$GPVTG,277.83,T,,M,0.00,N,0.0,K,A*04
$GPGGA,185311.000,4854.2541,N,00219.9746,E,1,05,1.7,97.3,M,47.3,M,,0000*64
$GPRMC,185311.000,A,4854.2541,N,00219.9746,E,0.00,277.83,210706,,,A*63
$GPVTG,277.83,T,,M,0.00,N,0.0,K,A*04
$GPGGA,185312.000,4854.2542,N,00219.9750,E,1,05,1.7,97.9,M,47.3,M,,0000*69
$GPRMC,185312.000,A,4854.2542,N,00219.9750,E,0.00,277.83,210706,,,A*64
$GPVTG,277.83,T,,M,0.00,N,0.0,K,A*04
$GPGGA,185313.000,4854.2542,N,00219.9753,E,1,05,1.7,98.4,M,47.3,M,,0000*69
$GPRMC,185313.000,A,4854.2542,N,00219.9753,E,0.00,277.83,210706,,,A*66
$GPVTG,277.83,T,,M,0.00,N,0.0,K,A*04
$GPGGA,185314.000,4854.2542,N,00219.9750,E,1,05,1.7,98.5,M,47.3,M,,0000*6C
$GPGSA,A,3,14,01,30,06,09,,,,,,,,2.8,1.7,2.2*36
$GPGSV,3,1,11,30,79,308,22,05,54,079,19,06,43,204,33,14,39,247,40*72
$GPGSV,3,2,11,01,31,303,30,02,28,077,,25,17,309,08,09,17,138,23*77
$GPGSV,3,3,11,04,14,040,14,24,02,020,09,20,00,342,08*49
$GPRMC,185314.000,A,4854.2542,N,00219.9750,E,1.06,270.56,210706,,,A*6A
$GPVTG,270.56,T,,M,1.06,N,2.0,K,A*0E
$GPGGA,185315.000,4854.2543,N,00219.9748,E,1,05,1.7,99.0,M,47.3,M,,0000*61
$GPRMC,185315.000,A,4854.2543,N,00219.9748,E,0.00,270.56,210706,,,A*64
$GPVTG,270.56,T,,M,0.00,N,0.0,K,A*0B
$GPGGA,185316.000,4854.2544,N,00219.9751,E,1,05,1.7,99.1,M,47.3,M,,0000*6C
$GPRMC,185316.000,A,4854.2544,N,00219.9751,E,0.00,270.56,210706,,,A*68
$GPVTG,270.56,T,,M,0.00,N,0.0,K,A*0B
$GPGGA,185317.000,4854.2546,N,00219.9759,E,1,05,1.7,100.3,M,47.3,M,,0000*54
$GPRMC,185317.000,A,4854.2546,N,00219.9759,E,0.00,270.56,210706,,,A*63
$GPVTG,270.56,T,,M,0.00,N,0.0,K,A*0B
$GPGGA,185318.000,4854.2547,N,00219.9762,E,1,05,1.7,101.1,M,47.3,M,,0000*51
$GPRMC,185318.000,A,4854.2547,N,00219.9762,E,0.00,270.56,210706,,,A*65
$GPVTG,270.56,T,,M,0.00,N,0.0,K,A*0B
$GPGGA,185319.000,4854.2546,N,00219.9758,E,1,05,1.7,100.3,M,47.3,M,,0000*5B
$GPGSA,A,3,14,01,30,06,09,,,,,,,,2.7,1.7,2.2*39
$GPGSV,3,1,11,30,79,308,21,05,54,079,19,06,43,204,34,14,39,247,40*76
$GPGSV,3,2,11,01,31,303,30,02,28,077,,25,17,309,14,09,17,138,23*7A
$GPGSV,3,3,11,04,14,040,10,24,02,020,09,20,00,342,12*46
$GPRMC,185319.000,A,4854.2546,N,00219.9758,E,0.00,270.56,210706,,,A*6C
$GPVTG,270.56,T,,M,0.00,N,0.0,K,A*0B
$GPGGA,185320.000,4854.2545,N,00219.9757,E,1,05,1.7,99.8,M,47.3,M,,0000*67
$GPRMC,185320.000,A,4854.2545,N,00219.9757,E,0.00,270.56,210706,,,A*6A
$GPVTG,270.56,T,,M,0.00,N,0.0,K,A*0B
$GPGGA,185321.000,4854.2544,N,00219.9753,E,1,05,1.7,99.1,M,47.3,M,,0000*6A
$GPRMC,185321.000,A,4854.2544,N,00219.9753,E,1.28,261.85,210706,,,A*6B
$GPVTG,261.85,T,,M,1.28,N,2.4,K,A*08
$GPGGA,185322.000,4854.2544,N,00219.9752,E,1,05,1.7,99.4,M,47.3,M,,0000*6D
$GPRMC,185322.000,A,4854.2544,N,00219.9752,E,0.00,261.85,210706,,,A*62
$GPVTG,261.85,T,,M,0.00,N,0.0,K,A*05
$GPGGA,185323.000,4854.2544,N,00219.9753,E,1,05,1.7,99.5,M,47.3,M,,0000*6C
$GPRMC,185323.000,A,4854.2544,N,00219.9753,E,0.00,261.85,210706,,,A*62
$GPVTG,261.85,T,,M,0.00,N,0.0,K,A*05
$GPGGA,185324.000,4854.2545,N,00219.9754,E,1,05,1.7,99.5,M,47.3,M,,0000*6D
$GPGSA,A,3,14,01,30,06,09,,,,,,,,2.7,1.7,2.2*39
$GPGSV,3,1,11,30,79,308,20,05,54,079,18,06,43,204,35,14,39,247,40*77
$GPGSV,3,2,11,01,31,303,30,02,28,077,,25,17,309,11,09,17,138,22*7E
$GPGSV,3,3,11,04,14,040,,24,02,020,08,20,00,342,08*4D
$GPRMC,185324.000,A,4854.2545,N,00219.9754,E,0.00,261.85,210706,,,A*63
$GPVTG,261.85,T,,M,0.00,N,0.0,K,A*05
$GPGGA,185325.000,4854.2546,N,00219.9759,E,1,05,1.7,99.9,M,47.3,M,,0000*6E
$GPRMC,185325.000,A,4854.2546,N,00219.9759,E,0.00,261.85,210706,,,A*6C
$GPVTG,261.85,T,,M,0.00,N,0.0,K,A*05
$GPGGA,185326.000,4854.2547,N,00219.9763,E,1,05,1.7,99.7,M,47.3,M,,0000*6B
$GPRMC,185326.000,A,4854.2547,N,00219.9763,E,0.00,261.85,210706,,,A*67
$GPVTG,261.85,T,,M,0.00,N,0.0,K,A*05
$GPGGA,185327.000,4854.2546,N,00219.9764,E,1,05,1.7,98.5,M,47.3,M,,0000*6F
$GPRMC,185327.000,A,4854.2546,N,00219.9764,E,0.00,261.85,210706,,,A*60
$GPVTG,261.85,T,,M,0.00,N,0.0,K,A*05
