# Name: Garmin GPSmap 76S
# Description: Garmin handset GPS
# Submitter: Brad Skillman <brad.skillman@cobham.com>
# Date: 2011-10-24
# Location: Centreville, VA, 38.9084N, 77.4408W
$GPRMC,125106,V,3854.5087,N,07726.4523,W,0.0,0.0,241011,10.5,W,S*28
$GPRMB,V,,,,,,,,,,,,A,S*0E
$GPGGA,125106,3854.5087,N,07726.4523,W,8,10,2.0,268.8,M,-33.9,M,,*7F
$GPGSA,A,3,03,07,08,11,13,16,19,23,24,28,,,3.6,2.0,3.0*3A
$GPGSV,3,1,10,03,41,050,46,07,60,317,49,08,34,315,45,11,35,148,45*71
$GPGSV,3,2,10,13,38,213,45,16,27,068,43,19,72,076,50,23,09,182,37*74
$GPGSV,3,3,10,24,06,166,35,28,09,271,36*7D
$GPGLL,3854.5087,N,07726.4523,W,125106,V,S*55
$GPBOD,,T,,M,,*47
$GPBWC,125106,,,,,,T,,M,,N,,S*68
$GPVTG,0.0,T,10.5,M,0.0,N,0.0,K*7A
$GPXTE,V,V,,,N,S*43
$GPRTE,1,1,c,*37
$GPRMC,125108,V,3854.5087,N,07726.4523,W,0.0,0.0,241011,10.5,W,S*26
$GPRMB,V,,,,,,,,,,,,A,S*0E
$GPGGA,125108,3854.5087,N,07726.4523,W,8,10,2.0,268.8,M,-33.9,M,,*71
$GPGSA,A,3,03,07,08,11,13,16,19,23,24,28,,,3.6,2.0,3.0*3A
$GPGSV,3,1,10,03,41,050,46,07,60,317,49,08,34,315,45,11,35,148,45*71
$GPGSV,3,2,10,13,38,213,45,16,27,068,43,19,72,076,50,23,09,182,37*74
$GPGSV,3,3,10,24,06,166,35,28,09,271,36*7D
$GPGLL,3854.5087,N,07726.4523,W,125108,V,S*5B
$GPBOD,,T,,M,,*47
$GPBWC,125108,,,,,,T,,M,,N,,S*66
$GPVTG,0.0,T,10.5,M,0.0,N,0.0,K*7A
$GPXTE,V,V,,,N,S*43
$GPRTE,1,1,c,*37
$GPRMC,125110,V,3854.5087,N,07726.4523,W,0.0,0.0,241011,10.5,W,S*2F
$GPRMB,V,,,,,,,,,,,,A,S*0E
$GPGGA,125110,3854.5087,N,07726.4523,W,8,10,2.0,268.8,M,-33.9,M,,*78
$GPGSA,A,3,03,07,08,11,13,16,19,23,24,28,,,3.6,2.0,3.0*3A
$GPGSV,3,1,10,03,41,050,46,07,61,316,49,08,34,315,44,11,35,148,45*70
$GPGSV,3,2,10,13,38,213,46,16,27,068,43,19,72,076,51,23,09,182,37*76
$GPGSV,3,3,10,24,06,166,35,28,09,271,36*7D
$GPGLL,3854.5087,N,07726.4523,W,125110,V,S*52
$GPBOD,,T,,M,,*47
$GPBWC,125110,,,,,,T,,M,,N,,S*6F
$GPVTG,0.0,T,10.5,M,0.0,N,0.0,K*7A
$GPXTE,V,V,,,N,S*43
$GPRTE,1,1,c,*37
$GPRMC,125112,V,3854.5087,N,07726.4523,W,0.0,0.0,241011,10.5,W,S*2D
$GPRMB,V,,,,,,,,,,,,A,S*0E
$GPGGA,125112,3854.5087,N,07726.4523,W,8,10,2.0,268.8,M,-33.9,M,,*7A
$GPGSA,A,3,03,07,08,11,13,16,19,23,24,28,,,3.6,2.0,3.0*3A
$GPGSV,3,1,10,03,41,050,46,07,61,316,49,08,34,315,44,11,35,148,45*70
$GPGSV,3,2,10,13,38,213,46,16,27,068,43,19,72,076,50,23,09,182,37*77
$GPGSV,3,3,10,24,06,166,36,28,09,271,36*7E
$GPGLL,3854.5087,N,07726.4523,W,125112,V,S*50
$GPBOD,,T,,M,,*47
$GPBWC,125112,,,,,,T,,M,,N,,S*6D
$GPVTG,0.0,T,10.5,M,0.0,N,0.0,K*7A
$GPXTE,V,V,,,N,S*43
$GPRTE,1,1,c,*37
$GPRMC,125114,V,3854.5087,N,07726.4523,W,0.0,0.0,241011,10.5,W,S*2B
$GPRMB,V,,,,,,,,,,,,A,S*0E
$GPGGA,125114,3854.5087,N,07726.4523,W,8,10,2.0,268.8,M,-33.9,M,,*7C
$GPGSA,A,3,03,07,08,11,13,16,19,23,24,28,,,3.6,2.0,3.0*3A
$GPGSV,3,1,10,03,41,050,46,07,61,316,49,08,35,315,45,11,35,148,45*70
$GPGSV,3,2,10,13,38,213,45,16,27,068,43,19,72,076,50,23,09,182,37*74
$GPGSV,3,3,10,24,06,166,35,28,09,271,36*7D
$GPGLL,3854.5087,N,07726.4523,W,125114,V,S*56
$GPBOD,,T,,M,,*47
$GPBWC,125114,,,,,,T,,M,,N,,S*6B
$GPVTG,0.0,T,10.5,M,0.0,N,0.0,K*7A
$GPXTE,V,V,,,N,S*43
$GPRTE,1,1,c,*37
$GPRMC,125116,V,3854.5087,N,07726.4523,W,0.0,0.0,241011,10.5,W,S*29
$GPRMB,V,,,,,,,,,,,,A,S*0E
$GPGGA,125116,3854.5087,N,07726.4523,W,8,10,2.0,268.8,M,-33.9,M,,*7E
$GPGSA,A,3,03,07,08,11,13,16,19,23,24,28,,,3.6,2.0,3.0*3A
$GPGSV,3,1,10,03,41,050,46,07,61,316,49,08,35,315,45,11,35,148,45*70
$GPGSV,3,2,10,13,38,213,45,16,27,068,43,19,72,076,50,23,09,182,37*74
$GPGSV,3,3,10,24,06,166,35,28,09,271,36*7D
$GPGLL,3854.5087,N,07726.4523,W,125116,V,S*54
$GPBOD,,T,,M,,*47
$GPBWC,125116,,,,,,T,,M,,N,,S*69
$GPVTG,0.0,T,10.5,M,0.0,N,0.0,K*7A
$GPXTE,V,V,,,N,S*43
$GPRTE,1,1,c,*37
$GPRMC,125118,V,3854.5087,N,07726.4523,W,0.0,0.0,241011,10.5,W,S*27
$GPRMB,V,,,,,,,,,,,,A,S*0E
$GPGGA,125118,3854.5087,N,07726.4523,W,8,10,2.0,268.8,M,-33.9,M,,*70
$GPGSA,A,3,03,07,08,11,13,16,19,23,24,28,,,3.6,2.0,3.0*3A
$GPGSV,3,1,10,03,41,050,46,07,61,316,49,08,35,315,45,11,35,148,45*70
$GPGSV,3,2,10,13,38,213,45,16,27,068,43,19,72,076,51,23,09,182,37*75
$GPGSV,3,3,10,24,06,166,35,28,09,271,36*7D
$GPGLL,3854.5087,N,07726.4523,W,125118,V,S*5A
$GPBOD,,T,,M,,*47
$GPBWC,125118,,,,,,T,,M,,N,,S*67
$GPVTG,0.0,T,10.5,M,0.0,N,0.0,K*7A
$GPXTE,V,V,,,N,S*43
$GPRTE,1,1,c,*37
$GPRMC,125120,V,3854.5087,N,07726.4523,W,0.0,0.0,241011,10.5,W,S*2C
$GPRMB,V,,,,,,,,,,,,A,S*0E
$GPGGA,125120,3854.5087,N,07726.4523,W,8,10,2.0,268.8,M,-33.9,M,,*7B
$GPGSA,A,3,03,07,08,11,13,16,19,23,24,28,,,3.6,2.0,3.0*3A
$GPGSV,3,1,10,03,41,050,46,07,61,316,49,08,35,315,45,11,35,148,45*70
$GPGSV,3,2,10,13,38,213,46,16,27,068,44,19,72,076,50,23,09,182,37*70
$GPGSV,3,3,10,24,06,166,35,28,09,271,36*7D
$GPGLL,3854.5087,N,07726.4523,W,125120,V,S*51
$GPBOD,,T,,M,,*47
$GPBWC,125120,,,,,,T,,M,,N,,S*6C
$GPVTG,0.0,T,10.5,M,0.0,N,0.0,K*7A
$GPXTE,V,V,,,N,S*43
$GPRTE,1,1,c,*37
$GPRMC,125122,V,3854.5087,N,07726.4523,W,0.0,0.0,241011,10.5,W,S*2E
$GPRMB,V,,,,,,,,,,,,A,S*0E
$GPGGA,125122,3854.5087,N,07726.4523,W,8,10,2.0,268.8,M,-33.9,M,,*79
$GPGSA,A,3,03,07,08,11,13,16,19,23,24,28,,,3.6,2.0,3.0*3A
$GPGSV,3,1,10,03,41,050,46,07,61,316,49,08,35,315,45,11,35,148,45*70
$GPGSV,3,2,10,13,38,213,46,16,27,068,43,19,72,076,50,23,09,182,37*77
$GPGSV,3,3,10,24,06,166,35,28,09,271,37*7C
$GPGLL,3854.5087,N,07726.4523,W,125122,V,S*53
$GPBOD,,T,,M,,*47
$GPBWC,125122,,,,,,T,,M,,N,,S*6E
$GPVTG,0.0,T,10.5,M,0.0,N,0.0,K*7A
$GPXTE,V,V,,,N,S*43
$GPRTE,1,1,c,*37
$GPRMC,125124,V,3854.5087,N,07726.4523,W,0.0,0.0,241011,10.5,W,S*28
$GPRMB,V,,,,,,,,,,,,A,S*0E
$GPGGA,125124,3854.5087,N,07726.4523,W,8,10,2.0,268.8,M,-33.9,M,,*7F
$GPGSA,A,3,03,07,08,11,13,16,19,23,24,28,,,3.6,2.0,3.0*3A
$GPGSV,3,1,10,03,41,050,46,07,61,316,49,08,35,315,45,11,35,148,45*70
$GPGSV,3,2,10,13,38,213,46,16,27,068,43,19,72,076,50,23,09,182,37*77
$GPGSV,3,3,10,24,06,166,35,28,09,271,37*7C
$GPGLL,3854.5087,N,07726.4523,W,125124,V,S*55
$GPBOD,,T,,M,,*47
$GPBWC,125124,,,,,,T,,M,,N,,S*68
$GPVTG,0.0,T,10.5,M,0.0,N,0.0,K*7A
$GPXTE,V,V,,,N,S*43
$GPRTE,1,1,c,*37
$GPRMC,125126,V,3854.5087,N,07726.4523,W,0.0,0.0,241011,10.5,W,S*2A
$GPRMB,V,,,,,,,,,,,,A,S*0E
$GPGGA,125126,3854.5087,N,07726.4523,W,8,10,2.0,268.8,M,-33.9,M,,*7D
$GPGSA,A,3,03,07,08,11,13,16,19,23,24,28,,,3.6,2.0,3.0*3A
$GPGSV,3,1,10,03,41,050,46,07,61,316,49,08,35,315,45,11,36,148,45*73
$GPGSV,3,2,10,13,38,213,46,16,27,068,43,19,72,076,50,23,09,182,37*77
$GPGSV,3,3,10,24,06,166,36,28,09,271,37*7F
$GPGLL,3854.5087,N,07726.4523,W,125126,V,S*57
$GPBOD,,T,,M,,*47
$GPBWC,125126,,,,,,T,,M,,N,,S*6A
$GPVTG,0.0,T,10.5,M,0.0,N,0.0,K*7A
$GPXTE,V,V,,,N,S*43
$GPRTE,1,1,c,*37
$GPRMC,125128,V,3854.5087,N,07726.4523,W,0.0,0.0,241011,10.5,W,S*24
$GPRMB,V,,,,,,,,,,,,A,S*0E
$GPGGA,125128,3854.5087,N,07726.4523,W,8,10,2.0,268.8,M,-33.9,M,,*73
$GPGSA,A,3,03,07,08,11,13,16,19,23,24,28,,,3.6,2.0,3.0*3A
$GPGSV,3,1,10,03,41,050,46,07,61,316,49,08,35,315,45,11,36,148,45*73
$GPGSV,3,2,10,13,38,213,46,16,27,068,43,19,72,076,50,23,09,182,37*77
$GPGSV,3,3,10,24,06,166,35,28,09,271,37*7C
$GPGLL,3854.5087,N,07726.4523,W,125128,V,S*59
