# Name: Haicom HI-305N
# Chipset: SiRF-II
# Date: 2007-04-08
# Location: 153E 27S
# Submitted by: "David Findlay" <david@davsoft.com.au>
# Description: Starts stationary, then moving 5m due west, 10m due south, then reversing course
#
# This file is Copyright (c) 2010 by the GPSD project
# BSD terms apply: see the file COPYING in the distribution root for details.
#
$GPGSV,3,3,12,24,58,220,,26,17,053,,29,20,063,,30,60,311,44*7F
$GPRMC,095255.810,V,2712.6404,S,15303.1201,E,0.00,0.00,080407,,,A*6E
$GPVTG,0.00,T,,,0.00,N,0.00,K,A*70
$GPGGA,095257.809,2712.6404,S,15303.1201,E,0,00,00.0,4.0,M,42.2,M,,*7B
$GPRMC,095257.809,V,2712.6404,S,15303.1201,E,0.00,0.00,080407,,,A*64
$GPVTG,0.00,T,,,0.00,N,0.00,K,A*70
$GPGGA,095258.809,2712.6404,S,15303.1201,E,0,00,00.0,4.0,M,42.2,M,,*74
$GPGSA,A,1,,,,,,,,,,,,,0.0,0.0,0.0*30
$GPGSV,3,1,12,2,15,123,,5,45,347,45,6,58,198,,7,45,212,*77
$GPGSV,3,2,12,10,44,132,,12,39,002,45,18,13,332,,21,33,266,*78
$GPGSV,3,3,12,24,58,220,,26,17,053,,29,20,063,,30,60,311,44*7F
$GPRMC,095258.809,V,2712.6404,S,15303.1201,E,0.00,0.00,080407,,,A*6B
$GPVTG,0.00,T,,,0.00,N,0.00,K,A*70
$GPGGA,095300.809,2712.6404,S,15303.1201,E,0,00,00.0,4.0,M,42.2,M,,*78
$GPRMC,095300.809,V,2712.6404,S,15303.1201,E,0.00,0.00,080407,,,A*67
$GPVTG,0.00,T,,,0.00,N,0.00,K,A*70
$GPGGA,095301.809,2712.6404,S,15303.1201,E,0,00,00.0,4.0,M,42.2,M,,*79
$GPGSA,A,1,,,,,,,,,,,,,0.0,0.0,0.0*30
$GPGSV,3,1,12,2,15,123,,5,45,347,45,6,58,198,,7,45,212,*77
$GPGSV,3,2,12,10,44,132,,12,39,002,45,18,13,332,,21,33,266,*78
$GPGSV,3,3,12,24,58,220,,26,17,053,,29,20,063,,30,60,311,44*7F
$GPRMC,095301.809,V,2712.6404,S,15303.1201,E,0.00,0.00,080407,,,A*66
$GPVTG,0.00,T,,,0.00,N,0.00,K,A*70
$GPGGA,095303.808,2712.6404,S,15303.1201,E,0,00,17.0,4.0,M,42.2,M,,*7C
$GPRMC,095303.808,V,2712.6404,S,15303.1201,E,0.00,0.00,080407,,,A*65
$GPVTG,0.00,T,,,0.00,N,0.00,K,A*70
$GPGGA,095304.802,2712.6520,S,15303.1397,E,1,00,17.0,3.0,M,42.2,M,,*7E
$GPGSA,A,2,05,12,30,,,,,,,,,,17.0,17.0,0.0*36
$GPGSV,3,1,12,2,15,123,,5,45,347,44,6,58,198,,7,45,212,*76
$GPGSV,3,2,12,10,44,132,,12,39,002,43,18,13,332,34,21,33,266,*79
$GPGSV,3,3,12,24,58,220,,26,17,053,,29,20,063,,30,60,311,45*7E
$GPRMC,095304.802,A,2712.6520,S,15303.1397,E,0.00,133.96,080407,,,A*78
$GPVTG,133.96,T,,,0.00,N,0.00,K,A*7E
$GPGGA,095305.802,2712.6547,S,15303.1350,E,1,04,21.1,3.0,M,42.2,M,,*75
$GPRMC,095305.802,A,2712.6547,S,15303.1350,E,1.93,133.96,080407,,,A*78
$GPVTG,133.96,T,,,1.93,N,3.57,K,A*74
$GPGGA,095306.802,2712.6506,S,15303.1298,E,1,04,21.1,3.0,M,42.2,M,,*76
$GPRMC,095306.802,A,2712.6506,S,15303.1298,E,0.00,279.46,080407,,,A*70
$GPVTG,279.46,T,,,0.00,N,0.00,K,A*7E
$GPGGA,095307.801,2712.6486,S,15303.1293,E,1,04,21.1,3.0,M,42.2,M,,*76
$GPGSA,A,2,05,07,12,30,,,,,,,,,34.7,21.1,27.6*00
$GPGSV,3,1,12,2,15,123,,5,45,347,45,6,58,198,,7,45,212,28*7D
$GPGSV,3,2,12,10,44,132,28,12,39,002,42,18,13,332,34,21,33,266,*72
$GPGSV,3,3,12,24,58,220,,26,17,054,,29,20,063,,30,60,311,44*78
$GPRMC,095307.801,A,2712.6486,S,15303.1293,E,1.73,279.46,080407,,,A*75
$GPVTG,279.46,T,,,1.73,N,3.20,K,A*7A
$GPGGA,095308.801,2712.6469,S,15303.1278,E,1,04,21.1,3.0,M,42.2,M,,*7D
$GPRMC,095308.801,A,2712.6469,S,15303.1278,E,2.40,335.10,080407,,,A*77
$GPVTG,335.10,T,,,2.40,N,4.45,K,A*77
$GPGGA,095309.801,2712.6444,S,15303.1229,E,1,05,07.5,3.0,M,42.2,M,,*76
$GPRMC,095309.801,A,2712.6444,S,15303.1229,E,5.19,299.36,080407,,,A*75
$GPVTG,299.36,T,,,5.19,N,9.60,K,A*75
$GPGGA,095310.801,2712.6428,S,15303.1203,E,1,05,07.5,3.0,M,42.2,M,,*7C
$GPGSA,A,3,05,07,12,24,30,,,,,,,,11.7,7.5,9.0*0A
$GPGSV,3,1,12,2,15,123,,5,45,347,45,6,58,198,,7,45,212,30*74
$GPGSV,3,2,12,10,44,132,28,12,39,002,43,18,13,332,33,21,33,266,*74
$GPGSV,3,3,12,24,58,220,35,26,17,054,37,29,20,063,,30,60,311,45*7B
$GPRMC,095310.801,A,2712.6428,S,15303.1203,E,0.00,307.41,080407,,,A*74
$GPVTG,307.41,T,,,0.00,N,0.00,K,A*71
$GPGGA,095311.801,2712.6419,S,15303.1214,E,1,05,07.5,4.1,M,42.2,M,,*7F
$GPRMC,095311.801,A,2712.6419,S,15303.1214,E,2.16,307.41,080407,,,A*74
$GPVTG,307.41,T,,,2.16,N,4.00,K,A*70
$GPGGA,095312.800,2712.6400,S,15303.1170,E,1,05,07.5,4.5,M,42.2,M,,*70
$GPRMC,095312.800,A,2712.6400,S,15303.1170,E,0.00,312.27,080407,,,A*7E
$GPVTG,312.27,T,,,0.00,N,0.00,K,A*75
$GPGGA,095313.800,2712.6402,S,15303.1209,E,1,05,07.5,8.6,M,42.2,M,,*71
$GPGSA,A,3,05,07,12,24,30,,,,,,,,11.7,7.5,9.0*0A
$GPGSV,3,1,12,2,15,123,,5,45,347,45,6,58,198,,7,45,212,32*76
$GPGSV,3,2,12,10,44,132,26,12,39,002,44,18,13,332,31,21,33,266,*7F
$GPGSV,3,3,12,24,58,220,37,26,17,054,37,29,20,063,,30,60,311,45*79
$GPRMC,095313.800,A,2712.6402,S,15303.1209,E,3.47,312.27,080407,,,A*70
$GPVTG,312.27,T,,,3.47,N,6.42,K,A*75
$GPGGA,095314.800,2712.6396,S,15303.1200,E,1,05,07.5,10.1,M,42.2,M,,*4B
$GPRMC,095314.800,A,2712.6396,S,15303.1200,E,2.01,312.27,080407,,,A*77
$GPVTG,312.27,T,,,2.01,N,3.72,K,A*70
$GPGGA,095315.800,2712.6403,S,15303.1229,E,1,05,07.5,13.7,M,42.2,M,,*4F
$GPRMC,095315.800,A,2712.6403,S,15303.1229,E,3.56,92.94,080407,,,A*46
$GPVTG,92.94,T,,,3.56,N,6.58,K,A*4D
$GPGGA,095316.799,2712.6400,S,15303.1217,E,1,05,07.5,13.8,M,42.2,M,,*42
$GPGSA,A,3,05,07,12,24,30,,,,,,,,11.7,7.5,9.0*0A
$GPGSV,3,1,12,2,15,123,,5,45,347,45,6,58,198,,7,45,212,33*77
$GPGSV,3,2,12,10,44,132,23,12,39,002,44,18,13,332,31,21,33,266,*7A
$GPGSV,3,3,12,24,58,220,37,26,17,054,38,29,20,063,,30,60,311,45*76
$GPRMC,095316.799,A,2712.6400,S,15303.1217,E,1.83,92.94,080407,,,A*4E
$GPVTG,92.94,T,,,1.83,N,3.39,K,A*45
$GPGGA,095317.799,2712.6397,S,15303.1210,E,1,05,07.5,13.1,M,42.2,M,,*44
$GPRMC,095317.799,A,2712.6397,S,15303.1210,E,1.78,92.94,080407,,,A*45
$GPVTG,92.94,T,,,1.78,N,3.30,K,A*48
$GPGGA,095318.799,2712.6409,S,15303.1239,E,1,05,07.5,18.1,M,42.2,M,,*4B
$GPRMC,095318.799,A,2712.6409,S,15303.1239,E,2.69,129.81,080407,,,A*77
$GPVTG,129.81,T,,,2.69,N,4.97,K,A*74
$GPGGA,095319.799,2712.6420,S,15303.1303,E,1,05,07.5,22.8,M,42.2,M,,*49
$GPGSA,A,3,05,07,12,24,30,,,,,,,,11.7,7.5,9.0*0A
$GPGSV,3,1,12,2,15,123,,5,45,347,45,6,58,198,,7,45,212,34*70
$GPGSV,3,2,12,10,44,132,27,12,39,002,44,18,13,332,32,21,33,266,*7D
$GPGSV,3,3,12,24,58,220,37,26,17,054,39,29,20,063,,30,60,311,46*74
$GPRMC,095319.799,A,2712.6420,S,15303.1303,E,5.09,100.78,080407,,,A*79
$GPVTG,100.78,T,,,5.09,N,9.43,K,A*7C
$GPGGA,095320.799,2712.6420,S,15303.1290,E,1,05,07.5,19.5,M,42.2,M,,*4D
$GPRMC,095320.799,A,2712.6420,S,15303.1290,E,1.55,100.78,080407,,,A*75
$GPVTG,100.78,T,,,1.55,N,2.87,K,A*72
$GPGGA,095321.798,2712.6419,S,15303.1285,E,1,05,07.5,18.2,M,42.2,M,,*45
$GPRMC,095321.798,A,2712.6419,S,15303.1285,E,1.15,100.78,080407,,,A*7F
$GPVTG,100.78,T,,,1.15,N,2.13,K,A*7B
$GPGGA,095322.798,2712.6419,S,15303.1281,E,1,05,07.5,17.3,M,42.2,M,,*4C
$GPGSA,A,3,05,07,12,24,30,,,,,,,,11.7,7.5,9.0*0A
$GPGSV,3,1,12,2,15,123,,5,45,347,44,6,58,198,,7,45,212,32*77
$GPGSV,3,2,12,10,44,132,31,12,39,002,44,18,13,332,33,21,33,266,*7B
$GPGSV,3,3,12,24,58,220,37,26,17,054,39,29,20,063,,30,60,311,45*77
$GPRMC,095322.798,A,2712.6419,S,15303.1281,E,0.99,100.78,080407,,,A*7D
$GPVTG,100.78,T,,,0.99,N,1.84,K,A*73
$GPGGA,095323.798,2712.6418,S,15303.1278,E,1,05,07.5,17.7,M,42.2,M,,*4E
$GPRMC,095323.798,A,2712.6418,S,15303.1278,E,0.00,100.78,080407,,,A*7B
$GPVTG,100.78,T,,,0.00,N,0.00,K,A*7E
$GPGGA,095324.798,2712.6417,S,15303.1275,E,1,05,07.5,18.0,M,42.2,M,,*43
$GPRMC,095324.798,A,2712.6417,S,15303.1275,E,0.00,100.78,080407,,,A*7E
$GPVTG,100.78,T,,,0.00,N,0.00,K,A*7E
$GPGGA,095325.797,2712.6416,S,15303.1269,E,1,05,07.5,17.7,M,42.2,M,,*49
$GPGSA,A,3,05,07,12,24,30,,,,,,,,11.7,7.5,9.0*0A
$GPGSV,3,1,12,2,15,123,,5,45,347,42,6,58,198,,7,45,212,31*72
$GPGSV,3,2,12,10,44,132,34,12,39,002,43,18,13,332,30,21,33,266,*7A
$GPGSV,3,3,12,24,58,220,37,26,17,054,40,29,20,063,,30,60,311,44*78
$GPRMC,095325.797,A,2712.6416,S,15303.1269,E,0.00,100.78,080407,,,A*7C
$GPVTG,100.78,T,,,0.00,N,0.00,K,A*7E
$GPGGA,095326.797,2712.6415,S,15303.1253,E,1,05,07.5,15.0,M,42.2,M,,*45
$GPRMC,095326.797,A,2712.6415,S,15303.1253,E,1.10,100.78,080407,,,A*75
$GPVTG,100.78,T,,,1.10,N,2.03,K,A*7F
$GPGGA,095327.797,2712.6414,S,15303.1244,E,1,05,07.5,14.2,M,42.2,M,,*40
$GPRMC,095327.797,A,2712.6414,S,15303.1244,E,1.51,100.78,080407,,,A*76
$GPVTG,100.78,T,,,1.51,N,2.80,K,A*71
$GPGGA,095328.797,2712.6413,S,15303.1235,E,1,05,07.5,13.4,M,42.2,M,,*4F
$GPGSA,A,3,05,07,12,24,30,,,,,,,,11.7,7.5,9.0*0A
$GPGSV,3,1,12,2,15,123,,5,45,347,42,6,58,198,,7,45,212,37*74
$GPGSV,3,2,12,10,44,132,37,12,39,002,43,18,13,332,27,21,33,266,*7F
$GPGSV,3,3,12,24,58,220,40,26,17,054,39,29,20,063,,30,60,311,44*76
$GPRMC,095328.797,A,2712.6413,S,15303.1235,E,1.55,276.34,080407,,,A*76
$GPVTG,276.34,T,,,1.55,N,2.86,K,A*79
$GPGGA,095329.797,2712.6413,S,15303.1226,E,1,05,07.5,12.7,M,42.2,M,,*4E
$GPRMC,095329.797,A,2712.6413,S,15303.1226,E,1.67,276.34,080407,,,A*74
$GPVTG,276.34,T,,,1.67,N,3.09,K,A*7E
$GPGGA,095330.796,2712.6413,S,15303.1218,E,1,05,07.5,12.4,M,42.2,M,,*49
$GPRMC,095330.796,A,2712.6413,S,15303.1218,E,1.72,276.34,080407,,,A*74
$GPVTG,276.34,T,,,1.72,N,3.19,K,A*7B
$GPGGA,095331.796,2712.6414,S,15303.1212,E,1,05,07.5,12.3,M,42.2,M,,*42
$GPGSA,A,3,05,07,12,24,30,,,,,,,,11.7,7.5,9.0*0A
$GPGSV,3,1,12,2,15,123,,5,45,347,43,6,58,198,,7,45,212,42*77
$GPGSV,3,2,12,10,44,132,41,12,39,002,44,18,13,332,28,21,33,265,*75
$GPGSV,3,3,12,24,58,220,42,26,17,054,35,29,20,063,38,30,59,311,44*79
$GPRMC,095331.796,A,2712.6414,S,15303.1212,E,1.79,276.34,080407,,,A*73
$GPVTG,276.34,T,,,1.79,N,3.32,K,A*79
$GPGGA,095333.796,2712.6422,S,15303.1205,E,1,05,07.5,11.9,M,42.2,M,,*4A
$GPRMC,095333.796,A,2712.6422,S,15303.1205,E,1.87,276.34,080407,,,A*73
$GPVTG,276.34,T,,,1.87,N,3.46,K,A*7B
$GPGGA,095334.796,2712.6427,S,15303.1202,E,1,05,07.5,11.6,M,42.2,M,,*40
$GPGSA,A,3,05,07,12,24,30,,,,,,,,11.7,7.5,9.0*0A
$GPGSV,3,1,12,2,15,123,,5,45,347,41,6,58,198,,7,45,212,44*73
$GPGSV,3,2,12,10,44,132,42,12,39,002,40,18,13,332,29,21,33,265,*73
$GPGSV,3,3,12,24,58,220,43,26,17,054,38,29,20,063,39,30,59,311,44*74
$GPRMC,095334.796,A,2712.6427,S,15303.1202,E,2.01,276.34,080407,,,A*7B
$GPVTG,276.34,T,,,2.01,N,3.72,K,A*71
$GPGGA,095336.795,2712.6439,S,15303.1195,E,1,04,10.4,11.6,M,42.2,M,,*45
$GPRMC,095336.795,A,2712.6439,S,15303.1195,E,2.37,209.25,080407,,,A*75
$GPVTG,209.25,T,,,2.37,N,4.38,K,A*75
$GPGGA,095337.795,2712.6444,S,15303.1189,E,1,06,02.3,11.3,M,42.2,M,,*40
$GPGSA,A,3,05,07,12,21,24,30,,,,,,,4.8,2.3,4.2*3E
$GPGSV,3,1,12,2,15,123,,5,45,347,39,6,58,198,,7,45,212,44*7C
$GPGSV,3,2,12,10,44,132,42,12,39,002,38,18,13,332,27,21,33,265,36*77
$GPGSV,3,3,12,24,58,220,44,26,17,054,39,29,20,063,40,30,59,311,45*7D
$GPRMC,095337.795,A,2712.6444,S,15303.1189,E,2.31,209.45,080407,,,A*73
$GPVTG,209.45,T,,,2.31,N,4.28,K,A*74
$GPGGA,095338.795,2712.6450,S,15303.1192,E,1,06,02.3,12.4,M,42.2,M,,*44
$GPRMC,095338.795,A,2712.6450,S,15303.1192,E,2.24,203.09,080407,,,A*75
$GPVTG,203.09,T,,,2.24,N,4.14,K,A*7D
$GPGGA,095339.794,2712.6456,S,15303.1185,E,1,06,04.1,11.6,M,42.2,M,,*41
$GPRMC,095339.794,A,2712.6456,S,15303.1185,E,2.28,200.03,080407,,,A*70
$GPVTG,200.03,T,,,2.28,N,4.22,K,A*7D
$GPGGA,095340.794,2712.6461,S,15303.1180,E,1,07,01.3,10.0,M,42.2,M,,*4F
$GPGSA,A,3,02,05,07,12,21,24,30,,,,,,3.0,1.3,2.7*33
$GPGSV,3,1,12,2,15,123,39,5,45,347,39,6,58,198,43,7,45,212,43*76
$GPGSV,3,2,12,10,44,132,43,12,39,002,37,18,13,332,25,21,33,265,35*78
$GPGSV,3,3,12,24,58,220,44,26,17,054,41,29,20,063,41,30,59,311,44*72
$GPRMC,095340.794,A,2712.6461,S,15303.1180,E,2.23,189.90,080407,,,A*7C
$GPVTG,189.90,T,,,2.23,N,4.12,K,A*7D
$GPGGA,095341.794,2712.6467,S,15303.1177,E,1,07,01.3,10.0,M,42.2,M,,*40
$GPRMC,095341.794,A,2712.6467,S,15303.1177,E,2.24,191.01,080407,,,A*75
$GPVTG,191.01,T,,,2.24,N,4.15,K,A*7C
$GPGGA,095342.794,2712.6472,S,15303.1170,E,1,07,01.3,9.1,M,42.2,M,,*79
$GPRMC,095342.794,A,2712.6472,S,15303.1170,E,2.28,193.30,080407,,,A*79
$GPVTG,193.30,T,,,2.28,N,4.22,K,A*74
$GPGGA,095343.794,2712.6478,S,15303.1166,E,1,07,01.3,8.1,M,42.2,M,,*74
$GPGSA,A,3,02,05,07,12,21,24,30,,,,,,3.0,1.3,2.7*33
$GPGSV,3,1,12,2,15,123,36,5,45,347,38,6,58,198,45,7,45,212,42*7F
$GPGSV,3,2,12,10,44,132,43,12,39,002,36,18,14,332,23,21,34,265,37*7D
$GPGSV,3,3,12,24,58,220,43,26,17,054,41,29,20,063,41,30,59,312,44*76
$GPRMC,095343.794,A,2712.6478,S,15303.1166,E,2.18,187.10,080407,,,A*71
$GPVTG,187.10,T,,,2.18,N,4.03,K,A*73
$GPGGA,095344.793,2712.6483,S,15303.1163,E,1,07,01.3,8.4,M,42.2,M,,*70
$GPRMC,095344.793,A,2712.6483,S,15303.1163,E,2.26,192.88,080407,,,A*78
$GPVTG,192.88,T,,,2.26,N,4.18,K,A*71
$GPGGA,095345.793,2712.6489,S,15303.1158,E,1,07,01.3,7.5,M,42.2,M,,*7D
$GPRMC,095345.793,A,2712.6489,S,15303.1158,E,2.26,190.81,080407,,,A*70
$GPVTG,190.81,T,,,2.26,N,4.18,K,A*7A
$GPGGA,095346.793,2712.6494,S,15303.1153,E,1,07,01.3,7.5,M,42.2,M,,*79
$GPGSA,A,3,02,05,07,12,21,24,30,,,,,,3.0,1.3,2.7*33
$GPGSV,3,1,12,2,15,123,37,5,45,347,39,6,58,198,44,7,45,212,42*7E
$GPGSV,3,2,12,10,44,132,44,12,39,002,37,18,14,332,23,21,34,265,39*75
$GPGSV,3,3,12,24,58,220,41,26,17,054,42,29,20,063,41,30,59,312,43*70
$GPRMC,095346.793,A,2712.6494,S,15303.1153,E,2.22,194.09,080407,,,A*74
$GPVTG,194.09,T,,,2.22,N,4.11,K,A*73
$GPGGA,095347.793,2712.6500,S,15303.1150,E,1,07,01.3,7.5,M,42.2,M,,*77
$GPRMC,095347.793,A,2712.6500,S,15303.1150,E,2.23,191.68,080407,,,A*79
$GPVTG,191.68,T,,,2.23,N,4.13,K,A*72
$GPGGA,095348.792,2712.6505,S,15303.1148,E,1,07,01.3,7.4,M,42.2,M,,*74
$GPRMC,095348.792,A,2712.6505,S,15303.1148,E,2.11,187.45,080407,,,A*72
$GPVTG,187.45,T,,,2.11,N,3.91,K,A*76
$GPGGA,095349.792,2712.6511,S,15303.1147,E,1,07,01.3,7.3,M,42.2,M,,*78
$GPGSA,A,3,02,05,07,12,21,24,30,,,,,,3.0,1.3,2.7*33
$GPGSV,3,1,12,2,15,123,35,5,45,347,38,6,58,198,44,7,45,212,41*7E
$GPGSV,3,2,12,10,44,132,43,12,39,002,39,18,14,332,23,21,34,265,40*72
$GPGSV,3,3,12,24,58,220,40,26,17,054,41,29,20,063,42,30,59,312,44*76
$GPRMC,095349.792,A,2712.6511,S,15303.1147,E,2.04,188.22,080407,,,A*73
$GPVTG,188.22,T,,,2.04,N,3.78,K,A*7B
$GPGGA,095350.792,2712.6515,S,15303.1143,E,1,07,01.3,7.0,M,42.2,M,,*73
$GPRMC,095350.792,A,2712.6515,S,15303.1143,E,1.77,194.81,080407,,,A*78
$GPVTG,194.81,T,,,1.77,N,3.28,K,A*7D
$GPGGA,095351.792,2712.6515,S,15303.1138,E,1,07,01.3,6.2,M,42.2,M,,*7D
$GPRMC,095351.792,A,2712.6515,S,15303.1138,E,0.98,194.81,080407,,,A*75
$GPVTG,194.81,T,,,0.98,N,1.81,K,A*7C
$GPGGA,095352.792,2712.6511,S,15303.1137,E,1,06,02.3,5.8,M,42.2,M,,*7E
$GPGSA,A,3,05,07,12,21,24,30,,,,,,,4.8,2.3,4.2*3E
$GPGSV,3,1,12,2,15,123,33,5,45,347,41,6,58,198,42,7,45,212,41*70
$GPGSV,3,2,12,10,44,132,42,12,39,002,40,18,14,332,25,21,34,265,39*75
$GPGSV,3,3,12,24,58,220,41,26,17,054,39,29,20,063,40,30,59,312,43*7D
$GPRMC,095352.792,A,2712.6511,S,15303.1137,E,1.39,350.04,080407,,,A*70
$GPVTG,350.04,T,,,1.39,N,2.57,K,A*79
$GPGGA,095353.791,2712.6505,S,15303.1137,E,1,06,02.3,5.9,M,42.2,M,,*78
$GPRMC,095353.791,A,2712.6505,S,15303.1137,E,1.92,359.88,080407,,,A*7B
$GPVTG,359.88,T,,,1.92,N,3.56,K,A*75
$GPGGA,095354.791,2712.6500,S,15303.1137,E,1,07,01.3,5.2,M,42.2,M,,*73
$GPRMC,095354.791,A,2712.6500,S,15303.1137,E,2.00,11.44,080407,,,A*4E
$GPVTG,11.44,T,,,2.00,N,3.70,K,A*46
$GPGGA,095355.791,2712.6493,S,15303.1137,E,1,07,01.3,4.7,M,42.2,M,,*7D
$GPGSA,A,3,02,05,07,12,21,24,30,,,,,,3.0,1.3,2.7*33
$GPGSV,3,1,12,2,15,123,34,5,45,347,42,6,58,198,42,7,45,212,41*74
$GPGSV,3,2,12,10,44,132,42,12,39,002,41,18,14,332,26,21,34,265,41*78
$GPGSV,3,3,12,24,58,220,43,26,17,054,40,29,20,063,38,30,59,312,44*79
$GPRMC,095355.791,A,2712.6493,S,15303.1137,E,2.13,16.78,080407,,,A*4E
$GPVTG,16.78,T,,,2.13,N,3.95,K,A*47
$GPGGA,095356.791,2712.6487,S,15303.1136,E,1,07,01.3,4.3,M,42.2,M,,*7E
$GPRMC,095356.791,A,2712.6487,S,15303.1136,E,2.25,13.51,080407,,,A*42
$GPVTG,13.51,T,,,2.25,N,4.16,K,A*40
$GPGGA,095357.791,2712.6480,S,15303.1135,E,1,07,01.3,4.1,M,42.2,M,,*79
$GPRMC,095357.791,A,2712.6480,S,15303.1135,E,2.30,7.49,080407,,,A*7F
$GPVTG,7.49,T,,,2.30,N,4.26,K,A*7B
$GPGGA,095358.790,2712.6473,S,15303.1133,E,1,08,01.1,3.9,M,42.2,M,,*7F
$GPGSA,A,3,02,05,07,10,12,21,24,30,,,,,2.6,1.1,2.4*34
$GPGSV,3,1,12,2,15,123,36,5,45,347,43,6,58,198,42,7,45,212,41*77
$GPGSV,3,2,12,10,43,132,41,12,39,002,41,18,14,332,26,21,34,265,42*7F
$GPGSV,3,3,12,24,58,219,43,26,17,054,38,29,20,063,37,30,59,312,44*73
$GPRMC,095358.790,A,2712.6473,S,15303.1133,E,2.34,6.73,080407,,,A*77
$GPVTG,6.73,T,,,2.34,N,4.32,K,A*72
$GPGGA,095400.790,2712.6459,S,15303.1133,E,1,06,01.8,3.5,M,42.2,M,,*76
$GPRMC,095400.790,A,2712.6459,S,15303.1133,E,2.40,7.80,080407,,,A*7B
$GPVTG,7.80,T,,,2.40,N,4.44,K,A*7D
$GPGGA,095401.790,2712.6453,S,15303.1133,E,1,08,01.1,3.7,M,42.2,M,,*78
$GPGSA,A,3,02,05,07,10,12,21,24,30,,,,,2.6,1.1,2.4*34
$GPGSV,3,1,12,2,15,123,35,5,45,347,43,6,58,198,42,7,45,212,39*7B
$GPGSV,3,2,12,10,43,132,40,12,39,002,40,18,14,332,25,21,34,265,40*7E
$GPGSV,3,3,12,24,58,219,44,26,17,054,38,29,20,063,37,30,59,312,43*73
$GPRMC,095401.790,A,2712.6453,S,15303.1133,E,2.36,7.77,080407,,,A*79
$GPVTG,7.77,T,,,2.36,N,4.37,K,A*70
$GPGGA,095403.789,2712.6439,S,15303.1137,E,1,08,01.1,3.5,M,42.2,M,,*78
$GPRMC,095403.789,A,2712.6439,S,15303.1137,E,2.48,15.66,080407,,,A*41
$GPVTG,15.66,T,,,2.48,N,4.59,K,A*42
$GPGGA,095404.789,2712.6432,S,15303.1137,E,1,09,01.1,3.3,M,42.2,M,,*73
$GPGSA,A,3,02,05,06,07,10,12,21,24,30,,,,2.5,1.1,2.2*37
$GPGSV,3,1,12,2,15,123,33,5,45,347,44,6,58,197,42,7,45,212,41*7A
$GPGSV,3,2,12,10,43,132,39,12,39,002,41,18,14,332,25,21,34,265,39*7F
$GPGSV,3,3,12,24,58,219,45,26,17,054,38,29,20,063,38,30,59,312,43*7D
$GPRMC,095404.789,A,2712.6432,S,15303.1137,E,2.45,12.39,080407,,,A*4D
$GPVTG,12.39,T,,,2.45,N,4.54,K,A*4F
$GPGGA,095405.789,2712.6425,S,15303.1138,E,1,09,01.1,3.1,M,42.2,M,,*79
$GPRMC,095405.789,A,2712.6425,S,15303.1138,E,2.55,16.50,080407,,,A*4F
$GPVTG,16.50,T,,,2.55,N,4.73,K,A*40
$GPGGA,095406.789,2712.6420,S,15303.1142,E,1,09,01.1,2.7,M,42.2,M,,*75
$GPRMC,095406.789,A,2712.6420,S,15303.1142,E,2.35,31.12,080407,,,A*41
$GPVTG,31.12,T,,,2.35,N,4.35,K,A*47
$GPGGA,095407.788,2712.6415,S,15303.1145,E,1,08,01.7,2.5,M,42.2,M,,*71
$GPGSA,A,3,02,05,06,07,10,12,24,30,,,,,3.9,1.7,3.4*38
$GPGSV,3,1,12,2,14,123,33,5,45,347,43,6,58,197,42,7,45,212,41*7C
$GPGSV,3,2,12,10,43,132,42,12,39,002,40,18,14,332,28,21,34,265,36*70
$GPGSV,3,3,12,24,58,219,43,26,17,054,38,29,20,063,39,30,59,312,43*7A
$GPRMC,095407.788,A,2712.6415,S,15303.1145,E,2.28,40.30,080407,,,A*4A
$GPVTG,40.30,T,,,2.28,N,4.23,K,A*4A
$GPGGA,095408.788,2712.6411,S,15303.1151,E,1,09,01.1,2.6,M,42.2,M,,*7B
$GPRMC,095408.788,A,2712.6411,S,15303.1151,E,2.35,51.76,080407,,,A*4A
$GPVTG,51.76,T,,,2.35,N,4.35,K,A*43
$GPGGA,095409.788,2712.6409,S,15303.1158,E,1,09,01.1,2.6,M,42.2,M,,*7A
$GPRMC,095409.788,A,2712.6409,S,15303.1158,E,2.41,68.20,080407,,,A*41
$GPVTG,68.20,T,,,2.41,N,4.47,K,A*4C
$GPGGA,095410.788,2712.6407,S,15303.1166,E,1,09,01.1,2.9,M,42.2,M,,*7E
$GPGSA,A,3,02,05,06,07,10,12,21,24,30,,,,2.5,1.1,2.2*37
$GPGSV,3,1,12,2,14,123,28,5,45,347,43,6,58,197,42,7,45,212,41*76
$GPGSV,3,2,12,10,43,132,43,12,39,002,42,18,14,332,31,21,34,265,37*7A
$GPGSV,3,3,12,24,58,219,43,26,17,054,39,29,20,063,37,30,59,312,44*72
$GPRMC,095410.788,A,2712.6407,S,15303.1166,E,2.54,74.38,080407,,,A*4A
$GPVTG,74.38,T,,,2.54,N,4.71,K,A*49
$GPGGA,095411.787,2712.6405,S,15303.1173,E,1,09,01.1,2.9,M,42.2,M,,*76
$GPRMC,095411.787,A,2712.6405,S,15303.1173,E,2.34,76.68,080407,,,A*43
$GPVTG,76.68,T,,,2.34,N,4.33,K,A*4E
$GPGGA,095412.787,2712.6404,S,15303.1180,E,1,09,01.1,3.0,M,42.2,M,,*70
$GPRMC,095412.787,A,2712.6404,S,15303.1180,E,2.33,77.59,080407,,,A*49
$GPVTG,77.59,T,,,2.33,N,4.32,K,A*4B
$GPGGA,095413.787,2712.6403,S,15303.1187,E,1,08,01.1,3.1,M,42.2,M,,*71
$GPGSA,A,3,02,05,07,10,12,21,24,30,,,,,2.6,1.1,2.4*34
$GPGSV,3,1,12,2,14,123,25,5,45,347,44,6,58,197,39,7,45,212,38*7E
$GPGSV,3,2,12,10,43,132,35,12,39,002,43,18,14,332,30,21,34,265,38*74
$GPGSV,3,3,12,24,58,219,40,26,17,054,38,29,20,063,38,30,59,312,44*7F
$GPRMC,095413.787,A,2712.6403,S,15303.1187,E,2.47,79.51,080407,,,A*4D
$GPVTG,79.51,T,,,2.47,N,4.57,K,A*4D
$GPGGA,095414.787,2712.6403,S,15303.1194,E,1,09,01.1,3.2,M,42.2,M,,*76
$GPRMC,095414.787,A,2712.6403,S,15303.1194,E,2.20,86.03,080407,,,A*4E
$GPVTG,86.03,T,,,2.20,N,4.07,K,A*4E
$GPGGA,095415.787,2712.6404,S,15303.1200,E,1,06,01.8,3.5,M,42.2,M,,*7F
$GPRMC,095415.787,A,2712.6404,S,15303.1200,E,2.11,96.86,080407,,,A*48
