# Name: Humminbird Matrix 37 Fishing System, Humminbird GR16 Receiver
# Submitter: "Carl Brown"<cbsled@verizon.net>
# Date: 2006-09-16
# Location: Connecticut River, New Hampshire, USA, 44N71W
# Comments: Powerboat track with NMEA depth (DPT) and water temperature (MTW) sentences
#
# This file is Copyright (c) 2010 by the GPSD project
# BSD terms apply: see the file COPYING in the distribution root for details.
#
$INDPT,2.2,0.0*47
$INRMC,194101,A,4426.1130,N,07140.5596,W,5.2,77.3,160906,15.8,W*60
$INDPT,2.1,0.0*44
$INGLL,4426.1130,N,07140.5579,W,194102,A*2C
$INVTG,77.5,T,93.3,M,5.2,N,9.7,K*5B
$INMTW,17.9,C*1B
$INDPT,2.1,0.0*44
$INRMC,194103,A,4426.1134,N,07140.5558,W,5.3,77.0,160906,15.8,W*66
$INDPT,2.0,0.0*45
$INGGA,194104,4426.1138,N,07140.5536,W,2,10,0.9,267.9,M,,,,*13
$INZDA,194104,16,09,2006,-05,00*73
$INMTW,17.9,C*1B
$INDPT,2.1,0.0*44
$INRMC,194105,A,4426.1142,N,07140.5515,W,5.3,76.8,160906,15.8,W*61
$INDPT,2.1,0.0*44
$INGLL,4426.1146,N,07140.5499,W,194106,A*26
$INVTG,76.3,T,92.1,M,5.3,N,9.7,K*5E
$INMTW,17.9,C*1B
$INDPT,2.2,0.0*47
$INRMC,194107,A,4426.1149,N,07140.5477,W,5.3,76.6,160906,15.8,W*63
$INDPT,2.1,0.0*44
$INGGA,194108,4426.1149,N,07140.5455,W,2,10,0.9,268.0,M,,,,*1B
$INZDA,194108,16,09,2006,-05,00*7F
$INMTW,17.9,C*1B
$INDPT,2.2,0.0*47
$INRMC,194109,A,4426.1153,N,07140.5439,W,5.2,76.5,160906,15.8,W*6E
$INDPT,2.3,0.0*46
$INGLL,4426.1157,N,07140.5418,W,194110,A*28
$INVTG,77.2,T,93.0,M,5.2,N,9.7,K*5F
$INMTW,17.9,C*1B
$INDPT,2.2,0.0*47
$INRMC,194111,A,4426.1161,N,07140.5396,W,5.3,77.6,160906,15.8,W*67
$INDPT,2.3,0.0*46
$INGGA,194112,4426.1165,N,07140.5380,W,2,10,0.9,268.0,M,,,,*11
$INZDA,194112,16,09,2006,-05,00*74
$INMTW,17.9,C*1B
$INDPT,2.3,0.0*46
$INRMC,194113,A,4426.1169,N,07140.5358,W,5.2,75.6,160906,15.8,W*6C
$INDPT,2.4,0.0*41
$INGLL,4426.1173,N,07140.5337,W,194114,A*20
$INVTG,76.0,T,91.8,M,5.2,N,9.6,K*57
$INMTW,17.9,C*1B
$INDPT,2.5,0.0*40
$INRMC,194115,A,4426.1176,N,07140.5321,W,5.2,77.3,160906,15.8,W*6D
$INDPT,2.4,0.0*41
$INGGA,194116,4426.1176,N,07140.5299,W,2,10,0.9,268.0,M,,,,*1E
$INZDA,194116,16,09,2006,-05,00*70
$INMTW,18.0,C*1D
$INDPT,2.4,0.0*41
$INRMC,194117,A,4426.1180,N,07140.5278,W,5.2,76.8,160906,15.8,W*61
$INDPT,2.5,0.0*40
$INGLL,4426.1184,N,07140.5261,W,194118,A*26
$INVTG,76.4,T,92.2,M,5.2,N,9.7,K*5B
$INMTW,18.0,C*1D
$INDPT,2.6,0.0*43
$INRMC,194119,A,4426.1188,N,07140.5240,W,5.2,77.5,160906,15.8,W*60
$INDPT,2.4,0.0*41
$INGGA,194120,4426.1192,N,07140.5218,W,2,10,0.9,268.2,M,,,,*1A
$INZDA,194120,16,09,2006,-05,00*75
$INMTW,17.9,C*1B
$INDPT,2.4,0.0*41
$INRMC,194121,A,4426.1192,N,07140.5202,W,5.2,79.3,160906,15.8,W*6E
$INDPT,2.4,0.0*41
$INGLL,4426.1196,N,07140.5181,W,194122,A*21
$INVTG,78.6,T,94.4,M,5.3,N,9.7,K*56
$INMTW,18.0,C*1D
$INDPT,2.4,0.0*41
$INRMC,194123,A,4426.1200,N,07140.5159,W,5.2,79.0,160906,15.8,W*6A
$INDPT,2.4,0.0*41
$INGGA,194124,4426.1200,N,07140.5143,W,2,10,0.9,268.2,M,,,,*1B
$INZDA,194124,16,09,2006,-05,00*71
$INMTW,17.9,C*1B
$INDPT,2.5,0.0*40
$INRMC,194111,A,4426.1203,N,07140.5121,W,5.2,81.5,160906,15.8,W*65
$INDPT,2.4,0.0*41
$INGLL,4426.1203,N,07140.5100,W,194112,A*24
$INVTG,81.4,T,97.2,M,5.2,N,9.6,K*57
$INMTW,18.0,C*1D
$INDPT,2.3,0.0*46
$INRMC,194113,A,4426.1207,N,07140.5084,W,5.2,81.9,160906,15.8,W*61
$INDPT,2.3,0.0*46
$INGGA,194114,4426.1211,N,07140.5062,W,2,10,0.9,268.4,M,,,,*1C
$INZDA,194114,16,09,2006,-05,00*72
$INMTW,18.0,C*1D
$INDPT,2.4,0.0*41
$INRMC,194115,A,4426.1211,N,07140.5040,W,5.2,83.9,160906,15.8,W*6A
$INDPT,2.4,0.0*41
$INGLL,4426.1211,N,07140.5024,W,194116,A*24
$INVTG,83.7,T,99.5,M,5.2,N,9.6,K*5F
$INMTW,18.1,C*1C
$INDPT,2.4,0.0*41
$INRMC,194117,A,4426.1215,N,07140.5003,W,5.2,83.8,160906,15.8,W*6A
$INDPT,2.4,0.0*41
$INGGA,194118,4426.1215,N,07140.4987,W,2,10,0.9,268.5,M,,,,*16
$INZDA,194118,16,09,2006,-05,00*7E
$INMTW,18.0,C*1D
$INDPT,2.3,0.0*46
$INRMC,194119,A,4426.1219,N,07140.4965,W,5.1,85.4,160906,15.8,W*69
$INDPT,2.4,0.0*41
$INGLL,4426.1219,N,07140.4943,W,194120,A*20
$INVTG,85.6,T,101.4,M,5.2,N,9.5,K*6A
$INMTW,18.1,C*1C
$INDPT,2.4,0.0*41
$INRMC,194121,A,4426.1219,N,07140.4927,W,5.2,85.5,160906,15.8,W*66
$INDPT,2.5,0.0*40
$INGGA,194122,4426.1223,N,07140.4906,W,2,10,0.9,268.4,M,,,,*12
$INZDA,194122,16,09,2006,-05,00*77
$INMTW,18.2,C*1F
$INDPT,2.4,0.0*41
$INRMC,194123,A,4426.1223,N,07140.4884,W,5.1,86.8,160906,15.8,W*68
$INDPT,2.4,0.0*41
$INGLL,4426.1223,N,07140.4868,W,194124,A*25
$INVTG,87.0,T,102.7,M,5.1,N,9.5,K*6D
$INMTW,18.2,C*1F
$INDPT,2.5,0.0*40
$INRMC,194125,A,4426.1223,N,07140.4846,W,5.2,86.2,160906,15.8,W*69
$INDPT,2.4,0.0*41
$INGGA,194126,4426.1227,N,07140.4825,W,2,10,0.9,268.2,M,,,,*14
$INZDA,194126,16,09,2006,-05,00*73
$INMTW,18.1,C*1C
$INDPT,2.4,0.0*41
$INRMC,194127,A,4426.1227,N,07140.4803,W,5.1,87.4,160906,15.8,W*6A
$INDPT,2.4,0.0*41
$INGLL,4426.1227,N,07140.4787,W,194128,A*23
$INVTG,88.3,T,104.1,M,5.1,N,9.5,K*61
$INMTW,18.5,C*18
$INDPT,2.4,0.0*41
$INRMC,194129,A,4426.1227,N,07140.4766,W,5.2,87.6,160906,15.8,W*69
$INDPT,2.4,0.0*41
$INGGA,194130,4426.1227,N,07140.4744,W,2,10,0.9,268.0,M,,,,*19
$INZDA,194130,16,09,2006,-05,00*74
$INMTW,18.5,C*18
$INDPT,2.4,0.0*41
$INRMC,194131,A,4426.1230,N,07140.4728,W,5.1,86.6,160906,15.8,W*6E
$INDPT,2.4,0.0*41
$INGLL,4426.1230,N,07140.4706,W,194132,A*27
$INVTG,87.4,T,103.2,M,5.1,N,9.5,K*6D
$INMTW,18.6,C*1B
$INDPT,2.4,0.0*41
$INRMC,194133,A,4426.1230,N,07140.4685,W,5.1,88.1,160906,15.8,W*63
$INDPT,2.4,0.0*41
$INGGA,194134,4426.1230,N,07140.4669,W,2,10,0.9,267.8,M,,,,*12
$INZDA,194134,16,09,2006,-05,00*70
$INMTW,18.6,C*1B
$INDPT,2.4,0.0*41
$INRMC,194135,A,4426.1230,N,07140.4647,W,5.2,87.5,160906,15.8,W*63
$INDPT,2.5,0.0*40
$INGLL,4426.1230,N,07140.4625,W,194136,A*23
$INVTG,87.5,T,103.3,M,5.1,N,9.5,K*6D
$INMTW,18.6,C*1B
$INDPT,2.4,0.0*41
$INRMC,194137,A,4426.1230,N,07140.4609,W,5.1,87.9,160906,15.8,W*64
$INDPT,2.5,0.0*40
$INGGA,194138,4426.1230,N,07140.4588,W,2,09,0.9,267.7,M,,,,*15
$INZDA,194138,16,09,2006,-05,00*7C
$INMTW,18.6,C*1B
$INDPT,2.5,0.0*40
$INRMC,194139,A,4426.1230,N,07140.4566,W,5.2,87.3,160906,15.8,W*69
$INDPT,2.6,0.0*43
$INGLL,4426.1234,N,07140.4545,W,194140,A*23
$INVTG,87.4,T,103.2,M,5.2,N,9.6,K*6D
$INMTW,18.7,C*1A
$INDPT,2.6,0.0*43
$INRMC,194141,A,4426.1234,N,07140.4528,W,5.1,88.0,160906,15.8,W*67
$INDPT,2.6,0.0*43
$INGGA,194142,4426.1234,N,07140.4507,W,2,10,0.9,267.5,M,,,,*11
$INZDA,194142,16,09,2006,-05,00*71
$INMTW,18.6,C*1B
$INDPT,2.7,0.0*42
$INRMC,194143,A,4426.1234,N,07140.4485,W,5.1,88.3,160906,15.8,W*60
$INDPT,2.7,0.0*42
$INGLL,4426.1234,N,07140.4469,W,194144,A*28
$INVTG,87.5,T,103.3,M,5.1,N,9.5,K*6D
$INMTW,18.7,C*1A
$INDPT,2.8,0.0*4D
$INRMC,194145,A,4426.1234,N,07140.4448,W,5.1,87.9,160906,15.8,W*62
$INDPT,2.8,0.0*4D
$INGGA,194146,4426.1234,N,07140.4426,W,2,09,0.9,267.2,M,,,,*18
$INZDA,194146,16,09,2006,-05,00*75
$INMTW,18.7,C*1A
$INDPT,3.0,0.0*44
$INRMC,194147,A,4426.1238,N,07140.4410,W,5.1,87.6,160906,15.8,W*6E
$INDPT,2.9,0.0*4C
$INGLL,4426.1238,N,07140.4388,W,194148,A*20
$INVTG,87.0,T,102.7,M,5.2,N,9.5,K*6E
$INMTW,18.7,C*1A
$INDPT,2.9,0.0*4C
$INRMC,194149,A,4426.1238,N,07140.4367,W,5.1,87.2,160906,15.8,W*63
$INDPT,3.0,0.0*44
$INGGA,194150,4426.1238,N,07140.4351,W,2,10,0.9,267.0,M,,,,*1E
$INZDA,194150,16,09,2006,-05,00*72
$INMTW,18.7,C*1A
$INDPT,3.0,0.0*44
$INRMC,194151,A,4426.1238,N,07140.4329,W,5.1,88.3,160906,15.8,W*6E
$INDPT,2.9,0.0*4C
$INGLL,4426.1238,N,07140.4307,W,194152,A*2C
$INVTG,87.8,T,103.6,M,5.1,N,9.5,K*65
$INMTW,18.7,C*1A
$INDPT,2.7,0.0*42
$INRMC,194153,A,4426.1238,N,07140.4291,W,5.1,88.1,160906,15.8,W*6C
$INDPT,2.7,0.0*42
$INGGA,194154,4426.1242,N,07140.4270,W,2,10,0.9,266.8,M,,,,*1C
$INZDA,194154,16,09,2006,-05,00*76
$INMTW,18.8,C*15
$INDPT,2.9,0.0*4C
$INRMC,194155,A,4426.1242,N,07140.4248,W,5.1,88.6,160906,15.8,W*64
$INDPT,2.9,0.0*4C
$INGLL,4426.1242,N,07140.4232,W,194156,A*22
$INVTG,88.8,T,104.6,M,5.1,N,9.4,K*6C
$INMTW,18.7,C*1A
$INDPT,3.0,0.0*44
$INRMC,194157,A,4426.1242,N,07140.4210,W,5.1,88.2,160906,15.8,W*6F
$INDPT,3.0,0.0*44
$INGGA,194158,4426.1242,N,07140.4189,W,2,09,0.9,266.6,M,,,,*13
$INZDA,194158,16,09,2006,-05,00*7A
$INMTW,18.8,C*15
$INDPT,3.1,0.0*45
$INRMC,194159,A,4426.1242,N,07140.4173,W,5.1,88.9,160906,15.8,W*6C
$INDPT,3.3,0.0*47
$INGLL,4426.1242,N,07140.4151,W,194200,A*24
$INVTG,89.6,T,105.3,M,5.1,N,9.5,K*66
$INMTW,18.6,C*1B
$INDPT,2.9,0.0*4C
$INRMC,194201,A,4426.1242,N,07140.4130,W,5.1,89.2,160906,15.8,W*6F
$INDPT,2.7,0.0*42
$INGGA,194202,4426.1242,N,07140.4113,W,2,09,0.9,266.6,M,,,,*1C
$INZDA,194202,16,09,2006,-05,00*76
$INMTW,18.8,C*15
$INDPT,2.8,0.0*4D
$INRMC,194203,A,4426.1242,N,07140.4092,W,5.1,89.0,160906,15.8,W*66
$INDPT,2.9,0.0*4C
$INGLL,4426.1242,N,07140.4070,W,194204,A*22
$INVTG,89.6,T,105.4,M,5.1,N,9.5,K*61
$INMTW,18.6,C*1B
$INDPT,3.0,0.0*44
$INRMC,194205,A,4426.1242,N,07140.4054,W,5.1,89.9,160906,15.8,W*63
$INDPT,3.0,0.0*44
$INGGA,194206,4426.1242,N,07140.4033,W,2,10,0.9,266.5,M,,,,*10
$INZDA,194206,16,09,2006,-05,00*72
$INMTW,18.7,C*1A
$INDPT,3.1,0.0*45
$INRMC,194207,A,4426.1242,N,07140.4011,W,5.1,88.4,160906,15.8,W*6C
$INDPT,3.1,0.0*45
$INGLL,4426.1242,N,07140.3995,W,194208,A*2B
$INVTG,88.9,T,104.7,M,5.1,N,9.5,K*6D
$INMTW,18.7,C*1A
$INDPT,2.9,0.0*4C
$INRMC,194209,A,4426.1242,N,07140.3973,W,5.1,89.8,160906,15.8,W*65
$INDPT,2.9,0.0*4C
$INGGA,194210,4426.1242,N,07140.3952,W,2,09,0.9,266.4,M,,,,*17
$INZDA,194210,16,09,2006,-05,00*75
$INMTW,18.6,C*1B
$INDPT,2.9,0.0*4C
$INRMC,194211,A,4426.1242,N,07140.3930,W,5.2,88.3,160906,15.8,W*62
$INDPT,3.1,0.0*45
$INGLL,4426.1242,N,07140.3914,W,194212,A*29
$INVTG,88.6,T,104.4,M,5.2,N,9.6,K*61
$INMTW,18.6,C*1B
$INDPT,3.1,0.0*45
$INRMC,194213,A,4426.1242,N,07140.3892,W,5.1,89.2,160906,15.8,W*6A
$INDPT,3.1,0.0*45
$INGGA,194214,4426.1242,N,07140.3871,W,2,09,0.9,266.3,M,,,,*14
$INZDA,194214,16,09,2006,-05,00*71
$INMTW,18.6,C*1B
$INDPT,3.0,0.0*44
$INRMC,194215,A,4426.1242,N,07140.3849,W,5.2,88.0,160906,15.8,W*6A
$INDPT,3.2,0.0*46
$INGLL,4426.1242,N,07140.3833,W,194216,A*29
$INVTG,87.9,T,103.7,M,5.2,N,9.6,K*65
$INMTW,18.6,C*1B
$INDPT,4.8,0.0*4B
$INRMC,194217,A,4426.1246,N,07140.3812,W,5.2,88.8,160906,15.8,W*6A
$INDPT,2.8,0.0*4D
$INGGA,194218,4426.1246,N,07140.3790,W,2,09,0.9,266.2,M,,,,*1D
$INZDA,194218,16,09,2006,-05,00*7D
$INMTW,18.6,C*1B
$INDPT,2.8,0.0*4D
$INRMC,194219,A,4426.1246,N,07140.3774,W,5.2,88.0,160906,15.8,W*63
$INDPT,2.8,0.0*4D
$INGLL,4426.1246,N,07140.3752,W,194220,A*20
$INVTG,87.4,T,103.1,M,5.2,N,9.6,K*6E
$INMTW,18.5,C*18
$INDPT,2.7,0.0*42
$INRMC,194221,A,4426.1246,N,07140.3731,W,5.1,87.9,160906,15.8,W*6C
$INDPT,2.7,0.0*42
$INGGA,194222,4426.1246,N,07140.3715,W,2,09,0.9,266.1,M,,,,*1A
$INZDA,194222,16,09,2006,-05,00*74
$INMTW,18.4,C*19
$INDPT,2.6,0.0*43
$INRMC,194223,A,4426.1246,N,07140.3693,W,5.1,88.4,160906,15.8,W*65
$INDPT,2.6,0.0*43
$INGLL,4426.1246,N,07140.3671,W,194224,A*24
$INVTG,87.2,T,103.0,M,5.2,N,9.6,K*69
$INMTW,18.5,C*18
$INDPT,2.6,0.0*43
$INRMC,194225,A,4426.1250,N,07140.3650,W,5.2,86.8,160906,15.8,W*6A
$INDPT,2.7,0.0*42
$INGGA,194226,4426.1250,N,07140.3634,W,2,09,0.9,266.0,M,,,,*1A
$INZDA,194226,16,09,2006,-05,00*70
$INMTW,18.4,C*19
$INDPT,2.8,0.0*4D
$INRMC,194227,A,4426.1250,N,07140.3612,W,5.1,87.7,160906,15.8,W*63
$INDPT,2.9,0.0*4C
$INGLL,4426.1250,N,07140.3591,W,194228,A*22
$INVTG,87.4,T,103.2,M,5.1,N,9.5,K*6D
$INMTW,18.6,C*1B
$INDPT,3.0,0.0*44
$INRMC,194229,A,4426.1250,N,07140.3569,W,5.2,87.0,160906,15.8,W*66
$INDPT,2.7,0.0*42
$INGGA,194230,4426.1250,N,07140.3553,W,2,09,0.9,265.9,M,,,,*15
$INZDA,194230,16,09,2006,-05,00*77
$INMTW,18.6,C*1B
$INDPT,2.6,0.0*43
$INRMC,194231,A,4426.1254,N,07140.3531,W,5.1,87.8,160906,15.8,W*6D
$INDPT,2.6,0.0*43
$INGLL,4426.1254,N,07140.3510,W,194232,A*24
$INVTG,86.9,T,102.7,M,5.2,N,9.6,K*65
$INMTW,18.6,C*1B
$INDPT,2.5,0.0*40
$INRMC,194233,A,4426.1254,N,07140.3494,W,5.2,86.7,160906,15.8,W*6C
$INDPT,2.5,0.0*40
$INGGA,194234,4426.1254,N,07140.3472,W,2,09,0.9,265.8,M,,,,*16
$INZDA,194234,16,09,2006,-05,00*73
$INMTW,18.6,C*1B
$INDPT,2.4,0.0*41
$INRMC,194235,A,4426.1254,N,07140.3450,W,5.2,87.4,160906,15.8,W*60
$INDPT,2.4,0.0*41
$INGLL,4426.1258,N,07140.3429,W,194236,A*27
$INVTG,87.4,T,103.2,M,5.2,N,9.6,K*6D
$INMTW,18.6,C*1B
$INDPT,2.4,0.0*41
$INRMC,194237,A,4426.1258,N,07140.3413,W,5.2,86.6,160906,15.8,W*6A
$INDPT,2.5,0.0*40
$INGGA,194238,4426.1258,N,07140.3391,W,2,09,0.9,265.7,M,,,,*13
$INZDA,194238,16,09,2006,-05,00*7F
$INMTW,18.6,C*1B
$INDPT,2.4,0.0*41
$INRMC,194239,A,4426.1258,N,07140.3370,W,5.2,87.3,160906,15.8,W*62
$INDPT,2.6,0.0*43
$INGLL,4426.1258,N,07140.3353,W,194240,A*2C
$INVTG,88.0,T,103.8,M,5.2,N,9.6,K*6C
$INMTW,18.7,C*1A
$INDPT,2.6,0.0*43
$INRMC,194241,A,4426.1261,N,07140.3332,W,5.2,87.7,160906,15.8,W*65
$INDPT,2.7,0.0*42
$INGGA,194242,4426.1261,N,07140.3310,W,2,09,0.9,265.5,M,,,,*1F
$INZDA,194242,16,09,2006,-05,00*72
$INMTW,18.6,C*1B
$INDPT,2.6,0.0*43
$INRMC,194243,A,4426.1261,N,07140.3289,W,5.2,88.0,160906,15.8,W*6E
$INDPT,2.5,0.0*40
$INGLL,4426.1261,N,07140.3267,W,194244,A*24
$INVTG,88.5,T,104.3,M,5.2,N,9.7,K*64
$INMTW,18.6,C*1B
$INDPT,2.4,0.0*41
$INRMC,194245,A,4426.1261,N,07140.3246,W,5.2,88.3,160906,15.8,W*68
$INDPT,2.4,0.0*41
$INGGA,194246,4426.1261,N,07140.3230,W,2,09,0.9,264.9,M,,,,*15
$INZDA,194246,16,09,2006,-05,00*76
$INMTW,18.6,C*1B
$INDPT,2.4,0.0*41
$INRMC,194247,A,4426.1265,N,07140.3208,W,5.2,87.6,160906,15.8,W*6E
$INDPT,2.4,0.0*41
$INGLL,4426.1265,N,07140.3186,W,194248,A*20
$INVTG,88.1,T,103.9,M,5.2,N,9.6,K*6C
$INMTW,18.6,C*1B
$INDPT,2.5,0.0*40
$INRMC,194249,A,4426.1265,N,07140.3165,W,5.2,88.7,160906,15.8,W*66
$INDPT,2.6,0.0*43
$INGGA,194250,4426.1265,N,07140.3149,W,2,09,0.9,263.8,M,,,,*1D
$INZDA,194250,16,09,2006,-05,00*71
$INMTW,18.6,C*1B
$INDPT,2.7,0.0*42
$INRMC,194251,A,4426.1265,N,07140.3127,W,5.2,88.4,160906,15.8,W*6A
$INDPT,2.5,0.0*40
$INGLL,4426.1265,N,07140.3106,W,194252,A*23
$INVTG,87.8,T,103.5,M,5.2,N,9.7,K*67
$INMTW,18.6,C*1B
$INDPT,2.4,0.0*41
$INRMC,194253,A,4426.1265,N,07140.3089,W,5.2,88.3,160906,15.8,W*6A
$INDPT,2.4,0.0*41
$INGGA,194254,4426.1265,N,07140.3068,W,2,09,0.9,262.8,M,,,,*1A
$INZDA,194254,16,09,2006,-05,00*75
$INMTW,18.6,C*1B
$INDPT,2.3,0.0*46
$INRMC,194255,A,4426.1265,N,07140.3046,W,5.2,89.0,160906,15.8,W*6D
$INDPT,2.2,0.0*47
$INGLL,4426.1265,N,07140.3025,W,194256,A*27
$INVTG,88.6,T,104.4,M,5.2,N,9.7,K*60
$INMTW,18.6,C*1B
$INDPT,2.1,0.0*44
$INRMC,194257,A,4426.1265,N,07140.3009,W,5.2,88.6,160906,15.8,W*63
$INDPT,2.1,0.0*44
$INGGA,194258,4426.1265,N,07140.2987,W,2,09,0.9,262.0,M,,,,*17
$INZDA,194258,16,09,2006,-05,00*79
$INMTW,18.6,C*1B
$INDPT,2.3,0.0*46
$INRMC,194259,A,4426.1265,N,07140.2965,W,5.1,89.1,160906,15.8,W*6A
$INDPT,2.4,0.0*41
$INGLL,4426.1265,N,07140.2944,W,194300,A*2A
$INVTG,89.3,T,105.1,M,5.2,N,9.5,K*62
$INMTW,18.6,C*1B
$INDPT,2.4,0.0*41
$INRMC,194301,A,4426.1269,N,07140.2922,W,5.2,89.7,160906,15.8,W*6C
$INDPT,2.4,0.0*41
$INGGA,194302,4426.1269,N,07140.2901,W,2,09,0.9,261.3,M,,,,*1B
$INZDA,194302,16,09,2006,-05,00*77
$INMTW,18.6,C*1B
$INDPT,2.5,0.0*40
$INRMC,194303,A,4426.1269,N,07140.2879,W,5.2,90.3,160906,15.8,W*6D
$INDPT,2.5,0.0*40
$INGLL,4426.1265,N,07140.2863,W,194304,A*2A
$INVTG,91.4,T,107.2,M,5.2,N,9.7,K*6F
$INMTW,18.5,C*18
$INDPT,2.4,0.0*41
$INRMC,194304,A,4426.1265,N,07140.2863,W,5.2,91.4,160906,15.8,W*6B
$INDPT,2.4,0.0*41
$INGGA,194306,4426.1265,N,07140.2820,W,2,09,0.9,261.0,M,,,,*12
$INZDA,194306,16,09,2006,-05,00*73
$INMTW,18.2,C*1F
$INDPT,2.5,0.0*40
$INRMC,194306,A,4426.1265,N,07140.2820,W,5.2,88.5,160906,15.8,W*67
$INDPT,1.9,0.0*4F
$INGLL,4426.1269,N,07140.2782,W,194308,A*2A
$INVTG,87.0,T,102.7,M,5.2,N,9.6,K*6D
$INMTW,18.5,C*18
$INDPT,1.7,0.0*41
$INRMC,194308,A,4426.1269,N,07140.2782,W,5.2,87.0,160906,15.8,W*68
$INDPT,1.6,0.0*40
$INGGA,194310,4426.1269,N,07140.2739,W,2,10,0.9,260.8,M,,,,*1F
$INZDA,194310,16,09,2006,-05,00*74
$INMTW,18.6,C*1B
$INDPT,1.7,0.0*41
$INRMC,194310,A,4426.1269,N,07140.2739,W,5.2,85.4,160906,15.8,W*67
$INDPT,1.8,0.0*4E
$INGLL,4426.1273,N,07140.2701,W,194312,A*21
$INVTG,83.4,T,99.2,M,5.2,N,9.6,K*5B
$INMTW,18.5,C*18
$INDPT,2.0,0.0*45
$INRMC,194312,A,4426.1273,N,07140.2701,W,5.1,83.4,160906,15.8,W*60
$INDPT,1.9,0.0*4F
$INGGA,194314,4426.1277,N,07140.2664,W,2,09,0.9,260.7,M,,,,*1A
$INZDA,194314,16,09,2006,-05,00*70
$INMTW,18.5,C*18
$INDPT,1.7,0.0*41
$INRMC,194314,A,4426.1277,N,07140.2664,W,5.2,84.5,160906,15.8,W*65
$INDPT,1.6,0.0*40
$INGLL,4426.1277,N,07140.2620,W,194316,A*23
$INVTG,83.3,T,99.1,M,5.2,N,9.6,K*5F
$INMTW,18.6,C*1B
$INDPT,1.6,0.0*40
$INRMC,194316,A,4426.1277,N,07140.2620,W,5.1,83.3,160906,15.8,W*65
$INDPT,1.5,0.0*43
$INGGA,194318,4426.1281,N,07140.2583,W,2,09,0.9,260.7,M,,,,*15
$INZDA,194318,16,09,2006,-05,00*7C
$INMTW,18.5,C*18
$INDPT,1.6,0.0*40
$INRMC,194318,A,4426.1281,N,07140.2583,W,5.1,84.5,160906,15.8,W*69
$INDPT,1.7,0.0*41
$INGLL,4426.1285,N,07140.2545,W,194320,A*2B
$INVTG,84.3,T,100.1,M,5.2,N,9.5,K*6A
$INMTW,18.5,C*18
$INDPT,1.7,0.0*41
$INRMC,194320,A,4426.1285,N,07140.2545,W,5.1,84.3,160906,15.8,W*6A
$INDPT,1.7,0.0*41
$INGGA,194322,4426.1288,N,07140.2502,W,2,10,0.9,260.6,M,,,,*15
$INZDA,194322,16,09,2006,-05,00*75
$INMTW,18.5,C*18
$INDPT,1.8,0.0*4E
$INRMC,194322,A,4426.1288,N,07140.2502,W,5.1,84.7,160906,15.8,W*62
$INDPT,2.0,0.0*45
$INGLL,4426.1288,N,07140.2464,W,194324,A*20
$INVTG,84.5,T,100.3,M,5.1,N,9.5,K*6D
$INMTW,18.5,C*18
$INDPT,2.0,0.0*45
$INRMC,194324,A,4426.1288,N,07140.2464,W,5.2,84.5,160906,15.8,W*64
$INDPT,2.2,0.0*47
$INGGA,194326,4426.1292,N,07140.2421,W,2,09,0.9,260.7,M,,,,*13
$INZDA,194326,16,09,2006,-05,00*71
$INMTW,18.4,C*19
$INDPT,2.2,0.0*47
$INRMC,194326,A,4426.1292,N,07140.2421,W,5.2,84.7,160906,15.8,W*6E
$INDPT,2.3,0.0*46
$INGLL,4426.1296,N,07140.2383,W,194328,A*2D
$INVTG,84.7,T,100.5,M,5.2,N,9.7,K*68
$INMTW,18.4,C*19
$INDPT,2.3,0.0*46
$INRMC,194328,A,4426.1296,N,07140.2383,W,5.2,84.7,160906,15.8,W*6B
$INDPT,2.5,0.0*40
$INGGA,194330,4426.1300,N,07140.2346,W,2,09,0.9,260.7,M,,,,*18
$INZDA,194330,16,09,2006,-05,00*76
$INMTW,18.5,C*18
$INDPT,2.6,0.0*43
$INRMC,194330,A,4426.1300,N,07140.2346,W,5.2,84.3,160906,15.8,W*61
$INDPT,2.7,0.0*42
$INGLL,4426.1300,N,07140.2302,W,194332,A*21
$INVTG,85.4,T,101.2,M,5.2,N,9.7,K*6C
$INMTW,18.5,C*18
$INDPT,2.8,0.0*4D
$INRMC,194332,A,4426.1300,N,07140.2302,W,5.2,85.4,160906,15.8,W*65
$INDPT,2.9,0.0*4C
$INGGA,194334,4426.1304,N,07140.2265,W,2,09,0.9,260.7,M,,,,*18
$INZDA,194334,16,09,2006,-05,00*72
$INMTW,18.3,C*1E
$INDPT,3.1,0.0*45
$INRMC,194334,A,4426.1304,N,07140.2265,W,5.2,84.2,160906,15.8,W*60
$INDPT,3.3,0.0*47
$INGLL,4426.1308,N,07140.2222,W,194336,A*2E
$INVTG,84.3,T,100.1,M,5.2,N,9.7,K*68
$INMTW,18.4,C*19
$INDPT,3.3,0.0*47
$INRMC,194336,A,4426.1308,N,07140.2222,W,5.2,84.3,160906,15.8,W*6C
$INDPT,3.6,0.0*42
$INGGA,194338,4426.1308,N,07140.2179,W,2,09,0.9,260.6,M,,,,*17
$INZDA,194338,16,09,2006,-05,00*7E
$INMTW,18.3,C*1E
$INDPT,3.7,0.0*43
$INRMC,194338,A,4426.1308,N,07140.2179,W,5.3,85.1,160906,15.8,W*6D
$INDPT,3.5,0.0*41
$INGLL,4426.1312,N,07140.2141,W,194340,A*22
$INVTG,84.2,T,100.0,M,5.3,N,9.8,K*66
$INMTW,18.3,C*1E
$INDPT,2.3,0.0*46
$INRMC,194340,A,4426.1312,N,07140.2141,W,5.2,84.2,160906,15.8,W*61
$INDPT,2.2,0.0*47
$INGGA,194342,4426.1315,N,07140.2103,W,2,09,0.9,260.6,M,,,,*1B
$INZDA,194342,16,09,2006,-05,00*73
$INMTW,18.2,C*1F
$INDPT,2.3,0.0*46
$INRMC,194342,A,4426.1315,N,07140.2103,W,5.2,84.3,160906,15.8,W*63
$INDPT,2.3,0.0*46
$INGLL,4426.1315,N,07140.2060,W,194344,A*23
$INVTG,84.4,T,100.2,M,5.2,N,9.6,K*6D
$INMTW,18.2,C*1F
$INDPT,2.4,0.0*41
$INRMC,194344,A,4426.1315,N,07140.2060,W,5.1,84.4,160906,15.8,W*65
$INDPT,2.6,0.0*43
$INGGA,194346,4426.1319,N,07140.2022,W,2,09,0.9,260.7,M,,,,*10
$INZDA,194346,16,09,2006,-05,00*77
$INMTW,18.3,C*1E
$INDPT,2.7,0.0*42
$INRMC,194346,A,4426.1319,N,07140.2022,W,5.2,84.2,160906,15.8,W*68
$INDPT,2.1,0.0*44
$INGLL,4426.1323,N,07140.1979,W,194348,A*28
$INVTG,84.7,T,100.5,M,5.2,N,9.7,K*68
$INMTW,18.3,C*1E
$INDPT,2.1,0.0*44
$INRMC,194348,A,4426.1323,N,07140.1979,W,5.3,84.7,160906,15.8,W*6F
$INDPT,2.0,0.0*45
$INGGA,194350,4426.1327,N,07140.1941,W,2,09,0.9,260.7,M,,,,*15
$INZDA,194350,16,09,2006,-05,00*70
$INMTW,18.4,C*19
$INDPT,2.0,0.0*45
$INRMC,194350,A,4426.1327,N,07140.1941,W,5.2,84.7,160906,15.8,W*68
$INDPT,2.3,0.0*46
$INGLL,4426.1327,N,07140.1898,W,194352,A*29
$INVTG,85.0,T,100.8,M,5.2,N,9.6,K*62
$INMTW,18.4,C*19
$INDPT,2.2,0.0*47
$INRMC,194352,A,4426.1327,N,07140.1898,W,5.2,85.0,160906,15.8,W*69
$INDPT,2.1,0.0*44
$INGGA,194354,4426.1331,N,07140.1861,W,2,09,0.9,260.6,M,,,,*14
$INZDA,194354,16,09,2006,-05,00*74
$INMTW,18.3,C*1E
$INDPT,2.1,0.0*44
$INRMC,194354,A,4426.1331,N,07140.1861,W,5.2,81.5,160906,15.8,W*6F
$INDPT,2.1,0.0*44
$INGLL,4426.1335,N,07140.1817,W,194356,A*29
$INVTG,81.8,T,97.6,M,5.2,N,9.6,K*5F
$INMTW,18.4,C*19
$INDPT,2.0,0.0*45
$INRMC,194356,A,4426.1335,N,07140.1817,W,5.2,81.8,160906,15.8,W*65
$INDPT,1.9,0.0*4F
$INGGA,194358,4426.1339,N,07140.1780,W,2,09,0.9,260.7,M,,,,*11
$INZDA,194358,16,09,2006,-05,00*78
$INMTW,18.4,C*19
$INDPT,1.9,0.0*4F
$INRMC,194358,A,4426.1339,N,07140.1780,W,5.2,78.8,160906,15.8,W*60
$INDPT,2.1,0.0*44
$INGLL,4426.1346,N,07140.1737,W,194400,A*24
$INVTG,79.6,T,95.4,M,5.2,N,9.6,K*56
$INMTW,18.4,C*19
$INDPT,2.1,0.0*44
$INRMC,194400,A,4426.1346,N,07140.1737,W,5.2,79.6,160906,15.8,W*61
$INDPT,2.1,0.0*44
$INGGA,194402,4426.1350,N,07140.1699,W,2,09,0.9,260.9,M,,,,*11
$INZDA,194402,16,09,2006,-05,00*70
$INMTW,18.4,C*19
$INDPT,2.1,0.0*44
$INRMC,194402,A,4426.1350,N,07140.1699,W,5.2,75.8,160906,15.8,W*63
$INDPT,2.3,0.0*46
$INGLL,4426.1358,N,07140.1661,W,194404,A*2D
$INVTG,78.1,T,93.9,M,5.2,N,9.5,K*58
$INMTW,18.3,C*1E
$INDPT,2.4,0.0*41
$INRMC,194404,A,4426.1358,N,07140.1661,W,5.2,78.1,160906,15.8,W*6E
$INDPT,2.3,0.0*46
$INGGA,194406,4426.1362,N,07140.1618,W,2,09,0.9,260.9,M,,,,*1D
$INZDA,194406,16,09,2006,-05,00*74
$INMTW,18.3,C*1E
$INDPT,2.3,0.0*46
$INRMC,194406,A,4426.1362,N,07140.1618,W,5.3,79.1,160906,15.8,W*6B
$INDPT,2.3,0.0*46
$INGLL,4426.1370,N,07140.1580,W,194408,A*27
$INVTG,78.7,T,94.5,M,5.3,N,9.8,K*59
$INMTW,18.2,C*1F
$INDPT,2.1,0.0*44
$INRMC,194408,A,4426.1370,N,07140.1580,W,5.2,78.7,160906,15.8,W*62
$INDPT,2.0,0.0*45
$INGGA,194410,4426.1373,N,07140.1537,W,2,09,0.9,261.1,M,,,,*1D
$INZDA,194410,16,09,2006,-05,00*73
$INMTW,18.2,C*1F
$INDPT,2.0,0.0*45
$INRMC,194410,A,4426.1373,N,07140.1537,W,5.2,80.2,160906,15.8,W*66
$INDPT,2.0,0.0*45
$INGLL,4426.1377,N,07140.1499,W,194412,A*22
$INVTG,79.6,T,95.3,M,5.2,N,9.7,K*50
$INMTW,18.1,C*1C
$INDPT,2.3,0.0*46
$INRMC,194412,A,4426.1377,N,07140.1499,W,5.2,79.6,160906,15.8,W*67
$INDPT,2.2,0.0*47
$INGGA,194414,4426.1381,N,07140.1462,W,2,09,0.9,261.1,M,,,,*15
$INZDA,194414,16,09,2006,-05,00*77
$INMTW,18.2,C*1F
$INDPT,1.8,0.0*4E
$INRMC,194414,A,4426.1381,N,07140.1462,W,5.2,79.9,160906,15.8,W*63
$INDPT,1.8,0.0*4E
$INGLL,4426.1389,N,07140.1419,W,194416,A*2F
$INVTG,80.2,T,96.0,M,5.2,N,9.7,K*52
$INMTW,18.1,C*1C
$INDPT,1.8,0.0*4E
$INRMC,194416,A,4426.1389,N,07140.1419,W,5.2,80.2,160906,15.8,W*68
$INDPT,2.0,0.0*45
$INGGA,194418,4426.1393,N,07140.1381,W,2,10,0.9,261.1,M,,,,*18
$INZDA,194418,16,09,2006,-05,00*7B
$INMTW,18.0,C*1D
$INDPT,2.1,0.0*44
$INRMC,194418,A,4426.1393,N,07140.1381,W,5.2,81.2,160906,15.8,W*6A
$INDPT,2.3,0.0*46
$INGLL,4426.1397,N,07140.1338,W,194420,A*21
$INVTG,81.6,T,97.4,M,5.2,N,9.6,K*53
$INMTW,18.1,C*1C
$INDPT,1.9,0.0*4F
$INRMC,194420,A,4426.1397,N,07140.1338,W,5.2,81.6,160906,15.8,W*63
$INDPT,1.9,0.0*4F
$INGGA,194422,4426.1400,N,07140.1300,W,2,10,1.1,261.4,M,,,,*19
$INZDA,194422,16,09,2006,-05,00*72
$INMTW,17.9,C*1B
$INDPT,1.9,0.0*4F
$INRMC,194422,A,4426.1400,N,07140.1300,W,5.2,80.4,160906,15.8,W*60
$INDPT,1.9,0.0*4F
$INGLL,4426.1404,N,07140.1257,W,194424,A*20
$INVTG,80.0,T,95.8,M,5.2,N,9.6,K*5A
$INMTW,18.0,C*1D
$INDPT,2.0,0.0*45
$INRMC,194424,A,4426.1404,N,07140.1257,W,5.2,80.0,160906,15.8,W*65
$INDPT,2.1,0.0*44
$INGGA,194426,4426.1412,N,07140.1219,W,2,10,0.9,261.4,M,,,,*1E
$INZDA,194426,16,09,2006,-05,00*76
$INMTW,17.9,C*1B
$INDPT,2.1,0.0*44
$INRMC,194426,A,4426.1412,N,07140.1219,W,5.2,79.4,160906,15.8,W*68
$INDPT,1.9,0.0*4F
$INGLL,4426.1416,N,07140.1181,W,194428,A*27
$INVTG,78.2,T,93.9,M,5.2,N,9.7,K*59
$INMTW,17.9,C*1B
$INDPT,1.9,0.0*4F
$INRMC,194428,A,4426.1416,N,07140.1181,W,5.2,78.2,160906,15.8,W*67
$INDPT,1.9,0.0*4F
$INGGA,194430,4426.1424,N,07140.1138,W,2,10,0.9,261.3,M,,,,*1B
$INZDA,194430,16,09,2006,-05,00*71
$INMTW,17.9,C*1B
$INDPT,2.0,0.0*45
$INRMC,194430,A,4426.1424,N,07140.1138,W,5.2,78.4,160906,15.8,W*6B
$INDPT,2.0,0.0*45
$INGLL,4426.1431,N,07140.1101,W,194432,A*21
$INVTG,76.1,T,91.8,M,5.2,N,9.7,K*57
$INMTW,17.9,C*1B
$INDPT,2.1,0.0*44
$INRMC,194432,A,4426.1431,N,07140.1101,W,5.2,76.1,160906,15.8,W*6C
$INDPT,2.1,0.0*44
$INGGA,194434,4426.1435,N,07140.1063,W,2,10,0.9,261.5,M,,,,*16
$INZDA,194434,16,09,2006,-05,00*75
$INMTW,17.9,C*1B
$INDPT,2.2,0.0*47
$INRMC,194434,A,4426.1435,N,07140.1063,W,5.2,75.9,160906,15.8,W*60
$INDPT,2.1,0.0*44
$INGLL,4426.1443,N,07140.1020,W,194436,A*22
$INVTG,75.1,T,90.9,M,5.2,N,9.6,K*55
$INMTW,18.0,C*1D
$INDPT,2.1,0.0*44
$INRMC,194436,A,4426.1443,N,07140.1020,W,5.2,75.1,160906,15.8,W*6C
$INDPT,2.1,0.0*44
$INGGA,194438,4426.1451,N,07140.0982,W,2,10,0.9,261.7,M,,,,*1D
$INZDA,194438,16,09,2006,-05,00*79
$INMTW,17.9,C*1B
$INDPT,1.5,0.0*43
$INRMC,194438,A,4426.1451,N,07140.0982,W,5.1,74.2,160906,15.8,W*60
$INDPT,1.5,0.0*43
$INGLL,4426.1458,N,07140.0944,W,194440,A*23
$INVTG,73.9,T,89.7,M,5.1,N,9.5,K*5D
$INMTW,17.9,C*1B
$INDPT,1.5,0.0*43
$INRMC,194440,A,4426.1458,N,07140.0944,W,5.2,73.9,160906,15.8,W*63
$INDPT,1.5,0.0*43
$INGGA,194442,4426.1466,N,07140.0907,W,2,09,1.1,261.7,M,,,,*18
$INZDA,194442,16,09,2006,-05,00*74
$INMTW,17.9,C*1B
$INDPT,1.5,0.0*43
$INRMC,194442,A,4426.1466,N,07140.0907,W,5.1,73.5,160906,15.8,W*64
$INDPT,1.5,0.0*43
$INGLL,4426.1474,N,07140.0869,W,194444,A*27
$INVTG,73.2,T,89.0,M,5.1,N,9.5,K*51
$INMTW,17.9,C*1B
$INDPT,1.6,0.0*40
$INRMC,194444,A,4426.1474,N,07140.0869,W,5.1,73.2,160906,15.8,W*6F
$INDPT,1.7,0.0*41
$INGGA,194446,4426.1482,N,07140.0831,W,2,10,1.1,261.8,M,,,,*15
$INZDA,194446,16,09,2006,-05,00*70
$INMTW,17.8,C*1A
$INDPT,1.6,0.0*40
$INRMC,194446,A,4426.1482,N,07140.0831,W,5.1,71.7,160906,15.8,W*6E
$INDPT,1.7,0.0*41
$INGLL,4426.1493,N,07140.0793,W,194448,A*28
$INVTG,72.0,T,87.8,M,5.1,N,9.5,K*54
$INMTW,17.9,C*1B
$INDPT,1.8,0.0*4E
$INRMC,194448,A,4426.1493,N,07140.0793,W,5.2,72.0,160906,15.8,W*60
$INDPT,1.8,0.0*4E
$INGGA,194450,4426.1501,N,07140.0756,W,2,10,1.1,261.9,M,,,,*17
$INZDA,194450,16,09,2006,-05,00*77
$INMTW,17.9,C*1B
$INDPT,1.9,0.0*4F
$INRMC,194450,A,4426.1501,N,07140.0756,W,5.2,70.4,160906,15.8,W*6C
$INDPT,1.8,0.0*4E
$INGLL,4426.1512,N,07140.0718,W,194452,A*28
$INVTG,70.7,T,86.5,M,5.2,N,9.6,K*5D
$INMTW,17.9,C*1B
$INDPT,1.9,0.0*4F
$INRMC,194452,A,4426.1512,N,07140.0718,W,5.2,70.7,160906,15.8,W*65
$INDPT,1.8,0.0*4E
$INGGA,194454,4426.1520,N,07140.0680,W,2,11,0.9,261.9,M,,,,*12
$INZDA,194454,16,09,2006,-05,00*73
$INMTW,17.9,C*1B
$INDPT,1.9,0.0*4F
$INRMC,194454,A,4426.1520,N,07140.0680,W,5.3,69.4,160906,15.8,W*68
$INDPT,2.0,0.0*45
$INGLL,4426.1532,N,07140.0642,W,194456,A*20
$INVTG,68.7,T,84.5,M,5.3,N,9.7,K*56
$INMTW,17.9,C*1B
$INDPT,1.9,0.0*4F
$INRMC,194456,A,4426.1532,N,07140.0642,W,5.2,68.7,160906,15.8,W*64
$INDPT,1.8,0.0*4E
$INGGA,194458,4426.1543,N,07140.0605,W,2,10,1.1,262.0,M,,,,*14
$INZDA,194458,16,09,2006,-05,00*7F
$INMTW,17.9,C*1B
$INDPT,1.8,0.0*4E
$INRMC,194458,A,4426.1543,N,07140.0605,W,5.3,68.4,160906,15.8,W*6D
$INDPT,1.9,0.0*4F
$INGLL,4426.1555,N,07140.0567,W,194500,A*27
$INVTG,67.8,T,83.6,M,5.3,N,9.8,K*5D
$INMTW,17.9,C*1B
$INDPT,1.9,0.0*4F
$INRMC,194500,A,4426.1555,N,07140.0567,W,5.2,67.8,160906,15.8,W*63
$INDPT,1.9,0.0*4F
$INGGA,194502,4426.1563,N,07140.0529,W,2,10,1.1,262.0,M,,,,*15
$INZDA,194502,16,09,2006,-05,00*71
$INMTW,17.8,C*1A
$INDPT,1.9,0.0*4F
$INRMC,194502,A,4426.1563,N,07140.0529,W,5.2,68.6,160906,15.8,W*6F
$INDPT,1.9,0.0*4F
$INGLL,4426.1574,N,07140.0492,W,194504,A*2B
$INVTG,67.6,T,83.4,M,5.2,N,9.7,K*5F
$INMTW,17.8,C*1A
$INDPT,1.9,0.0*4F
$INRMC,194504,A,4426.1574,N,07140.0492,W,5.2,67.6,160906,15.8,W*61
$INDPT,1.8,0.0*4E
$INGGA,194506,4426.1586,N,07140.0454,W,2,10,1.1,261.9,M,,,,*1B
$INZDA,194506,16,09,2006,-05,00*75
$INMTW,17.7,C*15
$INDPT,1.8,0.0*4E
$INRMC,194506,A,4426.1586,N,07140.0454,W,5.3,68.6,160906,15.8,W*6A
$INDPT,1.8,0.0*4E
$INGLL,4426.1597,N,07140.0416,W,194508,A*26
$INVTG,68.2,T,84.0,M,5.3,N,9.7,K*56
$INMTW,17.8,C*1A
$INDPT,1.9,0.0*4F
$INRMC,194508,A,4426.1597,N,07140.0416,W,5.2,68.2,160906,15.8,W*67
$INDPT,1.9,0.0*4F
$INGGA,194510,4426.1609,N,07140.0378,W,2,10,1.1,262.0,M,,,,*1B
$INZDA,194510,16,09,2006,-05,00*72
$INMTW,17.9,C*1B
$INDPT,1.6,0.0*40
$INRMC,194510,A,4426.1609,N,07140.0378,W,5.2,68.1,160906,15.8,W*66
$INDPT,1.6,0.0*40
$INGLL,4426.1617,N,07140.0341,W,194512,A*23
$INVTG,68.0,T,83.8,M,5.2,N,9.7,K*5A
$INMTW,17.8,C*1A
$INDPT,1.7,0.0*41
$INRMC,194512,A,4426.1617,N,07140.0341,W,5.2,68.0,160906,15.8,W*60
$INDPT,1.7,0.0*41
$INGGA,194514,4426.1628,N,07140.0303,W,2,10,1.1,262.0,M,,,,*10
$INZDA,194514,16,09,2006,-05,00*76
$INMTW,17.8,C*1A
$INDPT,1.8,0.0*4E
$INRMC,194514,A,4426.1628,N,07140.0303,W,5.2,67.6,160906,15.8,W*65
$INDPT,1.9,0.0*4F
$INGLL,4426.1636,N,07140.0281,W,194515,A*2A
$INVTG,67.5,T,83.3,M,5.2,N,9.6,K*5A
$INMTW,17.9,C*1B
$INDPT,1.6,0.0*40
$INRMC,194516,A,4426.1640,N,07140.0265,W,5.2,68.1,160906,15.8,W*60
$INDPT,1.6,0.0*40
$INGGA,194517,4426.1644,N,07140.0244,W,2,10,1.1,262.0,M,,,,*1B
$INZDA,194517,16,09,2006,-05,00*75
$INMTW,17.7,C*15
$INDPT,1.6,0.0*40
$INRMC,194518,A,4426.1651,N,07140.0227,W,5.2,69.2,160906,15.8,W*6A
$INDPT,1.6,0.0*40
$INGLL,4426.1655,N,07140.0206,W,194519,A*2C
$INVTG,69.0,T,84.8,M,5.2,N,9.7,K*5C
$INMTW,17.9,C*1B
$INDPT,1.7,0.0*41
$INRMC,194520,A,4426.1663,N,07140.0190,W,5.2,68.6,160906,15.8,W*6A
$INDPT,1.7,0.0*41
$INGGA,194521,4426.1667,N,07140.0168,W,2,10,1.1,261.9,M,,,,*18
$INZDA,194521,16,09,2006,-05,00*70
$INMTW,17.9,C*1B
$INDPT,1.8,0.0*4E
$INRMC,194522,A,4426.1671,N,07140.0152,W,5.2,69.5,160906,15.8,W*67
$INDPT,1.6,0.0*40
$INGLL,4426.1678,N,07140.0136,W,194523,A*2A
$INVTG,69.4,T,85.2,M,5.2,N,9.6,K*52
$INMTW,17.9,C*1B
$INDPT,1.5,0.0*43
$INRMC,194524,A,4426.1682,N,07140.0114,W,5.2,68.7,160906,15.8,W*6C
$INDPT,1.6,0.0*40
$INGGA,194525,4426.1686,N,07140.0098,W,2,10,1.1,261.8,M,,,,*1C
$INZDA,194525,16,09,2006,-05,00*74
$INMTW,17.9,C*1B
$INDPT,1.7,0.0*41
$INRMC,194526,A,4426.1694,N,07140.0077,W,5.1,69.4,160906,15.8,W*6C
$INDPT,1.9,0.0*4F
$INGLL,4426.1698,N,07140.0060,W,194527,A*22
$INVTG,70.2,T,86.0,M,5.1,N,9.5,K*5D
$INMTW,17.8,C*1A
$INDPT,1.9,0.0*4F
$INRMC,194528,A,4426.1702,N,07140.0039,W,5.2,70.5,160906,15.8,W*6C
$INDPT,1.4,0.0*42
$INGGA,194529,4426.1705,N,07140.0023,W,2,11,0.9,261.8,M,,,,*12
$INZDA,194529,16,09,2006,-05,00*78
$INMTW,17.8,C*1A
$INDPT,1.3,0.0*45
$INRMC,194530,A,4426.1713,N,07140.0001,W,5.2,69.8,160906,15.8,W*6B
$INDPT,1.3,0.0*45
$INGLL,4426.1717,N,07139.9985,W,194531,A*26
$INVTG,70.1,T,85.8,M,5.2,N,9.6,K*55
$INMTW,17.6,C*14
$INDPT,1.4,0.0*42
$INRMC,194532,A,4426.1721,N,07139.9963,W,5.1,71.0,160906,15.8,W*60
$INDPT,1.4,0.0*42
$INGGA,194533,4426.1725,N,07139.9947,W,2,11,0.9,261.6,M,,,,*19
$INZDA,194533,16,09,2006,-05,00*73
$INMTW,17.6,C*14
$INDPT,1.4,0.0*42
$INRMC,194534,A,4426.1729,N,07139.9926,W,5.1,71.6,160906,15.8,W*69
$INDPT,1.5,0.0*43
$INGLL,4426.1736,N,07139.9909,W,194535,A*25
$INVTG,71.0,T,86.8,M,5.1,N,9.5,K*56
$INMTW,17.6,C*14
$INDPT,1.5,0.0*43
$INRMC,194536,A,4426.1740,N,07139.9888,W,5.1,70.9,160906,15.8,W*6F
$INDPT,1.5,0.0*43
$INGGA,194537,4426.1744,N,07139.9872,W,2,11,0.9,261.6,M,,,,*1D
$INZDA,194537,16,09,2006,-05,00*77
$INMTW,17.6,C*14
$INDPT,1.6,0.0*40
$INRMC,194538,A,4426.1748,N,07139.9850,W,5.2,73.3,160906,15.8,W*66
$INDPT,1.8,0.0*4E
$INGLL,4426.1752,N,07139.9834,W,194539,A*24
$INVTG,71.8,T,87.6,M,5.2,N,9.7,K*50
$INMTW,17.5,C*17
$INDPT,1.9,0.0*4F
$INRMC,194540,A,4426.1756,N,07139.9812,W,5.3,69.1,160906,15.8,W*68
$INDPT,1.9,0.0*4F
$INGGA,194541,4426.1763,N,07139.9796,W,2,11,0.9,261.5,M,,,,*1F
$INZDA,194541,16,09,2006,-05,00*76
$INMTW,17.6,C*14
$INDPT,1.4,0.0*42
$INRMC,194542,A,4426.1767,N,07139.9775,W,5.2,67.7,160906,15.8,W*6F
$INDPT,1.5,0.0*43
$INGLL,4426.1775,N,07139.9759,W,194543,A*28
$INVTG,67.9,T,83.7,M,5.2,N,9.6,K*52
$INMTW,17.5,C*17
$INDPT,1.6,0.0*40
$INRMC,194544,A,4426.1779,N,07139.9737,W,5.2,67.3,160906,15.8,W*64
$INDPT,1.7,0.0*41
$INGGA,194545,4426.1787,N,07139.9721,W,2,11,0.9,261.3,M,,,,*1B
$INZDA,194545,16,09,2006,-05,00*72
$INMTW,17.5,C*17
$INDPT,1.7,0.0*41
$INRMC,194546,A,4426.1790,N,07139.9705,W,5.1,65.9,160906,15.8,W*6B
$INDPT,1.7,0.0*41
$INGLL,4426.1798,N,07139.9683,W,194547,A*29
$INVTG,65.6,T,81.4,M,5.1,N,9.5,K*5E
$INMTW,17.5,C*17
$INDPT,1.8,0.0*4E
$INRMC,194548,A,4426.1802,N,07139.9667,W,5.2,64.8,160906,15.8,W*67
$INDPT,1.9,0.0*4F
$INGGA,194549,4426.1810,N,07139.9651,W,2,11,0.9,261.3,M,,,,*10
$INZDA,194549,16,09,2006,-05,00*7E
$INMTW,17.5,C*17
$INDPT,1.7,0.0*41
$INRMC,194550,A,4426.1817,N,07139.9629,W,5.2,63.6,160906,15.8,W*69
$INDPT,1.7,0.0*41
$INGLL,4426.1825,N,07139.9613,W,194551,A*2E
$INVTG,63.3,T,79.1,M,5.2,N,9.7,K*5E
$INMTW,17.5,C*17
$INDPT,1.6,0.0*40
$INRMC,194552,A,4426.1829,N,07139.9597,W,5.2,62.8,160906,15.8,W*6F
$INDPT,1.6,0.0*40
$INGGA,194553,4426.1837,N,07139.9575,W,2,11,0.9,261.2,M,,,,*1A
$INZDA,194553,16,09,2006,-05,00*75
$INMTW,17.5,C*17
$INDPT,1.7,0.0*41
$INRMC,194554,A,4426.1844,N,07139.9559,W,5.2,61.3,160906,15.8,W*68
$INDPT,1.8,0.0*4E
$INGLL,4426.1852,N,07139.9543,W,194555,A*2C
$INVTG,61.6,T,77.4,M,5.1,N,9.5,K*53
$INMTW,17.4,C*16
$INDPT,1.8,0.0*4E
$INRMC,194556,A,4426.1860,N,07139.9527,W,5.1,62.3,160906,15.8,W*65
$INDPT,1.9,0.0*4F
$INGGA,194557,4426.1864,N,07139.9505,W,2,11,0.9,261.1,M,,,,*1C
$INZDA,194557,16,09,2006,-05,00*71
$INMTW,17.5,C*17
$INDPT,2.0,0.0*45
$INRMC,194558,A,4426.1872,N,07139.9489,W,5.2,62.5,160906,15.8,W*68
$INDPT,2.0,0.0*45
$INGLL,4426.1879,N,07139.9473,W,194559,A*2B
$INVTG,61.9,T,77.7,M,5.2,N,9.7,K*5E
$INMTW,17.6,C*14
$INDPT,1.6,0.0*40
$INRMC,194600,A,4426.1887,N,07139.9451,W,5.2,61.4,160906,15.8,W*6B
$INDPT,1.6,0.0*40
$INGGA,194601,4426.1895,N,07139.9435,W,2,11,0.9,261.1,M,,,,*10
$INZDA,194601,16,09,2006,-05,00*71
$INMTW,17.5,C*17
$INDPT,1.7,0.0*41
$INRMC,194602,A,4426.1899,N,07139.9419,W,5.2,62.4,160906,15.8,W*69
$INDPT,1.6,0.0*40
$INGLL,4426.1906,N,07139.9403,W,194603,A*29
$INVTG,62.3,T,78.1,M,5.1,N,9.5,K*5F
$INMTW,17.5,C*17
$INDPT,1.6,0.0*40
$INRMC,194604,A,4426.1914,N,07139.9387,W,5.1,61.9,160906,15.8,W*66
$INDPT,1.6,0.0*40
$INGGA,194605,4426.1922,N,07139.9365,W,2,11,0.9,261.0,M,,,,*1A
$INZDA,194605,16,09,2006,-05,00*75
$INMTW,17.6,C*14
$INDPT,1.7,0.0*41
$INRMC,194606,A,4426.1926,N,07139.9349,W,5.1,62.0,160906,15.8,W*6D
$INDPT,1.7,0.0*41
$INGLL,4426.1933,N,07139.9333,W,194607,A*2F
$INVTG,62.6,T,78.4,M,5.1,N,9.5,K*5F
$INMTW,17.6,C*14
$INDPT,1.7,0.0*41
$INRMC,194608,A,4426.1941,N,07139.9311,W,5.2,62.6,160906,15.8,W*6A
$INDPT,1.7,0.0*41
$INGGA,194609,4426.1949,N,07139.9295,W,2,11,0.9,260.9,M,,,,*1D
$INZDA,194609,16,09,2006,-05,00*79
$INMTW,17.5,C*17
$INDPT,1.8,0.0*4E
$INRMC,194610,A,4426.1953,N,07139.9279,W,5.1,62.0,160906,15.8,W*6A
$INDPT,1.8,0.0*4E
$INGLL,4426.1960,N,07139.9263,W,194611,A*2A
$INVTG,62.3,T,78.1,M,5.1,N,9.5,K*5F
$INMTW,17.4,C*16
$INDPT,1.9,0.0*4F
$INRMC,194612,A,4426.1968,N,07139.9241,W,5.1,62.3,160906,15.8,W*68
$INDPT,1.8,0.0*4E
$INGGA,194613,4426.1976,N,07139.9225,W,2,11,0.9,260.9,M,,,,*11
$INZDA,194613,16,09,2006,-05,00*72
$INMTW,17.4,C*16
$INDPT,1.9,0.0*4F
$INRMC,194614,A,4426.1980,N,07139.9209,W,5.2,63.0,160906,15.8,W*65
$INDPT,2.0,0.0*45
$INGLL,4426.1987,N,07139.9187,W,194615,A*2E
$INVTG,63.2,T,79.0,M,5.2,N,9.6,K*5F
$INMTW,17.4,C*16
$INDPT,1.6,0.0*40
$INRMC,194616,A,4426.1995,N,07139.9171,W,5.1,63.3,160906,15.8,W*6F
$INDPT,1.7,0.0*41
$INGGA,194617,4426.1999,N,07139.9155,W,2,11,0.9,260.8,M,,,,*11
$INZDA,194617,16,09,2006,-05,00*76
$INMTW,17.4,C*16
$INDPT,1.8,0.0*4E
$INRMC,194618,A,4426.2007,N,07139.9139,W,5.2,62.6,160906,15.8,W*6B
$INDPT,1.9,0.0*4F
$INGLL,4426.2014,N,07139.9117,W,194619,A*2B
$INVTG,63.1,T,78.9,M,5.1,N,9.5,K*54
$INMTW,17.2,C*10
$INDPT,1.6,0.0*40
$INRMC,194620,A,4426.2018,N,07139.9101,W,5.1,62.8,160906,15.8,W*68
$INDPT,1.7,0.0*41
$INGGA,194621,4426.2026,N,07139.9085,W,2,11,0.9,260.8,M,,,,*16
$INZDA,194621,16,09,2006,-05,00*73
$INMTW,17.4,C*16
$INDPT,1.8,0.0*4E
$INRMC,194622,A,4426.2034,N,07139.9063,W,5.2,62.6,160906,15.8,W*6C
$INDPT,1.9,0.0*4F
$INGLL,4426.2038,N,07139.9047,W,194623,A*28
$INVTG,62.5,T,78.2,M,5.2,N,9.6,K*5A
$INMTW,17.4,C*16
$INDPT,1.7,0.0*41
$INRMC,194624,A,4426.2045,N,07139.9031,W,5.2,62.5,160906,15.8,W*68
$INDPT,1.6,0.0*40
$INGGA,194625,4426.2053,N,07139.9009,W,2,11,0.9,260.8,M,,,,*14
$INZDA,194625,16,09,2006,-05,00*77
$INMTW,17.4,C*16
$INDPT,1.7,0.0*41
$INRMC,194626,A,4426.2061,N,07139.8993,W,5.1,61.5,160906,15.8,W*6C
$INDPT,1.7,0.0*41
$INGLL,4426.2068,N,07139.8977,W,194627,A*22
$INVTG,61.6,T,77.4,M,5.2,N,9.6,K*53
$INMTW,17.4,C*16
$INDPT,1.7,0.0*41
$INRMC,194628,A,4426.2072,N,07139.8961,W,5.1,62.2,160906,15.8,W*69
$INDPT,1.7,0.0*41
$INGGA,194629,4426.2080,N,07139.8945,W,2,11,0.9,260.5,M,,,,*1B
$INZDA,194629,16,09,2006,-05,00*7B
$INMTW,17.3,C*11
$INDPT,1.9,0.0*4F
$INRMC,194630,A,4426.2088,N,07139.8923,W,5.2,62.2,160906,15.8,W*60
$INDPT,1.9,0.0*4F
