$GPGGA,051133.000,4744.6977,N,12206.7277,W,1,05,1.9,136.4,M,-17.1,M,18.8,0000*7D
{"class":"TPV","tag":"GGA","mode":3,"lat":47.744961667,"lon":-122.112128333,"alt":136.400}
$GPGSA,A,3,12,25,21,29,30,,,,,,,,2.6,1.9,1.8*38
{"class":"TPV","tag":"GSA","mode":3,"lat":47.744961667,"lon":-122.112128333,"alt":136.400,"epv":41.400}
$GPZDA,051134.000,04,07,2012,,*56
$GPGGA,051134.000,4744.6980,N,12206.7275,W,1,05,1.9,135.4,M,-17.1,M,18.8,0000*73
{"class":"TPV","tag":"GGA","mode":3,"time":"2012-07-04T05:11:34.000Z","ept":0.005,"lat":47.744966667,"lon":-122.112125000,"alt":135.400,"epv":41.400,"speed":0.000,"climb":0.000}
$GPGSA,A,3,12,25,21,29,30,,,,,,,,2.6,1.9,1.8*38
$GPZDA,051135.000,04,07,2012,,*57
$GPGGA,051135.000,4744.6981,N,12206.7273,W,1,05,1.9,134.7,M,-17.1,M,18.8,0000*77
{"class":"TPV","tag":"GGA","mode":3,"time":"2012-07-04T05:11:35.000Z","ept":0.005,"lat":47.744968333,"lon":-122.112121667,"alt":134.700,"epv":41.400,"speed":0.000,"climb":0.000}
$GPGSA,A,3,12,25,21,29,30,,,,,,,,2.6,1.9,1.8*38
$GPZDA,051136.000,04,07,2012,,*54
$GPGGA,051136.000,4744.6980,N,12206.7271,W,1,05,1.9,134.2,M,-17.1,M,18.8,0000*72
{"class":"TPV","tag":"GGA","mode":3,"time":"2012-07-04T05:11:36.000Z","ept":0.005,"lat":47.744966667,"lon":-122.112118333,"alt":134.200,"epv":41.400,"speed":0.000,"climb":0.000}
$GPGSA,A,3,12,25,21,29,30,,,,,,,,2.6,1.9,1.8*38
$GPZDA,051137.000,04,07,2012,,*55
$GPGGA,051137.000,4744.6980,N,12206.7274,W,1,05,1.9,134.7,M,-17.1,M,18.8,0000*73
{"class":"TPV","tag":"GGA","mode":3,"time":"2012-07-04T05:11:37.000Z","ept":0.005,"lat":47.744966667,"lon":-122.112123333,"alt":134.700,"epv":41.400,"speed":0.000,"climb":0.000}
$GPGSA,A,3,12,25,21,29,30,,,,,,,,2.6,1.9,1.8*38
$GPZDA,051138.000,04,07,2012,,*5A
$GPGGA,051138.000,4744.6981,N,12206.7278,W,1,05,1.9,135.6,M,-17.1,M,18.8,0000*71
{"class":"TPV","tag":"GGA","mode":3,"time":"2012-07-04T05:11:38.000Z","ept":0.005,"lat":47.744968333,"lon":-122.112130000,"alt":135.600,"epv":41.400,"speed":0.000,"climb":0.000}
$GPGSA,A,3,12,25,21,29,30,,,,,,,,2.6,1.9,1.8*38
$GPZDA,051139.000,04,07,2012,,*5B
$GPGGA,051139.000,4744.6981,N,12206.7281,W,1,05,1.9,136.3,M,-17.1,M,18.8,0000*70
{"class":"TPV","tag":"GGA","mode":3,"time":"2012-07-04T05:11:39.000Z","ept":0.005,"lat":47.744968333,"lon":-122.112135000,"alt":136.300,"epv":41.400,"speed":0.000,"climb":0.000}
$GPGSA,A,3,12,25,21,29,30,,,,,,,,2.6,1.9,1.8*38
$GPZDA,051140.000,04,07,2012,,*55
$GPGGA,051140.000,4744.6982,N,12206.7285,W,1,05,1.9,137.1,M,-17.1,M,18.8,0000*7A
{"class":"TPV","tag":"GGA","mode":3,"time":"2012-07-04T05:11:40.000Z","ept":0.005,"lat":47.744970000,"lon":-122.112141667,"alt":137.100,"epv":41.400,"speed":0.000,"climb":0.000}
$GPGSA,A,3,12,25,21,29,30,,,,,,,,2.6,1.9,1.8*38
$GPZDA,051141.000,04,07,2012,,*54
$GPGGA,051141.000,4744.6982,N,12206.7287,W,1,05,1.9,137.7,M,-17.1,M,18.8,0000*7F
{"class":"TPV","tag":"GGA","mode":3,"time":"2012-07-04T05:11:41.000Z","ept":0.005,"lat":47.744970000,"lon":-122.112145000,"alt":137.700,"epv":41.400,"speed":0.000,"climb":0.000}
$GPGSA,A,3,12,25,21,29,30,,,,,,,,2.6,1.9,1.8*38
$GPZDA,051142.000,04,07,2012,,*57
$GPGGA,051142.000,4744.6982,N,12206.7289,W,1,05,1.9,138.0,M,-17.1,M,18.8,0000*7A
{"class":"TPV","tag":"GGA","mode":3,"time":"2012-07-04T05:11:42.000Z","ept":0.005,"lat":47.744970000,"lon":-122.112148333,"alt":138.000,"epv":41.400,"speed":0.000,"climb":0.000}
$GPGSA,A,3,12,25,21,29,30,,,,,,,,2.6,1.9,1.8*38
$GPZDA,051143.000,04,07,2012,,*56
$GPGGA,051143.000,4744.6982,N,12206.7290,W,1,05,1.9,138.2,M,-17.1,M,18.8,0000*71
{"class":"TPV","tag":"GGA","mode":3,"time":"2012-07-04T05:11:43.000Z","ept":0.005,"lat":47.744970000,"lon":-122.112150000,"alt":138.200,"epv":41.400,"speed":0.000,"climb":0.000}
$GPGSA,A,3,12,25,21,29,30,,,,,,,,2.6,1.9,1.8*38
$GPZDA,051144.000,04,07,2012,,*51
$GPGGA,051144.000,4744.6982,N,12206.7292,W,1,05,1.9,138.8,M,-17.1,M,18.8,0000*7E
{"class":"TPV","tag":"GGA","mode":3,"time":"2012-07-04T05:11:44.000Z","ept":0.005,"lat":47.744970000,"lon":-122.112153333,"alt":138.800,"epv":41.400,"speed":0.000,"climb":0.000}
$GPGSA,A,3,12,25,21,29,30,,,,,,,,2.6,1.9,1.8*38
$GPZDA,051145.000,04,07,2012,,*50
$GPGGA,051145.000,4744.6983,N,12206.7293,W,1,05,1.9,138.8,M,-17.1,M,18.8,0000*7F
{"class":"TPV","tag":"GGA","mode":3,"time":"2012-07-04T05:11:45.000Z","ept":0.005,"lat":47.744971667,"lon":-122.112155000,"alt":138.800,"epv":41.400,"speed":0.000,"climb":0.000}
$GPGSA,A,3,12,25,21,29,30,,,,,,,,2.6,1.9,1.8*38
$GPZDA,051146.000,04,07,2012,,*53
$GPGGA,051146.000,4744.6984,N,12206.7294,W,1,05,1.9,138.8,M,-17.1,M,18.8,0000*7C
{"class":"TPV","tag":"GGA","mode":3,"time":"2012-07-04T05:11:46.000Z","ept":0.005,"lat":47.744973333,"lon":-122.112156667,"alt":138.800,"epv":41.400,"speed":0.000,"climb":0.000}
$GPGSA,A,3,12,25,21,29,30,,,,,,,,2.6,1.9,1.8*38
$GPZDA,051147.000,04,07,2012,,*52
$GPGGA,051147.000,4744.6984,N,12206.7294,W,1,05,1.9,138.7,M,-17.1,M,18.8,0000*72
{"class":"TPV","tag":"GGA","mode":3,"time":"2012-07-04T05:11:47.000Z","ept":0.005,"lat":47.744973333,"lon":-122.112156667,"alt":138.700,"epv":41.400,"speed":0.000,"climb":0.000}
$GPGSA,A,3,12,25,21,29,30,,,,,,,,2.6,1.9,1.8*38
$GPZDA,051148.000,04,07,2012,,*5D
$GPGGA,051148.000,4744.6984,N,12206.7294,W,1,05,1.9,138.7,M,-17.1,M,18.8,0000*7D
{"class":"TPV","tag":"GGA","mode":3,"time":"2012-07-04T05:11:48.000Z","ept":0.005,"lat":47.744973333,"lon":-122.112156667,"alt":138.700,"epv":41.400,"speed":0.000,"climb":0.000}
$GPGSA,A,3,12,25,21,29,30,,,,,,,,2.6,1.9,1.8*38
$GPZDA,051149.000,04,07,2012,,*5C
$GPGGA,051149.000,4744.6984,N,12206.7295,W,1,05,1.9,138.9,M,-17.1,M,18.8,0000*73
{"class":"TPV","tag":"GGA","mode":3,"time":"2012-07-04T05:11:49.000Z","ept":0.005,"lat":47.744973333,"lon":-122.112158333,"alt":138.900,"epv":41.400,"speed":0.000,"climb":0.000}
$GPGSA,A,3,12,25,21,29,30,,,,,,,,2.6,1.9,1.8*38
$GPZDA,051150.000,04,07,2012,,*54
$GPGGA,051150.000,4744.6984,N,12206.7296,W,1,05,1.9,139.2,M,-17.1,M,18.8,0000*72
{"class":"TPV","tag":"GGA","mode":3,"time":"2012-07-04T05:11:50.000Z","ept":0.005,"lat":47.744973333,"lon":-122.112160000,"alt":139.200,"epv":41.400,"speed":0.000,"climb":0.000}
$GPGSA,A,3,12,25,21,29,30,,,,,,,,2.6,1.9,1.8*38
$GPZDA,051151.000,04,07,2012,,*55
$GPGGA,051151.000,4744.6983,N,12206.7297,W,1,05,1.9,139.5,M,-17.1,M,18.8,0000*72
{"class":"TPV","tag":"GGA","mode":3,"time":"2012-07-04T05:11:51.000Z","ept":0.005,"lat":47.744971667,"lon":-122.112161667,"alt":139.500,"epv":41.400,"speed":0.000,"climb":0.000}
$GPGSA,A,3,12,25,21,29,30,,,,,,,,2.6,1.9,1.8*38
$GPZDA,051152.000,04,07,2012,,*56
$GPGGA,051152.000,4744.6982,N,12206.7298,W,1,05,1.9,139.8,M,-17.1,M,18.8,0000*72
{"class":"TPV","tag":"GGA","mode":3,"time":"2012-07-04T05:11:52.000Z","ept":0.005,"lat":47.744970000,"lon":-122.112163333,"alt":139.800,"epv":41.400,"speed":0.000,"climb":0.000}
$GPGSA,A,3,12,25,21,29,30,,,,,,,,2.6,1.9,1.8*38
$GPZDA,051153.000,04,07,2012,,*57
$GPGGA,051153.000,4744.6981,N,12206.7299,W,1,05,1.9,140.2,M,-17.1,M,18.8,0000*75
{"class":"TPV","tag":"GGA","mode":3,"time":"2012-07-04T05:11:53.000Z","ept":0.005,"lat":47.744968333,"lon":-122.112165000,"alt":140.200,"epv":41.400,"speed":0.000,"climb":0.000}
$GPGSA,A,3,12,25,21,29,30,,,,,,,,2.6,1.9,1.8*38
$GPZDA,051154.000,04,07,2012,,*50
$GPGGA,051154.000,4744.6980,N,12206.7300,W,1,05,1.9,140.5,M,-17.1,M,18.8,0000*75
{"class":"TPV","tag":"GGA","mode":3,"time":"2012-07-04T05:11:54.000Z","ept":0.005,"lat":47.744966667,"lon":-122.112166667,"alt":140.500,"epv":41.400,"speed":0.000,"climb":0.000}
$GPGSA,A,3,12,25,21,29,30,,,,,,,,2.6,1.9,1.8*38
$GPZDA,051155.000,04,07,2012,,*51
$GPGGA,051155.000,4744.6979,N,12206.7301,W,1,05,1.9,140.9,M,-17.1,M,18.8,0000*7F
{"class":"TPV","tag":"GGA","mode":3,"time":"2012-07-04T05:11:55.000Z","ept":0.005,"lat":47.744965000,"lon":-122.112168333,"alt":140.900,"epv":41.400,"speed":0.000,"climb":0.000}
$GPGSA,A,3,12,25,21,29,30,,,,,,,,2.6,1.9,1.8*38
$GPZDA,051156.000,04,07,2012,,*52
$GPGGA,051156.000,4744.6979,N,12206.7302,W,1,05,1.9,141.3,M,-17.1,M,18.8,0000*74
{"class":"TPV","tag":"GGA","mode":3,"time":"2012-07-04T05:11:56.000Z","ept":0.005,"lat":47.744965000,"lon":-122.112170000,"alt":141.300,"epv":41.400,"speed":0.000,"climb":0.000}
$GPGSA,A,3,12,25,21,29,30,,,,,,,,2.6,1.9,1.8*38
$GPZDA,051157.000,04,07,2012,,*53
$GPGGA,051157.000,4744.6978,N,12206.7303,W,1,05,1.9,141.6,M,-17.1,M,18.8,0000*70
{"class":"TPV","tag":"GGA","mode":3,"time":"2012-07-04T05:11:57.000Z","ept":0.005,"lat":47.744963333,"lon":-122.112171667,"alt":141.600,"epv":41.400,"speed":0.000,"climb":0.000}
$GPGSA,A,3,12,25,21,29,30,,,,,,,,2.6,1.9,1.8*38
$GPZDA,051158.000,04,07,2012,,*5C
$GPGGA,051158.000,4744.6976,N,12206.7304,W,1,05,1.9,142.0,M,-17.1,M,18.8,0000*73
{"class":"TPV","tag":"GGA","mode":3,"time":"2012-07-04T05:11:58.000Z","ept":0.005,"lat":47.744960000,"lon":-122.112173333,"alt":142.000,"epv":41.400,"speed":0.000,"climb":0.000}
$GPGSA,A,3,12,25,21,29,30,,,,,,,,2.6,1.9,1.8*38
$GPZDA,051159.000,04,07,2012,,*5D
$GPGGA,051159.000,4744.6975,N,12206.7305,W,1,05,1.9,142.4,M,-17.1,M,18.8,0000*74
{"class":"TPV","tag":"GGA","mode":3,"time":"2012-07-04T05:11:59.000Z","ept":0.005,"lat":47.744958333,"lon":-122.112175000,"alt":142.400,"epv":41.400,"speed":0.000,"climb":0.000}
$GPGSA,A,3,12,25,21,29,30,,,,,,,,2.6,1.9,1.8*38
$GPZDA,051200.000,04,07,2012,,*52
$GPGGA,051200.000,4744.6974,N,12206.7306,W,1,05,1.9,142.7,M,-17.1,M,18.8,0000*7A
{"class":"TPV","tag":"GGA","mode":3,"time":"2012-07-04T05:12:00.000Z","ept":0.005,"lat":47.744956667,"lon":-122.112176667,"alt":142.700,"epv":41.400,"speed":0.000,"climb":0.000}
$GPGSA,A,3,12,25,21,29,30,,,,,,,,2.6,1.9,1.8*38
$GPZDA,051201.000,04,07,2012,,*53
$GPGGA,051201.000,4744.6973,N,12206.7306,W,1,05,1.9,143.1,M,-17.1,M,18.8,0000*7B
{"class":"TPV","tag":"GGA","mode":3,"time":"2012-07-04T05:12:01.000Z","ept":0.005,"lat":47.744955000,"lon":-122.112176667,"alt":143.100,"epv":41.400,"speed":0.000,"climb":0.000}
$GPGSA,A,3,12,25,21,29,30,,,,,,,,2.6,1.9,1.8*38
$GPZDA,051202.000,04,07,2012,,*50
$GPGGA,051202.000,4744.6972,N,12206.7307,W,1,05,1.9,143.4,M,-17.1,M,18.8,0000*7D
{"class":"TPV","tag":"GGA","mode":3,"time":"2012-07-04T05:12:02.000Z","ept":0.005,"lat":47.744953333,"lon":-122.112178333,"alt":143.400,"epv":41.400,"speed":0.000,"climb":0.000}
$GPGSA,A,3,12,25,21,29,30,,,,,,,,2.6,1.9,1.8*38
$GPZDA,051203.000,04,07,2012,,*51
$GPGGA,051203.000,4744.6971,N,12206.7308,W,1,05,1.9,143.8,M,-17.1,M,18.8,0000*7C
{"class":"TPV","tag":"GGA","mode":3,"time":"2012-07-04T05:12:03.000Z","ept":0.005,"lat":47.744951667,"lon":-122.112180000,"alt":143.800,"epv":41.400,"speed":0.000,"climb":0.000}
$GPGSA,A,3,12,25,21,29,30,,,,,,,,2.6,1.9,1.8*38
$GPZDA,051204.000,04,07,2012,,*56
$GPGGA,051204.000,4744.6969,N,12206.7309,W,1,05,1.9,144.1,M,-17.1,M,18.8,0000*7D
{"class":"TPV","tag":"GGA","mode":3,"time":"2012-07-04T05:12:04.000Z","ept":0.005,"lat":47.744948333,"lon":-122.112181667,"alt":144.100,"epv":41.400,"speed":0.000,"climb":0.000}
$GPGSA,A,3,12,25,21,29,30,,,,,,,,2.6,1.9,1.8*38
$GPZDA,051205.000,04,07,2012,,*57
$GPGGA,051205.000,4744.6968,N,12206.7309,W,1,05,1.9,144.5,M,-17.1,M,18.8,0000*79
{"class":"TPV","tag":"GGA","mode":3,"time":"2012-07-04T05:12:05.000Z","ept":0.005,"lat":47.744946667,"lon":-122.112181667,"alt":144.500,"epv":41.400,"speed":0.000,"climb":0.000}
$GPGSA,A,3,12,25,21,29,30,,,,,,,,2.6,1.9,1.8*38
$GPZDA,051206.000,04,07,2012,,*54
$GPGGA,051206.000,4744.6967,N,12206.7310,W,1,05,1.9,144.8,M,-17.1,M,18.8,0000*70
{"class":"TPV","tag":"GGA","mode":3,"time":"2012-07-04T05:12:06.000Z","ept":0.005,"lat":47.744945000,"lon":-122.112183333,"alt":144.800,"epv":41.400,"speed":0.000,"climb":0.000}
$GPGSA,A,3,12,25,21,29,30,,,,,,,,2.6,1.9,1.8*38
$GPZDA,051207.000,04,07,2012,,*55
$GPGGA,051207.000,4744.6966,N,12206.7311,W,1,05,1.9,145.2,M,-17.1,M,18.8,0000*7A
{"class":"TPV","tag":"GGA","mode":3,"time":"2012-07-04T05:12:07.000Z","ept":0.005,"lat":47.744943333,"lon":-122.112185000,"alt":145.200,"epv":41.400,"speed":0.000,"climb":0.000}
$GPGSA,A,3,12,25,21,29,30,,,,,,,,2.6,1.9,1.8*38
$GPZDA,051208.000,04,07,2012,,*5A
$GPGGA,051208.000,4744.6964,N,12206.7312,W,1,05,1.9,145.6,M,-17.1,M,18.8,0000*70
{"class":"TPV","tag":"GGA","mode":3,"time":"2012-07-04T05:12:08.000Z","ept":0.005,"lat":47.744940000,"lon":-122.112186667,"alt":145.600,"epv":41.400,"speed":0.000,"climb":0.000}
$GPGSA,A,3,12,25,21,29,30,,,,,,,,2.6,1.9,1.8*38
$GPZDA,051209.000,04,07,2012,,*5B
$GPGGA,051209.000,4744.6963,N,12206.7312,W,1,05,1.9,145.9,M,-17.1,M,18.8,0000*79
{"class":"TPV","tag":"GGA","mode":3,"time":"2012-07-04T05:12:09.000Z","ept":0.005,"lat":47.744938333,"lon":-122.112186667,"alt":145.900,"epv":41.400,"speed":0.000,"climb":0.000}
$GPGSA,A,3,12,25,21,29,30,,,,,,,,2.6,1.9,1.8*38
$GPZDA,051210.000,04,07,2012,,*53
$GPGGA,051210.000,4744.6962,N,12206.7313,W,1,05,1.9,146.2,M,-17.1,M,18.8,0000*79
{"class":"TPV","tag":"GGA","mode":3,"time":"2012-07-04T05:12:10.000Z","ept":0.005,"lat":47.744936667,"lon":-122.112188333,"alt":146.200,"epv":41.400,"speed":0.000,"climb":0.000}
$GPGSA,A,3,12,25,21,29,30,,,,,,,,2.6,1.9,1.8*38
$GPZDA,051211.000,04,07,2012,,*52
$GPGGA,051211.000,4744.6960,N,12206.7314,W,1,05,1.9,146.9,M,-17.1,M,18.8,0000*76
{"class":"TPV","tag":"GGA","mode":3,"time":"2012-07-04T05:12:11.000Z","ept":0.005,"lat":47.744933333,"lon":-122.112190000,"alt":146.900,"epv":41.400,"speed":0.000,"climb":0.000}
$GPGSA,A,3,12,25,21,29,30,,,,,,,,2.6,1.9,1.8*38
$GPZDA,051212.000,04,07,2012,,*51
$GPGGA,051212.000,4744.6961,N,12206.7314,W,1,05,1.9,146.6,M,-17.1,M,18.8,0000*7B
{"class":"TPV","tag":"GGA","mode":3,"time":"2012-07-04T05:12:12.000Z","ept":0.005,"lat":47.744935000,"lon":-122.112190000,"alt":146.600,"epv":41.400,"speed":0.000,"climb":0.000}
$GPGSA,A,3,12,25,21,29,30,,,,,,,,2.6,1.9,1.8*38
$GPZDA,051213.000,04,07,2012,,*50
$GPGGA,051213.000,4744.6963,N,12206.7313,W,1,05,1.9,146.0,M,-17.1,M,18.8,0000*79
{"class":"TPV","tag":"GGA","mode":3,"time":"2012-07-04T05:12:13.000Z","ept":0.005,"lat":47.744938333,"lon":-122.112188333,"alt":146.000,"epv":41.400,"speed":0.000,"climb":0.000}
$GPGSA,A,3,12,25,21,29,30,,,,,,,,2.6,1.9,1.8*38
$GPZDA,051214.000,04,07,2012,,*57
$GPGGA,051214.000,4744.6967,N,12206.7312,W,1,05,1.9,145.1,M,-17.1,M,18.8,0000*79
{"class":"TPV","tag":"GGA","mode":3,"time":"2012-07-04T05:12:14.000Z","ept":0.005,"lat":47.744945000,"lon":-122.112186667,"alt":145.100,"epv":41.400,"speed":0.000,"climb":0.000}
$GPGSA,A,3,12,25,21,29,30,,,,,,,,2.6,1.9,1.8*38
$GPZDA,051215.000,04,07,2012,,*56
$GPGGA,051215.000,4744.6969,N,12206.7311,W,1,05,1.9,144.4,M,-17.1,M,18.8,0000*71
{"class":"TPV","tag":"GGA","mode":3,"time":"2012-07-04T05:12:15.000Z","ept":0.005,"lat":47.744948333,"lon":-122.112185000,"alt":144.400,"epv":41.400,"speed":0.000,"climb":0.000}
$GPGSA,A,3,12,25,21,29,30,,,,,,,,2.6,1.9,1.8*38
$GPZDA,051216.000,04,07,2012,,*55
$GPGGA,051216.000,4744.6971,N,12206.7310,W,1,05,1.9,143.9,M,-17.1,M,18.8,0000*70
{"class":"TPV","tag":"GGA","mode":3,"time":"2012-07-04T05:12:16.000Z","ept":0.005,"lat":47.744951667,"lon":-122.112183333,"alt":143.900,"epv":41.400,"speed":0.000,"climb":0.000}
$GPGSA,A,3,12,25,21,29,30,,,,,,,,2.6,1.9,1.8*38
$GPZDA,051217.000,04,07,2012,,*54
$GPGGA,051217.000,4744.6974,N,12206.7309,W,1,05,1.9,143.1,M,-17.1,M,18.8,0000*74
{"class":"TPV","tag":"GGA","mode":3,"time":"2012-07-04T05:12:17.000Z","ept":0.005,"lat":47.744956667,"lon":-122.112181667,"alt":143.100,"epv":41.400,"speed":0.000,"climb":0.000}
$GPGSA,A,3,12,25,21,29,30,,,,,,,,2.6,1.9,1.8*38
$GPZDA,051218.000,04,07,2012,,*5B
$GPGGA,051218.000,4744.6975,N,12206.7309,W,1,05,1.9,142.9,M,-17.1,M,18.8,0000*73
{"class":"TPV","tag":"GGA","mode":3,"time":"2012-07-04T05:12:18.000Z","ept":0.005,"lat":47.744958333,"lon":-122.112181667,"alt":142.900,"epv":41.400,"speed":0.000,"climb":0.000}
$GPGSA,A,3,12,25,21,29,30,,,,,,,,2.6,1.9,1.8*38
$GPZDA,051219.000,04,07,2012,,*5A
$GPGGA,051219.000,4744.6978,N,12206.7307,W,1,05,1.9,141.9,M,-17.1,M,18.8,0000*72
{"class":"TPV","tag":"GGA","mode":3,"time":"2012-07-04T05:12:19.000Z","ept":0.005,"lat":47.744963333,"lon":-122.112178333,"alt":141.900,"epv":41.400,"speed":0.000,"climb":0.000}
$GPGSA,A,3,12,25,21,29,30,,,,,,,,2.6,1.9,1.8*38
$GPZDA,051220.000,04,07,2012,,*50
$GPGGA,051220.000,4744.6976,N,12206.7308,W,1,05,1.9,142.4,M,-17.1,M,18.8,0000*77
{"class":"TPV","tag":"GGA","mode":3,"time":"2012-07-04T05:12:20.000Z","ept":0.005,"lat":47.744960000,"lon":-122.112180000,"alt":142.400,"epv":41.400,"speed":0.000,"climb":0.000}
$GPGSA,A,3,12,25,21,29,30,,,,,,,,2.6,1.9,1.8*38
$GPZDA,051221.000,04,07,2012,,*51
$GPGGA,051221.000,4744.6980,N,12206.7306,W,1,05,1.9,141.4,M,-17.1,M,18.8,0000*72
{"class":"TPV","tag":"GGA","mode":3,"time":"2012-07-04T05:12:21.000Z","ept":0.005,"lat":47.744966667,"lon":-122.112176667,"alt":141.400,"epv":41.400,"speed":0.000,"climb":0.000}
$GPGSA,A,3,12,25,21,29,30,,,,,,,,2.6,1.9,1.8*38
$GPZDA,051222.000,04,07,2012,,*52
$GPGGA,051222.000,4744.6982,N,12206.7305,W,1,05,1.9,140.8,M,-17.1,M,18.8,0000*7D
{"class":"TPV","tag":"GGA","mode":3,"time":"2012-07-04T05:12:22.000Z","ept":0.005,"lat":47.744970000,"lon":-122.112175000,"alt":140.800,"epv":41.400,"speed":0.000,"climb":0.000}
$GPGSA,A,3,12,25,21,29,30,,,,,,,,2.6,1.9,1.8*38
$GPZDA,051223.000,04,07,2012,,*53
$GPGGA,051223.000,4744.6979,N,12206.7306,W,1,05,1.9,141.5,M,-17.1,M,18.8,0000*77
{"class":"TPV","tag":"GGA","mode":3,"time":"2012-07-04T05:12:23.000Z","ept":0.005,"lat":47.744965000,"lon":-122.112176667,"alt":141.500,"epv":41.400,"speed":0.000,"climb":0.000}
$GPGSA,A,3,12,25,21,29,30,,,,,,,,2.6,1.9,1.8*38
$GPZDA,051224.000,04,07,2012,,*54
$GPGGA,051224.000,4744.6978,N,12206.7307,W,1,05,1.9,141.6,M,-17.1,M,18.8,0000*73
{"class":"TPV","tag":"GGA","mode":3,"time":"2012-07-04T05:12:24.000Z","ept":0.005,"lat":47.744963333,"lon":-122.112178333,"alt":141.600,"epv":41.400,"speed":0.000,"climb":0.000}
$GPGSA,A,3,12,25,21,29,30,,,,,,,,2.6,1.9,1.8*38
$GPZDA,051225.000,04,07,2012,,*55
$GPGGA,051225.000,4744.6976,N,12206.7307,W,1,05,1.9,141.9,M,-17.1,M,18.8,0000*73
{"class":"TPV","tag":"GGA","mode":3,"time":"2012-07-04T05:12:25.000Z","ept":0.005,"lat":47.744960000,"lon":-122.112178333,"alt":141.900,"epv":41.400,"speed":0.000,"climb":0.000}
$GPGSA,A,3,12,25,21,29,30,,,,,,,,2.6,1.9,1.8*38
$GPZDA,051226.000,04,07,2012,,*56
$GPGGA,051226.000,4744.6974,N,12206.7308,W,1,05,1.9,142.5,M,-17.1,M,18.8,0000*72
{"class":"TPV","tag":"GGA","mode":3,"time":"2012-07-04T05:12:26.000Z","ept":0.005,"lat":47.744956667,"lon":-122.112180000,"alt":142.500,"epv":41.400,"speed":0.000,"climb":0.000}
$GPGSA,A,3,12,25,21,29,30,,,,,,,,2.6,1.9,1.8*38
$GPZDA,051227.000,04,07,2012,,*57
$GPGGA,051227.000,4744.6973,N,12206.7308,W,1,06,1.7,142.8,M,-17.1,M,128.8,0000*46
{"class":"TPV","tag":"GGA","mode":3,"time":"2012-07-04T05:12:27.000Z","ept":0.005,"lat":47.744955000,"lon":-122.112180000,"alt":142.800,"epv":41.400,"speed":0.000,"climb":0.000}
$GPGSA,A,3,12,25,21,31,29,30,,,,,,,2.4,1.7,1.6*38
$GPZDA,051228.000,04,07,2012,,*58
$GPGGA,051228.000,4744.6971,N,12206.7309,W,1,06,1.7,143.3,M,-17.1,M,128.8,0000*40
{"class":"TPV","tag":"GGA","mode":3,"time":"2012-07-04T05:12:28.000Z","ept":0.005,"lat":47.744951667,"lon":-122.112181667,"alt":143.300,"epv":36.800,"speed":0.000,"climb":0.000}
$GPGSA,A,3,12,25,21,31,29,30,,,,,,,2.4,1.7,1.6*38
$GPZDA,051229.000,04,07,2012,,*59
$GPGGA,051229.000,4744.6970,N,12206.7309,W,1,06,1.7,143.8,M,-17.1,M,128.8,0000*4B
{"class":"TPV","tag":"GGA","mode":3,"time":"2012-07-04T05:12:29.000Z","ept":0.005,"lat":47.744950000,"lon":-122.112181667,"alt":143.800,"epv":36.800,"speed":0.000,"climb":0.000}
$GPGSA,A,3,12,25,21,31,29,30,,,,,,,2.4,1.7,1.6*38
$GPZDA,051230.000,04,07,2012,,*51
$GPGGA,051230.000,4744.6969,N,12206.7309,W,1,06,1.7,143.7,M,-17.1,M,128.8,0000*44
{"class":"TPV","tag":"GGA","mode":3,"time":"2012-07-04T05:12:30.000Z","ept":0.005,"lat":47.744948333,"lon":-122.112181667,"alt":143.700,"epv":36.800,"speed":0.000,"climb":0.000}
$GPGSA,A,3,12,25,21,31,29,30,,,,,,,2.4,1.7,1.6*38
$GPZDA,051231.000,04,07,2012,,*50
$GPGGA,051231.000,4744.6969,N,12206.7309,W,1,06,1.7,143.7,M,-17.1,M,128.8,0000*45
{"class":"TPV","tag":"GGA","mode":3,"time":"2012-07-04T05:12:31.000Z","ept":0.005,"lat":47.744948333,"lon":-122.112181667,"alt":143.700,"epv":36.800,"speed":0.000,"climb":0.000}
$GPGSA,A,3,12,25,21,31,29,30,,,,,,,2.4,1.7,1.6*38
$GPZDA,051232.000,04,07,2012,,*53
$GPGGA,051232.000,4744.6969,N,12206.7310,W,1,06,1.7,143.8,M,-17.1,M,128.8,0000*41
{"class":"TPV","tag":"GGA","mode":3,"time":"2012-07-04T05:12:32.000Z","ept":0.005,"lat":47.744948333,"lon":-122.112183333,"alt":143.800,"epv":36.800,"speed":0.000,"climb":0.000}
$GPGSA,A,3,12,25,21,31,29,30,,,,,,,2.4,1.7,1.6*38
$GPZDA,051233.000,04,07,2012,,*52
$GPGGA,051233.000,4744.6968,N,12206.7310,W,1,06,1.7,143.9,M,-17.1,M,128.8,0000*40
{"class":"TPV","tag":"GGA","mode":3,"time":"2012-07-04T05:12:33.000Z","ept":0.005,"lat":47.744946667,"lon":-122.112183333,"alt":143.900,"epv":36.800,"speed":0.000,"climb":0.000}
$GPGSA,A,3,12,25,21,31,29,30,,,,,,,2.4,1.7,1.6*38
$GPZDA,051234.000,04,07,2012,,*55
$GPGGA,051234.000,4744.6967,N,12206.7310,W,1,06,1.7,144.1,M,-17.1,M,128.8,0000*47
{"class":"TPV","tag":"GGA","mode":3,"time":"2012-07-04T05:12:34.000Z","ept":0.005,"lat":47.744945000,"lon":-122.112183333,"alt":144.100,"epv":36.800,"speed":0.000,"climb":0.000}
$GPGSA,A,3,12,25,21,31,29,30,,,,,,,2.4,1.7,1.6*38
$GPZDA,051235.000,04,07,2012,,*54
$GPGGA,051235.000,4744.6967,N,12206.7310,W,1,06,1.7,144.1,M,-17.1,M,128.8,0000*46
{"class":"TPV","tag":"GGA","mode":3,"time":"2012-07-04T05:12:35.000Z","ept":0.005,"lat":47.744945000,"lon":-122.112183333,"alt":144.100,"epv":36.800,"speed":0.000,"climb":0.000}
$GPGSA,A,3,12,25,21,31,29,30,,,,,,,2.4,1.7,1.6*38
$GPZDA,051236.000,04,07,2012,,*57
$GPGGA,051236.000,4744.6965,N,12206.7311,W,1,06,1.7,144.4,M,-17.1,M,128.8,0000*43
{"class":"TPV","tag":"GGA","mode":3,"time":"2012-07-04T05:12:36.000Z","ept":0.005,"lat":47.744941667,"lon":-122.112185000,"alt":144.400,"epv":36.800,"speed":0.000,"climb":0.000}
$GPGSA,A,3,12,25,21,31,29,30,,,,,,,2.4,1.7,1.6*38
$GPZDA,051237.000,04,07,2012,,*56
$GPGGA,051237.000,4744.6964,N,12206.7312,W,1,06,1.7,144.8,M,-17.1,M,128.8,0000*4C
{"class":"TPV","tag":"GGA","mode":3,"time":"2012-07-04T05:12:37.000Z","ept":0.005,"lat":47.744940000,"lon":-122.112186667,"alt":144.800,"epv":36.800,"speed":0.000,"climb":0.000}
$GPGSA,A,3,12,25,21,31,29,30,,,,,,,2.4,1.7,1.6*38
$GPZDA,051238.000,04,07,2012,,*59
$GPGGA,051238.000,4744.6959,N,12206.7314,W,1,06,1.7,145.9,M,-17.1,M,128.8,0000*4B
{"class":"TPV","tag":"GGA","mode":3,"time":"2012-07-04T05:12:38.000Z","ept":0.005,"lat":47.744931667,"lon":-122.112190000,"alt":145.900,"epv":36.800,"speed":0.000,"climb":0.000}
$GPGSA,A,3,12,25,21,31,29,30,,,,,,,2.4,1.7,1.6*38
$GPZDA,051239.000,04,07,2012,,*58
$GPGGA,051239.000,4744.6959,N,12206.7314,W,1,06,1.7,146.0,M,-17.1,M,128.8,0000*40
{"class":"TPV","tag":"GGA","mode":3,"time":"2012-07-04T05:12:39.000Z","ept":0.005,"lat":47.744931667,"lon":-122.112190000,"alt":146.000,"epv":36.800,"speed":0.000,"climb":0.000}
$GPGSA,A,3,12,25,21,31,29,30,,,,,,,2.4,1.7,1.6*38
$GPZDA,051240.000,04,07,2012,,*56
$GPGGA,051240.000,4744.6959,N,12206.7314,W,1,06,1.7,145.9,M,-17.1,M,128.8,0000*44
{"class":"TPV","tag":"GGA","mode":3,"time":"2012-07-04T05:12:40.000Z","ept":0.005,"lat":47.744931667,"lon":-122.112190000,"alt":145.900,"epv":36.800,"speed":0.000,"climb":0.000}
$GPGSA,A,3,12,25,21,31,29,30,,,,,,,2.4,1.7,1.6*38
$GPZDA,051241.000,04,07,2012,,*57
$GPGGA,051241.000,4744.6958,N,12206.7314,W,1,06,1.7,146.1,M,-17.1,M,128.8,0000*4F
{"class":"TPV","tag":"GGA","mode":3,"time":"2012-07-04T05:12:41.000Z","ept":0.005,"lat":47.744930000,"lon":-122.112190000,"alt":146.100,"epv":36.800,"speed":0.000,"climb":0.000}
$GPGSA,A,3,12,25,21,31,29,30,,,,,,,2.4,1.7,1.6*38
$GPZDA,051242.000,04,07,2012,,*54
$GPGGA,051242.000,4744.6958,N,12206.7315,W,1,06,1.7,146.1,M,-17.1,M,128.8,0000*4D
{"class":"TPV","tag":"GGA","mode":3,"time":"2012-07-04T05:12:42.000Z","ept":0.005,"lat":47.744930000,"lon":-122.112191667,"alt":146.100,"epv":36.800,"speed":0.000,"climb":0.000}
$GPGSA,A,3,12,25,21,31,29,30,,,,,,,2.4,1.7,1.6*38
$GPZDA,051243.000,04,07,2012,,*55
$GPGGA,051243.000,4744.6957,N,12206.7315,W,1,06,1.7,146.3,M,-17.1,M,128.8,0000*41
{"class":"TPV","tag":"GGA","mode":3,"time":"2012-07-04T05:12:43.000Z","ept":0.005,"lat":47.744928333,"lon":-122.112191667,"alt":146.300,"epv":36.800,"speed":0.000,"climb":0.000}
$GPGSA,A,3,12,25,21,31,29,30,,,,,,,2.4,1.7,1.6*38
$GPZDA,051244.000,04,07,2012,,*52
$GPGGA,051244.000,4744.6957,N,12206.7315,W,1,06,1.7,146.4,M,-17.1,M,128.8,0000*41
{"class":"TPV","tag":"GGA","mode":3,"time":"2012-07-04T05:12:44.000Z","ept":0.005,"lat":47.744928333,"lon":-122.112191667,"alt":146.400,"epv":36.800,"speed":0.000,"climb":0.000}
$GPGSA,A,3,12,25,21,31,29,30,,,,,,,2.4,1.7,1.6*38
$GPZDA,051245.000,04,07,2012,,*53
$GPGGA,051245.000,4744.6957,N,12206.7316,W,1,06,1.7,146.3,M,-17.1,M,128.8,0000*44
{"class":"TPV","tag":"GGA","mode":3,"time":"2012-07-04T05:12:45.000Z","ept":0.005,"lat":47.744928333,"lon":-122.112193333,"alt":146.300,"epv":36.800,"speed":0.000,"climb":0.000}
$GPGSA,A,3,12,25,21,31,29,30,,,,,,,2.4,1.7,1.6*38
$GPZDA,051246.000,04,07,2012,,*50
$GPGGA,051246.000,4744.6954,N,12206.7317,W,1,06,1.7,147.0,M,-17.1,M,128.8,0000*47
{"class":"TPV","tag":"GGA","mode":3,"time":"2012-07-04T05:12:46.000Z","ept":0.005,"lat":47.744923333,"lon":-122.112195000,"alt":147.000,"epv":36.800,"speed":0.000,"climb":0.000}
$GPGSA,A,3,12,25,21,31,29,30,,,,,,,2.4,1.7,1.6*38
$GPZDA,051247.000,04,07,2012,,*51
$GPGGA,051247.000,4744.6952,N,12206.7318,W,1,06,1.7,147.6,M,-17.1,M,128.8,0000*49
{"class":"TPV","tag":"GGA","mode":3,"time":"2012-07-04T05:12:47.000Z","ept":0.005,"lat":47.744920000,"lon":-122.112196667,"alt":147.600,"epv":36.800,"speed":0.000,"climb":0.000}
$GPGSA,A,3,12,25,21,31,29,30,,,,,,,2.4,1.7,1.6*38
$GPZDA,051248.000,04,07,2012,,*5E
$GPGGA,051248.000,4744.6949,N,12206.7319,W,1,06,1.7,148.2,M,-17.1,M,128.8,0000*46
{"class":"TPV","tag":"GGA","mode":3,"time":"2012-07-04T05:12:48.000Z","ept":0.005,"lat":47.744915000,"lon":-122.112198333,"alt":148.200,"epv":36.800,"speed":0.000,"climb":0.000}
$GPGSA,A,3,12,25,21,31,29,30,,,,,,,2.4,1.7,1.6*38
$GPZDA,051249.000,04,07,2012,,*5F
$GPGGA,051249.000,4744.6947,N,12206.7320,W,1,06,1.7,148.8,M,-17.1,M,128.8,0000*49
{"class":"TPV","tag":"GGA","mode":3,"time":"2012-07-04T05:12:49.000Z","ept":0.005,"lat":47.744911667,"lon":-122.112200000,"alt":148.800,"epv":36.800,"speed":0.000,"climb":0.000}
$GPGSA,A,3,12,25,21,31,29,30,,,,,,,2.4,1.7,1.6*38
$GPZDA,051250.000,04,07,2012,,*57
$GPGGA,051250.000,4744.6944,N,12206.7322,W,1,06,1.7,149.4,M,-17.1,M,128.8,0000*4D
{"class":"TPV","tag":"GGA","mode":3,"time":"2012-07-04T05:12:50.000Z","ept":0.005,"lat":47.744906667,"lon":-122.112203333,"alt":149.400,"epv":36.800,"speed":0.000,"climb":0.000}
$GPGSA,A,3,12,25,21,31,29,30,,,,,,,2.4,1.7,1.6*38
$GPZDA,051251.000,04,07,2012,,*56
$GPGGA,051251.000,4744.6942,N,12206.7323,W,1,06,1.7,150.0,M,-17.1,M,128.8,0000*47
{"class":"TPV","tag":"GGA","mode":3,"time":"2012-07-04T05:12:51.000Z","ept":0.005,"lat":47.744903333,"lon":-122.112205000,"alt":150.000,"epv":36.800,"speed":0.000,"climb":0.000}
$GPGSA,A,3,12,25,21,31,29,30,,,,,,,2.4,1.7,1.6*38
$GPZDA,051252.000,04,07,2012,,*55
$GPGGA,051252.000,4744.6940,N,12206.7324,W,1,06,1.7,150.6,M,-17.1,M,128.8,0000*47
{"class":"TPV","tag":"GGA","mode":3,"time":"2012-07-04T05:12:52.000Z","ept":0.005,"lat":47.744900000,"lon":-122.112206667,"alt":150.600,"epv":36.800,"speed":0.000,"climb":0.000}
$GPGSA,A,3,12,25,21,31,29,30,,,,,,,2.4,1.7,1.6*38
$GPZDA,051253.000,04,07,2012,,*54
$GPGGA,051253.000,4744.6937,N,12206.7325,W,1,06,1.7,151.2,M,-17.1,M,128.8,0000*42
{"class":"TPV","tag":"GGA","mode":3,"time":"2012-07-04T05:12:53.000Z","ept":0.005,"lat":47.744895000,"lon":-122.112208333,"alt":151.200,"epv":36.800,"speed":0.000,"climb":0.000}
$GPGSA,A,3,12,25,21,31,29,30,,,,,,,2.4,1.7,1.6*38
$GPZDA,051254.000,04,07,2012,,*53
$GPGGA,051254.000,4744.6934,N,12206.7326,W,1,06,1.7,151.8,M,-17.1,M,128.8,0000*4F
{"class":"TPV","tag":"GGA","mode":3,"time":"2012-07-04T05:12:54.000Z","ept":0.005,"lat":47.744890000,"lon":-122.112210000,"alt":151.800,"epv":36.800,"speed":0.000,"climb":0.000}
$GPGSA,A,3,12,25,21,31,29,30,,,,,,,2.4,1.7,1.6*38
$GPZDA,051255.000,04,07,2012,,*52
$GPGGA,051255.000,4744.6932,N,12206.7328,W,1,06,1.7,152.5,M,-17.1,M,128.8,0000*48
{"class":"TPV","tag":"GGA","mode":3,"time":"2012-07-04T05:12:55.000Z","ept":0.005,"lat":47.744886667,"lon":-122.112213333,"alt":152.500,"epv":36.800,"speed":0.000,"climb":0.000}
$GPGSA,A,3,12,25,21,31,29,30,,,,,,,2.4,1.7,1.6*38
$GPZDA,051256.000,04,07,2012,,*51
$GPGGA,051256.000,4744.6930,N,12206.7329,W,1,06,1.7,153.1,M,-17.1,M,128.8,0000*4D
{"class":"TPV","tag":"GGA","mode":3,"time":"2012-07-04T05:12:56.000Z","ept":0.005,"lat":47.744883333,"lon":-122.112215000,"alt":153.100,"epv":36.800,"speed":0.000,"climb":0.000}
$GPGSA,A,3,12,25,21,31,29,30,,,,,,,2.4,1.7,1.6*38
$GPZDA,051257.000,04,07,2012,,*50
$GPGGA,051257.000,4744.6927,N,12206.7330,W,1,06,1.7,153.7,M,-17.1,M,128.8,0000*44
{"class":"TPV","tag":"GGA","mode":3,"time":"2012-07-04T05:12:57.000Z","ept":0.005,"lat":47.744878333,"lon":-122.112216667,"alt":153.700,"epv":36.800,"speed":0.000,"climb":0.000}
$GPGSA,A,3,12,25,21,31,29,30,,,,,,,2.4,1.7,1.6*38
$GPZDA,051258.000,04,07,2012,,*5F
$GPGGA,051258.000,4744.6924,N,12206.7331,W,1,06,1.7,154.5,M,-17.1,M,128.8,0000*4C
{"class":"TPV","tag":"GGA","mode":3,"time":"2012-07-04T05:12:58.000Z","ept":0.005,"lat":47.744873333,"lon":-122.112218333,"alt":154.500,"epv":36.800,"speed":0.000,"climb":0.000}
$GPGSA,A,3,12,25,21,31,29,30,,,,,,,2.4,1.7,1.6*38
$GPZDA,051259.000,04,07,2012,,*5E
$GPGGA,051259.000,4744.6922,N,12206.7332,W,1,06,1.7,155.1,M,-17.1,M,128.8,0000*4D
{"class":"TPV","tag":"GGA","mode":3,"time":"2012-07-04T05:12:59.000Z","ept":0.005,"lat":47.744870000,"lon":-122.112220000,"alt":155.100,"epv":36.800,"speed":0.000,"climb":0.000}
$GPGSA,A,3,12,25,21,31,29,30,,,,,,,2.4,1.7,1.6*38
$GPZDA,051300.000,04,07,2012,,*53
$GPGGA,051300.000,4744.6919,N,12206.7333,W,1,06,1.7,155.7,M,-17.1,M,128.8,0000*4F
{"class":"TPV","tag":"GGA","mode":3,"time":"2012-07-04T05:13:00.000Z","ept":0.005,"lat":47.744865000,"lon":-122.112221667,"alt":155.700,"epv":36.800,"speed":0.000,"climb":0.000}
$GPGSA,A,3,12,25,21,31,29,30,,,,,,,2.4,1.7,1.6*38
$GPZDA,051301.000,04,07,2012,,*52
$GPGGA,051301.000,4744.6917,N,12206.7334,W,1,06,1.7,156.3,M,-17.1,M,128.8,0000*40
{"class":"TPV","tag":"GGA","mode":3,"time":"2012-07-04T05:13:01.000Z","ept":0.005,"lat":47.744861667,"lon":-122.112223333,"alt":156.300,"epv":36.800,"speed":0.000,"climb":0.000}
