# Name: Myguide 3100
# Vendor: Typhoon
# Chipset: Unknown
# Description: Car-dash GPS
# Submitter: Gleb Smirnoff <glebius@glebius.int.ru> 
# Date: 2011-03-23
# Notes: Contains initial segement of no fix followed by stationary fix.
#        The 3100 has been end-of-lifed but is still found in the wild.
#        No database entry for this yet, we haven'y been able to find
#        out enough about it.
$GPGSA,A,1,29,2,,,,,,,,,,,60.000,60.000,60.000*3F
$GPGSV,5,1,19,1,5,,25,2,28,74,29,3,5,,,4,19,40,29*73
$GPGSV,5,2,19,5,5,,,6,5,,,7,5,,,8,5,,*7A
$GPGSV,5,3,19,9,3,137,28,10,5,,,11,5,,,12,45,85,*4C
$GPGSV,5,4,19,14,33,226,,20,6,332,,24,4,147,,26,18,202,*78
$GPGSV,5,5,19,29,47,188,35,30,81,99,29,31,37,300,*7A
$GPGGA,104958.80,5612.9999,N,00306.7096,W,,2,60.000,160.002,M,,M,,*54
$GPRMC,104958.80,V,5612.9999,N,00306.7096,W,,,081009,,W,N*07
$GPGSA,A,1,29,2,,,,,,,,,,,60.000,60.000,60.000*3F
$GPGSV,5,1,19,1,5,,25,2,28,74,28,3,5,,,4,19,40,29*72
$GPGSV,5,2,19,5,5,,,6,5,,,7,5,,,8,5,,*7A
$GPGSV,5,3,19,9,3,137,28,10,5,,,11,5,,,12,45,85,*4C
$GPGSV,5,4,19,14,33,226,,20,6,332,,24,4,147,,26,18,202,*78
$GPGSV,5,5,19,29,47,188,35,30,81,99,29,31,37,300,*7A
$GPGGA,104959.80,5612.9999,N,00306.7096,W,,2,60.000,160.002,M,,M,,*55
$GPRMC,104959.80,V,5612.9999,N,00306.7096,W,,,081009,,W,N*06
$GPGSA,A,1,29,2,,,,,,,,,,,60.000,60.000,60.000*3F
$GPGSV,5,1,19,1,5,,25,2,28,74,28,3,5,,,4,19,40,29*72
$GPGSV,5,2,19,5,5,,,6,5,,,7,5,,,8,5,,*7A
$GPGSV,5,3,19,9,3,137,29,10,5,,,11,5,,,12,44,85,*4C
$GPGSV,5,4,19,14,33,226,,20,6,332,,24,4,147,,26,18,202,*78
$GPGSV,5,5,19,29,47,188,35,30,81,99,29,31,37,300,*7A
$GPGGA,105000.80,5612.9999,N,00306.7096,W,,2,60.000,160.002,M,,M,,*51
$GPRMC,105000.80,V,5612.9999,N,00306.7096,W,,,081009,,W,N*02
$GPGSA,A,1,29,2,,,,,,,,,,,60.000,60.000,60.000*3F
$GPGSV,5,1,19,1,5,,25,2,28,74,28,3,5,,,4,19,40,29*72
$GPGSV,5,2,19,5,5,,,6,5,,,7,5,,,8,5,,*7A
$GPGSV,5,3,19,9,3,137,29,10,5,,,11,5,,,12,44,85,*4C
$GPGSV,5,4,19,14,33,226,,20,6,332,,24,4,147,,26,18,202,*78
$GPGSV,5,5,19,29,47,188,35,30,81,99,28,31,37,300,*7B
$GPGGA,105001.80,5612.9999,N,00306.7096,W,,2,60.000,160.002,M,,M,,*50
$GPRMC,105001.80,V,5612.9999,N,00306.7096,W,,,081009,,W,N*03
$GPGSA,A,1,29,2,,,,,,,,,,,60.000,60.000,60.000*3F
$GPGSV,5,1,19,1,5,,25,2,28,74,28,3,5,,,4,19,40,29*72
$GPGSV,5,2,19,5,5,,,6,5,,,7,5,,,8,5,,*7A
$GPGSV,5,3,19,9,3,137,28,10,5,,,11,5,,,12,44,85,*4D
$GPGSV,5,4,19,14,33,226,,20,6,332,,24,4,147,,26,18,202,*78
$GPGSV,5,5,19,29,47,188,35,30,81,99,28,31,37,300,*7B
$GPGGA,105002.80,5612.9999,N,00306.7096,W,,2,60.000,160.002,M,,M,,*53
$GPRMC,105002.80,V,5612.9999,N,00306.7096,W,,,081009,,W,N*00
$GPGSA,A,1,29,2,,,,,,,,,,,60.000,60.000,60.000*3F
$GPGSV,5,1,19,1,5,,25,2,28,74,28,3,5,,,4,19,40,29*72
$GPGSV,5,2,19,5,5,,,6,5,,,7,5,,,8,5,,*7A
$GPGSV,5,3,19,9,3,137,28,10,5,,,11,5,,,12,44,85,*4D
$GPGSV,5,4,19,14,33,226,,20,6,332,,24,4,147,,26,18,202,*78
$GPGSV,5,5,19,29,47,188,35,30,81,99,28,31,37,300,*7B
$GPGGA,105003.80,5612.9999,N,00306.7096,W,,2,60.000,160.002,M,,M,,*52
$GPRMC,105003.80,V,5612.9999,N,00306.7096,W,,,081009,,W,N*01
$GPGSA,A,1,29,2,,,,,,,,,,,60.000,60.000,60.000*3F
$GPGSV,5,1,19,1,5,,25,2,28,74,29,3,5,,,4,19,40,29*73
$GPGSV,5,2,19,5,5,,,6,5,,,7,5,,,8,5,,*7A
$GPGSV,5,3,19,9,3,137,29,10,5,,,11,5,,,12,44,85,*4C
$GPGSV,5,4,19,14,33,226,,20,6,332,,24,4,147,,26,18,202,*78
$GPGSV,5,5,19,29,47,188,36,30,81,99,29,31,37,300,*79
$GPGGA,105004.80,5612.9999,N,00306.7096,W,,2,60.000,160.002,M,,M,,*55
$GPRMC,105004.80,V,5612.9999,N,00306.7096,W,,,081009,,W,N*06
$GPGSA,A,1,29,2,,,,,,,,,,,60.000,60.000,60.000*3F
$GPGSV,5,1,19,1,5,,26,2,28,74,29,3,5,,,4,19,40,29*70
$GPGSV,5,2,19,5,5,,,6,5,,,7,5,,,8,5,,*7A
$GPGSV,5,3,19,9,3,137,29,10,5,,,11,5,,,12,44,85,*4C
$GPGSV,5,4,19,14,33,226,,20,6,332,,24,4,147,,26,18,202,*78
$GPGSV,5,5,19,29,47,188,35,30,81,99,29,31,37,300,*7A
$GPGGA,105005.80,5612.9999,N,00306.7096,W,,2,60.000,160.002,M,,M,,*54
$GPRMC,105005.80,V,5612.9999,N,00306.7096,W,,,081009,,W,N*07
$GPGSA,A,1,29,2,,,,,,,,,,,60.000,60.000,60.000*3F
$GPGSV,5,1,19,1,5,,25,2,28,74,29,3,5,,,4,19,40,29*73
$GPGSV,5,2,19,5,5,,,6,5,,,7,5,,,8,5,,*7A
$GPGSV,5,3,19,9,3,137,29,10,5,,,11,5,,,12,44,85,*4C
$GPGSV,5,4,19,14,33,226,,20,6,332,,24,4,147,,26,18,202,*78
$GPGSV,5,5,19,29,47,188,36,30,81,99,29,31,37,300,*79
$GPGGA,105006.80,5612.9999,N,00306.7096,W,,2,60.000,160.002,M,,M,,*57
$GPRMC,105006.80,V,5612.9999,N,00306.7096,W,,,081009,,W,N*04
$GPGSA,A,1,29,2,,,,,,,,,,,60.000,60.000,60.000*3F
$GPGSV,5,1,19,1,5,,25,2,28,74,28,3,5,,,4,19,40,29*72
$GPGSV,5,2,19,5,5,,,6,5,,,7,5,,,8,5,,*7A
$GPGSV,5,3,19,9,3,137,28,10,5,,,11,5,,,12,44,85,*4D
$GPGSV,5,4,19,14,33,226,,20,6,332,,24,4,147,,26,18,202,*78
$GPGSV,5,5,19,29,47,187,35,30,81,99,29,31,37,300,*75
$GPGGA,105007.80,5612.9999,N,00306.7096,W,,2,60.000,160.002,M,,M,,*56
$GPRMC,105007.80,V,5612.9999,N,00306.7096,W,,,081009,,W,N*05
$GPGSA,A,1,29,2,,,,,,,,,,,60.000,60.000,60.000*3F
$GPGSV,5,1,19,1,5,,25,2,28,74,28,3,5,,,4,19,40,30*7A
$GPGSV,5,2,19,5,5,,,6,5,,,7,5,,,8,5,,*7A
$GPGSV,5,3,19,9,3,137,29,10,5,,,11,5,,,12,44,85,*4C
$GPGSV,5,4,19,14,33,226,,20,6,332,,24,4,147,,26,18,202,*78
$GPGSV,5,5,19,29,47,187,35,30,81,99,29,31,37,300,*75
$GPGGA,105008.80,5612.9999,N,00306.7096,W,,2,60.000,160.002,M,,M,,*59
$GPRMC,105008.80,V,5612.9999,N,00306.7096,W,,,081009,,W,N*0A
$GPGSA,A,1,29,2,,,,,,,,,,,60.000,60.000,60.000*3F
$GPGSV,5,1,19,1,5,,25,2,28,74,28,3,5,,,4,19,40,30*7A
$GPGSV,5,2,19,5,5,,,6,5,,,7,5,,,8,5,,*7A
$GPGSV,5,3,19,9,3,137,29,10,5,,,11,5,,,12,44,85,*4C
$GPGSV,5,4,19,14,33,226,,20,6,332,,24,4,147,,26,18,202,*78
$GPGSV,5,5,19,29,47,187,35,30,81,98,29,31,37,300,*74
$GPGGA,105009.80,5612.9999,N,00306.7096,W,,2,60.000,160.002,M,,M,,*58
$GPRMC,105009.80,V,5612.9999,N,00306.7096,W,,,081009,,W,N*0B
$GPGSA,A,1,29,2,,,,,,,,,,,60.000,60.000,60.000*3F
$GPGSV,5,1,19,1,5,,25,2,28,74,27,3,5,,,4,19,40,30*75
$GPGSV,5,2,19,5,5,,,6,5,,,7,5,,,8,5,,*7A
$GPGSV,5,3,19,9,3,137,29,10,5,,,11,5,,,12,44,85,*4C
$GPGSV,5,4,19,14,33,226,,20,6,332,,24,4,147,,26,18,202,*78
$GPGSV,5,5,19,29,47,187,35,30,81,98,28,31,37,300,*75
$GPGGA,105010.80,5612.9999,N,00306.7096,W,,2,60.000,160.002,M,,M,,*50
$GPRMC,105010.80,V,5612.9999,N,00306.7096,W,,,081009,,W,N*03
$GPGSA,A,1,29,2,,,,,,,,,,,60.000,60.000,60.000*3F
$GPGSV,5,1,19,1,5,,25,2,28,74,27,3,5,,,4,19,40,30*75
$GPGSV,5,2,19,5,5,,,6,5,,,7,5,,,8,5,,*7A
$GPGSV,5,3,19,9,3,137,30,10,5,,,11,5,,,12,44,85,*44
$GPGSV,5,4,19,14,33,226,,20,6,332,,24,4,147,,26,18,202,*78
$GPGSV,5,5,19,29,47,187,35,30,80,98,28,31,37,300,*74
$GPGGA,105011.80,5612.9999,N,00306.7096,W,,2,60.000,160.002,M,,M,,*51
$GPRMC,105011.80,V,5612.9999,N,00306.7096,W,,,081009,,W,N*02
$GPGSA,A,1,29,2,,,,,,,,,,,60.000,60.000,60.000*3F
$GPGSV,5,1,19,1,5,,24,2,28,74,26,4,19,40,30,9,3,137,30*4F
$GPGSV,5,2,19,12,44,85,,13,5,,,14,33,226,,15,5,,*4D
$GPGSV,5,3,19,16,5,,,17,5,,,18,5,,,19,5,,*77
$GPGSV,5,4,19,20,6,332,,21,5,,,24,4,147,,26,18,202,*7D
$GPGSV,5,5,19,29,47,187,35,30,80,98,28,31,37,300,*74
$GPGGA,105012.80,5612.9999,N,00306.7096,W,,2,60.000,160.002,M,,M,,*52
$GPRMC,105012.80,V,5612.9999,N,00306.7096,W,,,081009,,W,N*01
$GPGSA,A,1,29,2,,,,,,,,,,,60.000,60.000,60.000*3F
$GPGSV,5,1,19,1,5,,24,2,28,74,26,4,19,40,30,9,3,137,29*47
$GPGSV,5,2,19,12,44,85,,13,5,,,14,33,226,,15,5,,*4D
$GPGSV,5,3,19,16,5,,,17,5,,,18,5,,,19,5,,*77
$GPGSV,5,4,19,20,6,332,,21,5,,,24,4,147,,26,18,202,*7D
$GPGSV,5,5,19,29,47,187,35,30,80,98,28,31,37,300,*74
$GPGGA,105013.80,5612.9999,N,00306.7096,W,,2,60.000,160.002,M,,M,,*53
$GPRMC,105013.80,V,5612.9999,N,00306.7096,W,,,081009,,W,N*00
$GPGSA,A,1,29,2,,,,,,,,,,,60.000,60.000,60.000*3F
$GPGSV,5,1,19,1,5,,24,2,28,74,26,4,19,40,29,9,3,137,29*4F
$GPGSV,5,2,19,12,44,85,,13,5,,,14,33,226,,15,5,,*4D
$GPGSV,5,3,19,16,5,,,17,5,,,18,5,,,19,5,,*77
$GPGSV,5,4,19,20,6,332,,21,5,,,24,4,147,,26,18,202,*7D
$GPGSV,5,5,19,29,47,187,35,30,80,98,28,31,37,300,*74
$GPGGA,105014.80,5612.9999,N,00306.7096,W,,2,60.000,160.002,M,,M,,*54
$GPRMC,105014.80,V,5612.9999,N,00306.7096,W,,,081009,,W,N*07
$GPGSA,A,1,29,2,,,,,,,,,,,60.000,60.000,60.000*3F
$GPGSV,5,1,19,1,5,,24,2,28,74,25,4,19,40,29,9,3,137,30*44
$GPGSV,5,2,19,12,44,85,,13,5,,,14,33,226,,15,5,,*4D
$GPGSV,5,3,19,16,5,,,17,5,,,18,5,,,19,5,,*77
$GPGSV,5,4,19,20,6,332,,21,5,,,24,4,147,,26,18,202,*7D
$GPGSV,5,5,19,29,47,187,36,30,80,98,29,31,37,300,*76
$GPGGA,105015.80,5612.9999,N,00306.7096,W,,2,60.000,160.002,M,,M,,*55
$GPRMC,105015.80,V,5612.9999,N,00306.7096,W,,,081009,,W,N*06
$GPGSA,A,1,29,2,,,,,,,,,,,60.000,60.000,60.000*3F
$GPGSV,5,1,19,1,5,,24,2,28,74,25,4,19,40,28,9,3,137,29*4D
$GPGSV,5,2,19,12,44,85,,13,5,,,14,33,226,,15,5,,*4D
$GPGSV,5,3,19,16,5,,,17,5,,,18,5,,,19,5,,*77
$GPGSV,5,4,19,20,6,332,,21,5,,,24,4,147,,26,18,202,*7D
$GPGSV,5,5,19,29,47,187,35,30,80,98,29,31,37,300,*75
$GPGGA,105016.80,5612.9999,N,00306.7096,W,,2,60.000,160.002,M,,M,,*56
$GPRMC,105016.80,V,5612.9999,N,00306.7096,W,,,081009,,W,N*05
$GPGSA,A,1,29,2,,,,,,,,,,,60.000,60.000,60.000*3F
$GPGSV,5,1,19,1,5,,23,2,28,74,25,4,19,40,28,9,3,137,30*42
$GPGSV,5,2,19,12,44,85,,13,5,,,14,33,226,,15,5,,*4D
$GPGSV,5,3,19,16,5,,,17,5,,,18,5,,,19,5,,*77
$GPGSV,5,4,19,20,6,332,,21,5,,,24,4,147,,26,18,202,*7D
$GPGSV,5,5,19,29,47,187,35,30,80,98,29,31,37,300,*75
$GPGGA,105017.80,5612.9999,N,00306.7096,W,,2,60.000,160.002,M,,M,,*57
$GPRMC,105017.80,V,5612.9999,N,00306.7096,W,,,081009,,W,N*04
$GPGSA,A,1,29,2,,,,,,,,,,,60.000,60.000,60.000*3F
$GPGSV,5,1,19,1,5,,24,2,28,74,24,4,19,40,27,9,3,137,29*43
$GPGSV,5,2,19,12,44,85,,13,5,,,14,32,226,,15,5,,*4C
$GPGSV,5,3,19,16,5,,,17,5,,,18,5,,,19,5,,*77
$GPGSV,5,4,19,20,6,332,,21,5,,,24,4,147,,26,17,202,*72
$GPGSV,5,5,19,29,47,187,35,30,80,98,30,31,38,300,*72
$GPGGA,105018.80,5612.9999,N,00306.7096,W,,2,60.000,160.002,M,,M,,*58
$GPRMC,105018.80,V,5612.9999,N,00306.7096,W,,,081009,,W,N*0B
$GPGSA,A,1,29,2,,,,,,,,,,,60.000,60.000,60.000*3F
$GPGSV,5,1,19,1,5,,25,2,28,74,23,4,19,40,27,9,3,137,29*45
$GPGSV,5,2,19,12,44,85,,13,5,,,14,32,226,,15,5,,*4C
$GPGSV,5,3,19,16,5,,,17,5,,,18,5,,,19,5,,*77
$GPGSV,5,4,19,20,6,332,,21,5,,,24,4,147,,26,17,202,*72
$GPGSV,5,5,19,29,47,187,36,30,80,98,31,31,38,300,*70
$GPGGA,105019.80,5612.9999,N,00306.7096,W,,1,60.000,160.002,M,,M,,*5A
$GPRMC,105019.80,V,5612.9999,N,00306.7096,W,,,081009,,W,N*0A
$GPGSA,A,1,29,,,,,,,,,,,,60.000,60.000,60.000*0D
$GPGSV,5,1,19,1,5,,24,2,28,74,24,4,19,40,26,9,3,137,29*42
$GPGSV,5,2,19,12,44,85,,13,5,,,14,32,226,,15,5,,*4C
$GPGSV,5,3,19,16,5,,,17,5,,,18,5,,,19,5,,*77
$GPGSV,5,4,19,20,6,332,,21,5,,,24,4,147,,26,17,202,*72
$GPGSV,5,5,19,29,47,187,36,30,80,98,31,31,38,300,*70
$GPGGA,105020.80,5612.9999,N,00306.7096,W,,2,60.000,160.002,M,,M,,*53
$GPRMC,105020.80,V,5612.9999,N,00306.7096,W,,,081009,,W,N*00
$GPGSA,A,1,29,2,,,,,,,,,,,60.000,60.000,60.000*3F
$GPGSV,5,1,19,1,5,,24,2,28,74,24,4,19,40,25,9,3,137,29*41
$GPGSV,5,2,19,12,44,85,,13,5,,,14,32,226,,15,5,,*4C
$GPGSV,5,3,19,16,5,,,17,5,,,18,5,,,19,5,,*77
$GPGSV,5,4,19,20,6,332,,21,5,,,24,4,147,,26,17,202,*72
$GPGSV,5,5,19,29,47,187,37,30,80,98,32,31,38,300,*72
$GPGGA,105021.80,5612.9738,N,00306.6652,W,,3,3.722,160.002,M,,M,,*6B
$GPRMC,105021.80,V,5612.9738,N,00306.6652,W,,,081009,,W,N*0B
$GPGSA,A,1,29,2,30,,,,,,,,,,3.814,3.722,0.832*09
$GPGSV,5,1,19,1,5,,24,2,28,74,24,4,19,40,25,9,3,137,29*41
$GPGSV,5,2,19,12,44,85,,13,5,,,14,32,226,,15,5,,*4C
$GPGSV,5,3,19,16,5,,,17,5,,,18,5,,,19,5,,*77
$GPGSV,5,4,19,20,6,332,,21,5,,,24,4,147,,26,17,202,*72
$GPGSV,5,5,19,29,47,187,36,30,80,98,32,31,38,300,*73
$GPGGA,105022.80,5612.9811,N,00306.6703,W,,3,3.724,160.002,M,,M,,*6F
$GPRMC,105022.80,V,5612.9811,N,00306.6703,W,,,081009,,W,N*09
$GPGSA,A,1,29,2,30,,,,,,,,,,3.816,3.724,0.832*0D
$GPGSV,5,1,19,1,5,,23,2,28,74,23,4,19,40,25,9,3,137,29*41
$GPGSV,5,2,19,12,44,85,,13,5,,,14,32,226,,15,5,,*4C
$GPGSV,5,3,19,16,5,,,17,5,,,18,5,,,19,5,,*77
$GPGSV,5,4,19,20,6,332,,21,5,,,24,4,147,,26,17,202,*72
$GPGSV,5,5,19,29,47,187,36,30,80,98,33,31,38,300,*72
$GPGGA,105023.80,5612.9836,N,00306.6875,W,,3,3.726,160.002,M,,M,,*67
$GPRMC,105023.80,V,5612.9836,N,00306.6875,W,,,081009,,W,N*03
$GPGSA,A,1,29,2,30,,,,,,,,,,3.817,3.726,0.832*0E
$GPGSV,5,1,19,1,5,,23,2,28,73,24,4,19,40,25,9,3,137,28*40
$GPGSV,5,2,19,12,44,85,,13,5,,,14,32,226,,15,5,,*4C
$GPGSV,5,3,19,16,5,,,17,5,,,18,5,,,19,5,,*77
$GPGSV,5,4,19,20,6,332,,21,5,,,24,4,147,,26,17,202,*72
$GPGSV,5,5,19,29,47,187,36,30,80,98,32,31,38,300,*73
$GPGGA,105024.80,5612.9942,N,00306.7008,W,,3,3.727,160.002,M,,M,,*60
$GPRMC,105024.80,V,5612.9942,N,00306.7008,W,,,081009,,W,N*05
$GPGSA,A,1,29,2,30,,,,,,,,,,3.819,3.727,0.832*01
$GPGSV,5,1,19,1,5,,23,2,28,73,24,4,19,40,24,9,3,137,29*40
$GPGSV,5,2,19,12,44,85,,13,5,,,14,32,226,,15,5,,*4C
$GPGSV,5,3,19,16,5,,,17,5,,,18,5,,,19,5,,*77
$GPGSV,5,4,19,20,6,332,,21,5,,,24,4,147,,26,17,202,*72
$GPGSV,5,5,19,29,47,187,35,30,80,98,33,31,38,300,*71
$GPGGA,105025.80,5612.9999,N,00306.7096,W,,2,60.000,160.002,M,,M,,*56
$GPRMC,105025.80,V,5612.9999,N,00306.7096,W,,,081009,,W,N*05
$GPGSA,A,1,29,30,,,,,,,,,,,60.000,60.000,60.000*0E
$GPGSV,5,1,19,1,5,,23,2,28,73,23,4,19,40,24,9,3,137,28*46
$GPGSV,5,2,19,12,44,85,,13,5,,,14,32,226,,15,5,,*4C
$GPGSV,5,3,19,16,5,,,17,5,,,18,5,,,19,5,,*77
$GPGSV,5,4,19,20,6,332,,21,5,,,24,4,147,,26,17,202,*72
$GPGSV,5,5,19,29,47,187,35,30,80,98,33,31,38,300,*71
$GPGGA,105026.80,5612.9999,N,00306.7096,W,,2,60.000,160.002,M,,M,,*55
$GPRMC,105026.80,V,5612.9999,N,00306.7096,W,,,081009,,W,N*06
$GPGSA,A,1,29,30,,,,,,,,,,,60.000,60.000,60.000*0E
$GPGSV,5,1,19,1,5,,23,2,28,73,23,4,19,40,24,9,3,137,28*46
$GPGSV,5,2,19,12,44,85,,13,5,,,14,32,226,,15,5,,*4C
$GPGSV,5,3,19,16,5,,,17,5,,,18,5,,,19,5,,*77
$GPGSV,5,4,19,20,6,332,,21,5,,,24,4,147,,26,17,202,*72
$GPGSV,5,5,19,29,47,187,36,30,80,98,33,31,38,300,*72
$GPGGA,105027.80,5612.9956,N,00306.6983,W,,3,2.506,160.002,M,,M,,*6D
$GPRMC,105027.80,V,5612.9956,N,00306.6983,W,,,081009,,W,N*08
$GPGSA,A,1,29,30,9,,,,,,,,,,2.597,2.506,0.681*06
$GPGSV,5,1,19,1,5,,23,2,28,73,22,4,19,40,24,9,3,137,28*47
$GPGSV,5,2,19,12,44,85,,13,5,,,14,32,226,,15,5,,*4C
$GPGSV,5,3,19,16,5,,,17,5,,,18,5,,,19,5,,*77
$GPGSV,5,4,19,20,6,332,,21,5,,,24,4,147,,26,17,202,*72
$GPGSV,5,5,19,29,47,187,36,30,80,98,33,31,38,300,*72
$GPGGA,105028.80,5612.9948,N,00306.7136,W,,3,2.506,160.002,M,,M,,*6A
$GPRMC,105028.80,V,5612.9948,N,00306.7136,W,,,081009,,W,N*0F
$GPGSA,A,1,29,30,9,,,,,,,,,,2.597,2.506,0.681*06
$GPGSV,5,1,19,1,5,,22,2,28,73,24,4,19,40,25,9,3,137,28*41
$GPGSV,5,2,19,12,44,85,,13,5,,,14,32,226,,15,5,,*4C
$GPGSV,5,3,19,16,5,,,17,5,,,18,5,,,19,5,,*77
$GPGSV,5,4,19,20,6,332,,21,5,,,24,4,147,,26,17,202,*72
$GPGSV,5,5,19,29,47,187,36,30,80,98,33,31,38,300,*72
$GPGGA,105029.80,5612.9978,N,00306.7359,W,1,4,17.516,159.072,M,,M,,*6D
$GPRMC,105029.80,A,5612.9978,N,00306.7359,W,0.174,318.057,081009,,W,A*14
$GPGSA,A,3,29,2,30,9,,,,,,,,,23.570,17.516,15.771*03
$GPGSV,5,1,19,1,5,,23,2,28,73,25,3,5,,,4,19,40,24*73
$GPGSV,5,2,19,5,5,,,9,3,137,27,12,44,85,,14,32,226,*70
$GPGSV,5,3,19,20,6,332,,22,5,,,23,5,,,24,4,147,*70
$GPGSV,5,4,19,25,5,,,26,17,202,,27,5,,,28,5,,*7F
$GPGSV,5,5,19,29,47,187,35,30,80,98,33,31,38,300,*71
$GPGGA,105030.80,5612.9978,N,00306.7310,W,1,4,17.510,159.050,M,,M,,*6E
$GPRMC,105030.80,A,5612.9978,N,00306.7310,W,0.265,127.668,081009,,W,A*16
$GPGSA,A,3,29,2,30,9,,,,,,,,,23.559,17.510,15.762*0C
$GPGSV,5,1,19,1,5,,23,2,28,73,25,3,5,,,4,19,40,24*73
$GPGSV,5,2,19,5,5,,,9,3,137,27,12,44,85,,14,32,226,*70
$GPGSV,5,3,19,20,6,332,,22,5,,,23,5,,,24,4,147,*70
$GPGSV,5,4,19,25,5,,,26,17,202,,27,5,,,28,5,,*7F
$GPGSV,5,5,19,29,47,187,35,30,80,98,34,31,38,300,*76
$GPGGA,105031.80,5612.9969,N,00306.7273,W,1,4,17.504,159.024,M,,M,,*6D
$GPRMC,105031.80,A,5612.9969,N,00306.7273,W,0.374,132.018,081009,,W,A*17
$GPGSA,A,3,29,2,30,9,,,,,,,,,23.548,17.504,15.752*0A
$GPGSV,5,1,19,1,5,,25,2,28,73,24,3,5,,,4,19,40,23*73
$GPGSV,5,2,19,5,5,,,9,3,137,27,12,44,85,,14,32,226,*70
$GPGSV,5,3,19,20,6,332,,22,5,,,23,5,,,24,4,147,*70
$GPGSV,5,4,19,25,5,,,26,17,202,,27,5,,,28,5,,*7F
$GPGSV,5,5,19,29,47,187,35,30,80,98,34,31,38,300,*76
$GPGGA,105032.80,5612.9977,N,00306.7212,W,1,4,17.498,158.985,M,,M,,*61
$GPRMC,105032.80,A,5612.9977,N,00306.7212,W,0.501,133.315,081009,,W,A*17
$GPGSA,A,3,29,2,30,9,,,,,,,,,23.537,17.498,15.743*06
$GPGSV,5,1,19,1,5,,25,2,28,73,24,3,5,,,4,19,40,23*73
$GPGSV,5,2,19,5,5,,,9,3,137,26,12,44,85,,14,32,226,*71
$GPGSV,5,3,19,20,6,332,,22,5,,,23,5,,,24,4,147,*70
$GPGSV,5,4,19,25,5,,,26,17,202,,27,5,,,28,5,,*7F
$GPGSV,5,5,19,29,47,187,35,30,80,98,33,31,38,300,*71
$GPGGA,105033.80,5612.9975,N,00306.7206,W,1,4,17.491,158.982,M,,M,,*69
$GPRMC,105033.80,A,5612.9975,N,00306.7206,W,0.695,131.210,081009,,W,A*19
$GPGSA,A,3,29,2,30,9,,,,,,,,,23.527,17.491,15.734*0E
$GPGSV,5,1,19,1,5,,25,2,28,73,24,3,5,,,4,19,40,24*74
$GPGSV,5,2,19,5,5,,,9,3,137,26,12,44,85,,14,32,226,*71
$GPGSV,5,3,19,20,6,332,,22,5,,,23,5,,,24,4,147,*70
$GPGSV,5,4,19,25,5,,,26,17,202,,27,5,,,28,5,,*7F
$GPGSV,5,5,19,29,47,187,35,30,80,98,33,31,38,300,*71
$GPGGA,105034.80,5612.9972,N,00306.7198,W,1,4,17.485,159.022,M,,M,,*6A
$GPRMC,105034.80,A,5612.9972,N,00306.7198,W,1.157,241.127,081009,,W,A*16
$GPGSA,A,3,29,2,30,9,,,,,,,,,23.516,17.485,15.725*09
$GPGSV,5,1,19,1,5,,26,2,28,73,23,3,5,,,4,19,40,24*70
$GPGSV,5,2,19,5,5,,,9,3,137,25,12,44,85,,14,32,226,*72
$GPGSV,5,3,19,20,6,332,,22,5,,,23,5,,,24,4,147,*70
$GPGSV,5,4,19,25,5,,,26,17,202,,27,5,,,28,5,,*7F
$GPGSV,5,5,19,29,47,187,35,30,80,98,33,31,38,300,*71
$GPGGA,105035.80,5612.9962,N,00306.7171,W,1,4,17.479,159.038,M,,M,,*65
$GPRMC,105035.80,A,5612.9962,N,00306.7171,W,0.278,266.820,081009,,W,A*15
$GPGSA,A,3,29,2,30,9,,,,,,,,,23.505,17.479,15.715*0B
$GPGSV,3,1,11,2,28,73,25,4,19,40,24,9,3,137,25,12,44,85,*48
$GPGSV,3,2,11,14,32,226,,20,6,332,,24,4,147,,26,17,202,*7E
$GPGSV,3,3,11,29,47,187,35,30,80,98,33,31,38,300,*79
$GPGGA,105036.80,5612.9956,N,00306.7155,W,1,4,17.473,159.027,M,,M,,*63
$GPRMC,105036.80,A,5612.9956,N,00306.7155,W,0.198,246.533,081009,,W,A*17
$GPGSA,A,3,29,2,30,9,,,,,,,,,23.494,17.473,15.706*0A
$GPGSV,3,1,11,2,28,73,27,4,19,40,24,9,3,137,25,12,44,85,*4A
$GPGSV,3,2,11,14,32,226,,20,6,332,,24,4,147,,26,17,202,*7E
$GPGSV,3,3,11,29,47,187,36,30,80,98,33,31,38,300,*7A
$GPGGA,105037.80,5612.9964,N,00306.7154,W,1,4,17.466,159.026,M,,M,,*67
$GPRMC,105037.80,A,5612.9964,N,00306.7154,W,0.195,197.090,081009,,W,A*18
$GPGSA,A,3,29,2,30,9,,,,,,,,,23.483,17.466,15.697*01
$GPGSV,3,1,11,2,28,73,28,4,19,40,24,9,3,137,26,12,44,85,*46
$GPGSV,3,2,11,14,32,226,,20,6,332,,24,4,147,,26,17,202,*7E
$GPGSV,3,3,11,29,47,187,36,30,80,98,33,31,38,300,*7A
$GPGGA,105038.80,5612.9968,N,00306.7154,W,1,4,17.460,159.025,M,,M,,*61
$GPRMC,105038.80,A,5612.9968,N,00306.7154,W,0.341,157.412,081009,,W,A*12
$GPGSA,A,3,29,2,30,9,,,,,,,,,23.472,17.460,15.687*08
$GPGSV,3,1,11,2,28,73,29,4,19,40,25,9,3,137,26,12,44,85,*46
$GPGSV,3,2,11,14,32,226,,20,6,332,,24,4,147,,26,17,202,*7E
$GPGSV,3,3,11,29,47,187,36,30,80,98,33,31,38,300,*7A
$GPGGA,105039.80,5612.9970,N,00306.7151,W,1,4,17.454,159.014,M,,M,,*69
$GPRMC,105039.80,A,5612.9970,N,00306.7151,W,0.347,146.770,081009,,W,A*1E
$GPGSA,A,3,29,2,30,9,,,,,,,,,23.461,17.454,15.678*0D
$GPGSV,3,1,11,2,28,73,30,4,19,40,25,9,3,137,25,12,44,85,*4D
$GPGSV,3,2,11,14,32,226,,20,6,332,,24,4,147,,26,17,202,*7E
$GPGSV,3,3,11,29,47,187,36,30,80,98,32,31,38,300,*7B
$GPGGA,105040.80,5612.9971,N,00306.7142,W,1,4,17.447,158.994,M,,M,,*66
$GPRMC,105040.80,A,5612.9971,N,00306.7142,W,1.093,166.635,081009,,W,A*1A
$GPGSA,A,3,29,2,30,9,,,,,,,,,23.450,17.447,15.669*0D
$GPGSV,3,1,11,2,28,73,30,4,19,40,27,9,3,137,25,12,44,85,20*4D
$GPGSV,3,2,11,14,32,226,,20,6,332,,24,4,147,,26,17,202,*7E
$GPGSV,3,3,11,29,47,187,36,30,80,98,31,31,38,300,*78
$GPGGA,105041.80,5612.9975,N,00306.7156,W,1,4,17.441,159.008,M,,M,,*6D
$GPRMC,105041.80,A,5612.9975,N,00306.7156,W,1.073,180.241,081009,,W,A*1B
$GPGSA,A,3,29,2,30,9,,,,,,,,,23.439,17.441,15.659*07
$GPGSV,3,1,11,2,28,73,29,4,19,40,26,9,3,137,24,12,44,85,22*47
$GPGSV,3,2,11,14,32,226,,20,6,332,,24,4,147,,26,17,202,*7E
$GPGSV,3,3,11,29,47,187,35,30,80,98,31,31,38,300,*7B
$GPGGA,105042.80,5612.9975,N,00306.7156,W,1,4,17.435,159.008,M,,M,,*6D
$GPRMC,105042.80,A,5612.9975,N,00306.7156,W,,,081009,,W,A*13
$GPGSA,A,3,29,2,30,9,,,,,,,,,23.428,17.435,15.650*0D
$GPGSV,3,1,11,2,28,73,28,4,19,40,27,9,3,137,23,12,44,85,23*41
$GPGSV,3,2,11,14,32,226,,20,6,332,,24,4,147,,26,17,202,*7E
$GPGSV,3,3,11,29,47,187,35,30,80,98,30,31,38,300,*7A
$GPGGA,105043.80,5612.9975,N,00306.7156,W,1,4,17.428,159.008,M,,M,,*60
$GPRMC,105043.80,A,5612.9975,N,00306.7156,W,,,081009,,W,A*12
$GPGSA,A,3,29,2,30,9,,,,,,,,,23.417,17.428,15.641*0D
$GPGSV,3,1,11,2,28,73,28,4,19,40,28,9,3,137,24,12,44,85,25*4F
$GPGSV,3,2,11,14,32,226,,20,6,332,,24,4,147,,26,17,202,*7E
$GPGSV,3,3,11,29,47,187,35,30,80,98,30,31,38,300,*7A
$GPGGA,105044.80,5612.9975,N,00306.7156,W,1,4,17.422,159.008,M,,M,,*6D
$GPRMC,105044.80,A,5612.9975,N,00306.7156,W,,,081009,,W,A*15
$GPGSA,A,3,29,2,30,9,,,,,,,,,23.406,17.422,15.631*00
$GPGSV,3,1,11,2,28,73,27,4,19,40,28,9,3,137,24,12,44,85,26*43
$GPGSV,3,2,11,14,32,226,,20,6,332,,24,4,147,,26,17,202,*7E
$GPGSV,3,3,11,29,47,187,36,30,80,98,30,31,38,300,*79
$GPGGA,105045.80,5612.9975,N,00306.7156,W,1,4,17.416,159.008,M,,M,,*6B
$GPRMC,105045.80,A,5612.9975,N,00306.7156,W,,,081009,,W,A*14
$GPGSA,A,3,29,2,30,9,,,,,,,,,23.396,17.416,15.622*0B
$GPGSV,3,1,11,2,28,73,27,4,19,40,27,9,3,137,26,12,44,85,28*40
$GPGSV,3,2,11,14,32,226,,20,6,332,,24,4,147,,26,17,202,*7E
$GPGSV,3,3,11,29,47,187,36,30,80,98,31,31,38,300,*78
$GPGGA,105046.80,5612.9975,N,00306.7156,W,1,4,17.409,159.008,M,,M,,*66
$GPRMC,105046.80,A,5612.9975,N,00306.7156,W,,,081009,,W,A*17
$GPGSA,A,3,29,2,30,9,,,,,,,,,23.384,17.409,15.613*04
$GPGSV,3,1,11,2,28,73,26,4,19,40,27,9,3,137,27,12,44,85,29*41
$GPGSV,3,2,11,14,32,226,,20,6,332,,24,4,147,,26,17,202,*7E
$GPGSV,3,3,11,29,47,187,36,30,80,98,31,31,38,300,*78
$GPGGA,105047.80,5612.9975,N,00306.7156,W,1,4,17.403,159.008,M,,M,,*6D
$GPRMC,105047.80,A,5612.9975,N,00306.7156,W,,,081009,,W,A*16
$GPGSA,A,3,29,2,30,9,,,,,,,,,23.373,17.403,15.603*07
$GPGSV,3,1,11,2,28,73,26,4,19,40,27,9,3,137,27,12,44,85,29*41
$GPGSV,3,2,11,14,32,226,,20,6,332,,24,4,147,,26,17,202,*7E
$GPGSV,3,3,11,29,47,187,36,30,80,98,31,31,38,300,*78
$GPGGA,105048.80,5612.9975,N,00306.7156,W,1,4,17.397,159.008,M,,M,,*68
$GPRMC,105048.80,A,5612.9975,N,00306.7156,W,,,081009,,W,A*19
$GPGSA,A,3,29,2,30,9,,,,,,,,,23.362,17.397,15.594*00
$GPGSV,3,1,11,2,28,73,26,4,19,40,27,9,3,137,27,12,44,85,29*41
$GPGSV,3,2,11,14,32,226,,20,6,332,,24,4,147,,26,17,202,*7E
$GPGSV,3,3,11,29,47,187,36,30,80,98,31,31,38,300,*78
$GPGGA,105049.80,5612.9975,N,00306.7156,W,1,4,17.390,159.008,M,,M,,*6E
$GPRMC,105049.80,A,5612.9975,N,00306.7156,W,,,081009,,W,A*18
$GPGSA,A,3,29,2,30,9,,,,,,,,,23.351,17.390,15.584*06
$GPGSV,3,1,11,2,28,73,25,4,19,40,26,9,3,137,27,12,44,85,29*43
$GPGSV,3,2,11,14,32,226,,20,6,332,,24,4,147,,26,17,202,*7E
$GPGSV,3,3,11,29,47,187,36,30,80,98,31,31,38,300,*78
$GPGGA,105050.80,5612.9975,N,00306.7156,W,1,4,17.384,159.008,M,,M,,*63
$GPRMC,105050.80,A,5612.9975,N,00306.7156,W,,,081009,,W,A*10
$GPGSA,A,3,29,2,30,9,,,,,,,,,23.340,17.384,15.575*0D
$GPGSV,3,1,11,2,28,73,25,4,19,40,26,9,3,137,27,12,44,85,29*43
$GPGSV,3,2,11,14,32,226,,20,6,332,,24,4,147,,26,17,202,*7E
$GPGSV,3,3,11,29,47,187,35,30,80,98,31,31,38,300,*7B
$GPGGA,105051.80,5612.9975,N,00306.7156,W,1,4,17.377,159.008,M,,M,,*6E
$GPRMC,105051.80,A,5612.9975,N,00306.7156,W,,,081009,,W,A*11
$GPGSA,A,3,29,2,30,9,,,,,,,,,23.329,17.377,15.566*0C
$GPGSV,3,1,11,2,28,73,25,4,19,40,26,9,3,137,27,12,44,85,30*4B
$GPGSV,3,2,11,14,32,226,,20,6,332,,24,4,147,,26,17,202,*7E
$GPGSV,3,3,11,29,47,187,35,30,80,98,32,31,38,300,*78
$GPGGA,105052.80,5612.9975,N,00306.7156,W,1,4,17.371,159.008,M,,M,,*6B
$GPRMC,105052.80,A,5612.9975,N,00306.7156,W,,,081009,,W,A*12
$GPGSA,A,3,29,2,30,9,,,,,,,,,23.318,17.371,15.556*0B
$GPGSV,3,1,11,2,28,73,25,4,19,40,26,9,3,137,27,12,44,85,30*4B
$GPGSV,3,2,11,14,32,226,,20,6,332,,24,4,147,,26,17,202,*7E
$GPGSV,3,3,11,29,47,187,35,30,80,98,32,31,38,300,*78
$GPGGA,105053.80,5612.9975,N,00306.7156,W,1,4,17.364,159.008,M,,M,,*6E
$GPRMC,105053.80,A,5612.9975,N,00306.7156,W,,,081009,,W,A*13
$GPGSA,A,3,29,2,30,9,,,,,,,,,23.307,17.364,15.547*01
$GPGSV,3,1,11,2,28,73,24,4,19,40,26,9,3,137,27,12,44,85,30*4A
$GPGSV,3,2,11,14,32,226,,20,6,332,,24,4,147,,26,17,202,*7E
$GPGSV,3,3,11,29,47,187,35,30,80,98,32,31,38,300,*78
$GPGGA,105054.80,5612.9975,N,00306.7156,W,1,4,17.358,159.008,M,,M,,*66
$GPRMC,105054.80,A,5612.9975,N,00306.7156,W,,,081009,,W,A*14
$GPGSA,A,3,29,2,30,9,,,,,,,,,23.296,17.358,15.537*00
$GPGSV,3,1,11,2,28,73,24,4,19,40,26,9,3,137,27,12,44,85,30*4A
$GPGSV,3,2,11,14,32,226,,20,6,332,,24,4,147,,26,17,202,*7E
$GPGSV,3,3,11,29,47,187,35,30,80,98,31,31,38,300,*7B
$GPGGA,105055.80,5612.9975,N,00306.7156,W,1,4,17.351,159.008,M,,M,,*6E
$GPRMC,105055.80,A,5612.9975,N,00306.7156,W,,,081009,,W,A*15
$GPGSA,A,3,29,2,30,9,,,,,,,,,23.285,17.351,15.528*05
$GPGSV,3,1,11,2,28,73,23,4,19,40,25,9,3,137,27,12,44,85,30*4E
$GPGSV,3,2,11,14,32,226,,20,6,332,,24,4,147,,26,17,202,*7E
$GPGSV,3,3,11,29,47,187,34,30,80,98,32,31,38,300,*79
$GPGGA,105056.80,5612.9975,N,00306.7156,W,1,4,17.345,159.008,M,,M,,*68
$GPRMC,105056.80,A,5612.9975,N,00306.7156,W,,,081009,,W,A*16
$GPGSA,A,3,29,2,30,9,,,,,,,,,23.274,17.345,15.518*0D
$GPGSV,3,1,11,2,28,73,23,4,19,40,25,9,3,137,27,12,44,85,31*4F
$GPGSV,3,2,11,14,32,226,,20,6,332,,24,4,147,,26,17,202,*7E
$GPGSV,3,3,11,29,48,187,34,30,80,98,32,31,38,300,*76
$GPGGA,105057.80,5612.9975,N,00306.7156,W,1,4,17.338,159.008,M,,M,,*63
$GPRMC,105057.80,A,5612.9975,N,00306.7156,W,,,081009,,W,A*17
$GPGSA,A,3,29,2,30,9,,,,,,,,,23.263,17.338,15.509*01
$GPGSV,3,1,11,2,28,73,23,4,19,40,26,9,3,137,27,12,44,85,31*4C
$GPGSV,3,2,11,14,32,226,,20,6,332,,24,4,147,,26,17,202,*7E
$GPGSV,3,3,11,29,48,187,35,30,80,98,32,31,38,300,*77
$GPGGA,105058.80,5612.9975,N,00306.7156,W,1,4,17.332,159.008,M,,M,,*66
$GPRMC,105058.80,A,5612.9975,N,00306.7156,W,,,081009,,W,A*18
$GPGSA,A,3,29,2,30,9,,,,,,,,,23.251,17.332,15.500*03
$GPGSV,3,1,11,2,28,73,23,4,19,40,26,9,3,137,27,12,44,85,31*4C
$GPGSV,3,2,11,14,32,226,,20,6,332,,24,4,147,,26,17,202,*7E
$GPGSV,3,3,11,29,48,187,35,30,80,98,32,31,38,300,*77
$GPGGA,105059.80,5612.9975,N,00306.7156,W,1,4,17.325,159.008,M,,M,,*61
$GPRMC,105059.80,A,5612.9975,N,00306.7156,W,,,081009,,W,A*19
$GPGSA,A,3,29,2,30,9,,,,,,,,,23.240,17.325,15.490*0D
$GPGSV,3,1,11,2,28,73,24,4,19,40,26,9,3,137,27,12,44,85,31*4B
$GPGSV,3,2,11,14,32,226,,20,6,332,,24,4,147,,26,17,202,*7E
$GPGSV,3,3,11,29,48,187,34,30,80,98,33,31,38,300,32*76
$GPGGA,105100.80,5612.9975,N,00306.7156,W,1,4,17.319,159.008,M,,M,,*63
$GPRMC,105100.80,A,5612.9975,N,00306.7156,W,,,081009,,W,A*14
$GPGSA,A,3,29,2,30,9,,,,,,,,,23.229,17.319,15.481*0D
$GPGSV,3,1,11,2,28,73,24,4,19,40,26,9,3,137,27,12,44,85,31*4B
$GPGSV,3,2,11,14,32,226,,20,6,332,,24,4,147,,26,17,202,*7E
$GPGSV,3,3,11,29,48,187,34,30,80,98,34,31,38,300,33*70
$GPGGA,105101.80,5612.9975,N,00306.7156,W,1,4,17.312,159.008,M,,M,,*69
$GPRMC,105101.80,A,5612.9975,N,00306.7156,W,,,081009,,W,A*15
$GPGSA,A,3,29,2,30,9,,,,,,,,,23.218,17.312,15.471*0B
$GPGSV,3,1,11,2,28,73,24,4,19,40,27,9,3,137,27,12,44,85,31*4A
$GPGSV,3,2,11,14,32,226,,20,6,332,,24,4,147,,26,17,202,*7E
$GPGSV,3,3,11,29,48,187,35,30,80,98,34,31,38,300,33*71
$GPGGA,105102.80,5612.9975,N,00306.7156,W,1,4,17.306,159.008,M,,M,,*6F
$GPRMC,105102.80,A,5612.9975,N,00306.7156,W,,,081009,,W,A*16
$GPGSA,A,3,29,2,30,9,,,,,,,,,23.207,17.306,15.462*02
$GPGSV,3,1,11,2,28,73,25,4,19,40,26,9,3,137,27,12,44,85,31*4A
$GPGSV,3,2,11,14,32,226,,20,6,332,,24,4,147,,26,17,202,*7E
$GPGSV,3,3,11,29,48,187,34,30,80,98,34,31,38,300,32*71
$GPGGA,105103.80,5612.9975,N,00306.7156,W,1,5,6.586,159.008,M,,M,,*51
$GPRMC,105103.80,A,5612.9975,N,00306.7156,W,,,081009,,W,A*17
$GPGSA,A,3,29,2,30,9,12,,,,,,,,8.747,6.586,5.756*32
$GPGSV,3,1,11,2,28,73,25,4,19,40,26,9,3,137,26,12,44,85,31*4B
$GPGSV,3,2,11,14,32,226,,20,6,332,,24,4,147,,26,17,202,*7E
$GPGSV,3,3,11,29,48,187,34,30,80,98,33,31,38,300,32*76
