$GPZDA,102008.00,15,01,2007,00,00*6D
$GPGGA,102008,3020.5010,N,01213.7241,E,2,09,1.00,627.59,M,31.479,M,,*41
$GPRMC,102008,A,3020.5010,N,01213.7241,E,0.0019,90.000,150107,,*11
$GPGSA,A,3,03,06,07,16,18,21,25,30,31,,,,2.0,1.0,1.8*31
$GPGBS,102008,0.22,M,0.22,M,10.35,M*02
{"class":"TPV","tag":"0xb1","mode":3,"time":"2007-01-15T10:20:08.000Z","ept":3.920,"lat":30.341683155,"lon":12.228735775,"alt":627.588,"epx":0.222,"epy":0.222,"epv":10.350,"track":90.0000,"speed":0.001,"climb":0.006}
$GPGSV,3,1,10,21,78,040,46,31,39,230,44,06,36,062,43,25,36,245,43*7F
$GPGSV,3,2,10,30,26,132,38,16,40,321,42,18,31,140,39,03,10,284,34*7F
$GPGSV,3,3,10,07,43,056,43,22,13,173,34*7C
{"class":"SKY","tag":"0x86","time":"2007-01-14T00:01:47.624Z","xdop":0.55,"ydop":0.74,"vdop":1.80,"tdop":1.30,"hdop":1.00,"gdop":2.40,"pdop":2.00,"satellites":[{"PRN":21,"el":78,"az":40,"ss":46,"used":true},{"PRN":31,"el":39,"az":230,"ss":44,"used":true},{"PRN":6,"el":36,"az":62,"ss":43,"used":true},{"PRN":25,"el":36,"az":245,"ss":43,"used":true},{"PRN":30,"el":26,"az":132,"ss":38,"used":true},{"PRN":16,"el":40,"az":321,"ss":42,"used":true},{"PRN":18,"el":31,"az":140,"ss":39,"used":true},{"PRN":3,"el":10,"az":284,"ss":34,"used":true},{"PRN":7,"el":43,"az":56,"ss":43,"used":true},{"PRN":22,"el":13,"az":173,"ss":34,"used":false}]}
$GPZDA,102009.00,15,01,2007,00,00*6C
$GPGGA,102009,3020.5010,N,01213.7241,E,2,09,1.00,627.58,M,31.479,M,,*41
$GPRMC,102009,A,3020.5010,N,01213.7241,E,31847.9464,0.000,150107,,*27
$GPGSA,A,3,03,06,07,16,18,21,25,30,31,,,,2.0,1.0,1.8*31
$GPGBS,102009,0.22,M,0.22,M,10.35,M*03
{"class":"TPV","tag":"0xb1","mode":3,"time":"2007-01-15T10:20:09.000Z","ept":3.920,"lat":30.341683205,"lon":12.228735818,"alt":627.577,"epx":0.222,"epy":0.222,"epv":10.350,"track":0.0000,"speed":16383.999,"climb":0.008,"eps":0.44}
$GPGSV,3,1,10,21,78,040,46,31,39,230,44,06,36,062,43,25,36,245,43*7F
$GPGSV,3,2,10,30,26,132,38,16,40,321,42,18,31,140,39,03,10,284,34*7F
$GPGSV,3,3,10,07,43,056,43,22,13,173,32*7A
{"class":"SKY","tag":"0x86","time":"2007-01-14T00:01:47.625Z","xdop":0.55,"ydop":0.74,"vdop":1.80,"tdop":1.30,"hdop":1.00,"gdop":2.40,"pdop":2.00,"satellites":[{"PRN":21,"el":78,"az":40,"ss":46,"used":true},{"PRN":31,"el":39,"az":230,"ss":44,"used":true},{"PRN":6,"el":36,"az":62,"ss":43,"used":true},{"PRN":25,"el":36,"az":245,"ss":43,"used":true},{"PRN":30,"el":26,"az":132,"ss":38,"used":true},{"PRN":16,"el":40,"az":321,"ss":42,"used":true},{"PRN":18,"el":31,"az":140,"ss":39,"used":true},{"PRN":3,"el":10,"az":284,"ss":34,"used":true},{"PRN":7,"el":43,"az":56,"ss":43,"used":true},{"PRN":22,"el":13,"az":173,"ss":32,"used":false}]}
$GPZDA,102010.00,15,01,2007,00,00*64
$GPGGA,102010,3020.5010,N,01213.7242,E,2,09,1.00,627.56,M,31.479,M,,*44
$GPRMC,102010,A,3020.5010,N,01213.7242,E,0.0019,90.000,150107,,*1B
$GPGSA,A,3,03,06,07,16,18,21,25,30,31,,,,2.0,1.0,1.8*31
$GPGBS,102010,0.22,M,0.22,M,10.35,M*0B
{"class":"TPV","tag":"0xb1","mode":3,"time":"2007-01-15T10:20:10.000Z","ept":3.920,"lat":30.341683095,"lon":12.228735894,"alt":627.558,"epx":0.222,"epy":0.222,"epv":10.350,"track":90.0000,"speed":0.001,"climb":16383.996,"eps":0.44}
$GPGSV,3,1,10,21,78,040,46,31,39,230,44,06,36,062,43,25,36,245,43*7F
$GPGSV,3,2,10,30,26,132,38,16,40,321,42,18,31,140,39,03,10,284,34*7F
$GPGSV,3,3,10,07,43,056,43,22,13,173,44*7B
{"class":"SKY","tag":"0x86","time":"2007-01-14T00:01:47.626Z","xdop":0.55,"ydop":0.74,"vdop":1.80,"tdop":1.30,"hdop":1.00,"gdop":2.40,"pdop":2.00,"satellites":[{"PRN":21,"el":78,"az":40,"ss":46,"used":true},{"PRN":31,"el":39,"az":230,"ss":44,"used":true},{"PRN":6,"el":36,"az":62,"ss":43,"used":true},{"PRN":25,"el":36,"az":245,"ss":43,"used":true},{"PRN":30,"el":26,"az":132,"ss":38,"used":true},{"PRN":16,"el":40,"az":321,"ss":42,"used":true},{"PRN":18,"el":31,"az":140,"ss":39,"used":true},{"PRN":3,"el":10,"az":284,"ss":34,"used":true},{"PRN":7,"el":43,"az":56,"ss":43,"used":true},{"PRN":22,"el":13,"az":173,"ss":44,"used":false}]}
$GPZDA,102011.00,15,01,2007,00,00*65
$GPGGA,102011,3020.5010,N,01213.7242,E,2,09,1.00,627.55,M,31.479,M,,*46
$GPRMC,102011,A,3020.5010,N,01213.7242,E,0.0019,90.000,150107,,*1A
$GPGSA,A,3,03,06,07,16,18,21,25,30,31,,,,2.0,1.0,1.8*31
$GPGBS,102011,0.22,M,0.22,M,10.35,M*0A
{"class":"TPV","tag":"0xb1","mode":3,"time":"2007-01-15T10:20:11.000Z","ept":3.920,"lat":30.341683146,"lon":12.228735886,"alt":627.552,"epx":0.222,"epy":0.222,"epv":10.350,"track":90.0000,"speed":0.001,"climb":0.001,"eps":0.44}
$GPGSV,3,1,10,21,78,040,46,31,39,230,44,06,36,062,43,25,36,245,43*7F
$GPGSV,3,2,10,30,26,132,38,16,40,321,42,18,31,140,39,03,10,284,34*7F
$GPGSV,3,3,10,07,43,056,43,22,13,173,44*7B
{"class":"SKY","tag":"0x86","time":"2007-01-14T00:01:47.627Z","xdop":0.55,"ydop":0.74,"vdop":1.80,"tdop":1.30,"hdop":1.00,"gdop":2.40,"pdop":2.00,"satellites":[{"PRN":21,"el":78,"az":40,"ss":46,"used":true},{"PRN":31,"el":39,"az":230,"ss":44,"used":true},{"PRN":6,"el":36,"az":62,"ss":43,"used":true},{"PRN":25,"el":36,"az":245,"ss":43,"used":true},{"PRN":30,"el":26,"az":132,"ss":38,"used":true},{"PRN":16,"el":40,"az":321,"ss":42,"used":true},{"PRN":18,"el":31,"az":140,"ss":39,"used":true},{"PRN":3,"el":10,"az":284,"ss":34,"used":true},{"PRN":7,"el":43,"az":56,"ss":43,"used":true},{"PRN":22,"el":13,"az":173,"ss":44,"used":false}]}
$GPZDA,102012.00,15,01,2007,00,00*66
$GPGGA,102012,3020.5010,N,01213.7242,E,2,09,1.00,627.55,M,31.480,M,,*43
$GPRMC,102012,A,3020.5010,N,01213.7242,E,0.0019,0.000,150107,,*20
$GPGSA,A,3,03,06,07,16,18,21,25,30,31,,,,2.0,1.0,1.8*31
{"class":"TPV","tag":"0xb1","mode":3,"time":"2007-01-15T10:20:12.000Z","ept":3.920,"lat":30.341683214,"lon":12.228735860,"alt":627.552,"epx":0.222,"epy":0.222,"epv":10.350,"track":0.0000,"speed":0.001,"climb":0.000,"eps":0.44}
$GPGSV,3,1,10,21,78,040,46,31,39,230,44,06,36,062,43,25,36,245,43*7F
$GPGSV,3,2,10,30,26,132,38,16,40,321,42,18,31,140,38,03,10,284,34*7E
$GPGSV,3,3,10,07,43,056,43,22,13,173,44*7B
{"class":"SKY","tag":"0x86","time":"2007-01-14T00:01:47.628Z","xdop":0.55,"ydop":0.74,"vdop":1.80,"tdop":1.30,"hdop":1.00,"gdop":2.40,"pdop":2.00,"satellites":[{"PRN":21,"el":78,"az":40,"ss":46,"used":true},{"PRN":31,"el":39,"az":230,"ss":44,"used":true},{"PRN":6,"el":36,"az":62,"ss":43,"used":true},{"PRN":25,"el":36,"az":245,"ss":43,"used":true},{"PRN":30,"el":26,"az":132,"ss":38,"used":true},{"PRN":16,"el":40,"az":321,"ss":42,"used":true},{"PRN":18,"el":31,"az":140,"ss":38,"used":true},{"PRN":3,"el":10,"az":284,"ss":34,"used":true},{"PRN":7,"el":43,"az":56,"ss":43,"used":true},{"PRN":22,"el":13,"az":173,"ss":44,"used":false}]}
$GPZDA,102013.00,15,01,2007,00,00*67
$GPGGA,102013,3020.5010,N,01213.7242,E,2,09,1.00,627.54,M,31.479,M,,*45
$GPRMC,102013,A,3020.5010,N,01213.7242,E,0.0019,0.000,150107,,*21
$GPGSA,A,3,03,06,07,16,18,21,25,30,31,,,,2.0,1.0,1.8*31
$GPGBS,102013,0.22,M,0.22,M,10.35,M*08
{"class":"TPV","tag":"0xb1","mode":3,"time":"2007-01-15T10:20:13.000Z","ept":3.920,"lat":30.341683205,"lon":12.228735860,"alt":627.538,"epx":0.222,"epy":0.222,"epv":10.350,"track":0.0000,"speed":0.001,"climb":0.001,"eps":0.44}
$GPGSV,3,1,10,21,78,040,46,31,39,230,44,06,36,062,43,25,36,245,43*7F
$GPGSV,3,2,10,30,26,132,38,16,40,321,42,18,31,140,38,03,10,284,34*7E
$GPGSV,3,3,10,07,43,056,43,22,13,173,35*7D
{"class":"SKY","tag":"0x86","time":"2007-01-14T00:01:47.629Z","xdop":0.55,"ydop":0.74,"vdop":1.80,"tdop":1.30,"hdop":1.00,"gdop":2.40,"pdop":2.00,"satellites":[{"PRN":21,"el":78,"az":40,"ss":46,"used":true},{"PRN":31,"el":39,"az":230,"ss":44,"used":true},{"PRN":6,"el":36,"az":62,"ss":43,"used":true},{"PRN":25,"el":36,"az":245,"ss":43,"used":true},{"PRN":30,"el":26,"az":132,"ss":38,"used":true},{"PRN":16,"el":40,"az":321,"ss":42,"used":true},{"PRN":18,"el":31,"az":140,"ss":38,"used":true},{"PRN":3,"el":10,"az":284,"ss":34,"used":true},{"PRN":7,"el":43,"az":56,"ss":43,"used":true},{"PRN":22,"el":13,"az":173,"ss":35,"used":false}]}
$GPZDA,102014.00,15,01,2007,00,00*60
$GPGGA,102014,3020.5010,N,01213.7242,E,2,09,1.00,627.55,M,31.479,M,,*43
$GPRMC,102014,A,3020.5010,N,01213.7242,E,31847.9407,0.000,150107,,*2D
$GPGSA,A,3,03,06,07,16,18,21,25,30,31,,,,2.0,1.0,1.8*31
$GPGBS,102014,0.22,M,0.22,M,10.35,M*0F
{"class":"TPV","tag":"0xb1","mode":3,"time":"2007-01-15T10:20:14.000Z","ept":3.920,"lat":30.341683138,"lon":12.228735911,"alt":627.551,"epx":0.222,"epy":0.222,"epv":10.350,"track":0.0000,"speed":16383.996,"climb":0.002,"eps":0.44}
$GPGSV,3,1,10,21,78,040,46,31,39,230,44,06,36,062,43,25,36,245,43*7F
$GPGSV,3,2,10,30,26,132,38,16,40,321,42,18,31,140,38,03,10,284,34*7E
$GPGSV,3,3,10,07,43,056,43,22,13,173,35*7D
{"class":"SKY","tag":"0x86","time":"2007-01-14T00:01:47.630Z","xdop":0.55,"ydop":0.74,"vdop":1.80,"tdop":1.30,"hdop":1.00,"gdop":2.40,"pdop":2.00,"satellites":[{"PRN":21,"el":78,"az":40,"ss":46,"used":true},{"PRN":31,"el":39,"az":230,"ss":44,"used":true},{"PRN":6,"el":36,"az":62,"ss":43,"used":true},{"PRN":25,"el":36,"az":245,"ss":43,"used":true},{"PRN":30,"el":26,"az":132,"ss":38,"used":true},{"PRN":16,"el":40,"az":321,"ss":42,"used":true},{"PRN":18,"el":31,"az":140,"ss":38,"used":true},{"PRN":3,"el":10,"az":284,"ss":34,"used":true},{"PRN":7,"el":43,"az":56,"ss":43,"used":true},{"PRN":22,"el":13,"az":173,"ss":35,"used":false}]}
$GPZDA,102015.00,15,01,2007,00,00*61
$GPGGA,102015,3020.5010,N,01213.7242,E,2,09,1.00,627.55,M,31.479,M,,*42
$GPRMC,102015,A,3020.5010,N,01213.7242,E,0.0019,0.000,150107,,*27
$GPGSA,A,3,03,06,07,16,18,21,25,30,31,,,,2.0,1.0,1.8*31
$GPGBS,102015,0.22,M,0.22,M,10.35,M*0E
{"class":"TPV","tag":"0xb1","mode":3,"time":"2007-01-15T10:20:15.000Z","ept":3.920,"lat":30.341683138,"lon":12.228735852,"alt":627.550,"epx":0.222,"epy":0.222,"epv":10.350,"track":0.0000,"speed":0.001,"climb":0.005,"eps":0.44}
$GPGSV,3,1,10,21,78,040,46,31,39,230,44,06,36,062,43,25,36,245,43*7F
$GPGSV,3,2,10,30,26,132,38,16,40,321,42,18,31,140,39,03,10,284,34*7F
$GPGSV,3,3,10,07,43,056,43,22,13,173,01*7A
{"class":"SKY","tag":"0x86","time":"2007-01-14T00:01:47.631Z","xdop":0.55,"ydop":0.74,"vdop":1.80,"tdop":1.30,"hdop":1.00,"gdop":2.40,"pdop":2.00,"satellites":[{"PRN":21,"el":78,"az":40,"ss":46,"used":true},{"PRN":31,"el":39,"az":230,"ss":44,"used":true},{"PRN":6,"el":36,"az":62,"ss":43,"used":true},{"PRN":25,"el":36,"az":245,"ss":43,"used":true},{"PRN":30,"el":26,"az":132,"ss":38,"used":true},{"PRN":16,"el":40,"az":321,"ss":42,"used":true},{"PRN":18,"el":31,"az":140,"ss":39,"used":true},{"PRN":3,"el":10,"az":284,"ss":34,"used":true},{"PRN":7,"el":43,"az":56,"ss":43,"used":true},{"PRN":22,"el":13,"az":173,"ss":1,"used":false}]}
$GPZDA,102016.00,15,01,2007,00,00*62
$GPGGA,102016,3020.5010,N,01213.7242,E,2,09,1.00,627.56,M,31.479,M,,*42
$GPRMC,102016,A,3020.5010,N,01213.7242,E,0.0000,0.000,150107,,*2C
$GPGSA,A,3,03,06,07,16,18,21,25,30,31,,,,2.0,1.0,1.8*31
$GPGBS,102016,0.22,M,0.22,M,10.35,M*0D
{"class":"TPV","tag":"0xb1","mode":3,"time":"2007-01-15T10:20:16.000Z","ept":3.920,"lat":30.341683189,"lon":12.228735877,"alt":627.561,"epx":0.222,"epy":0.222,"epv":10.350,"track":0.0000,"speed":0.000,"climb":0.000,"eps":0.44}
$GPGSV,3,1,10,21,78,040,46,31,39,230,44,06,36,062,43,25,36,245,43*7F
$GPGSV,3,2,10,30,26,132,38,16,40,321,42,18,31,140,39,03,10,284,34*7F
$GPGSV,3,3,10,07,43,056,43,22,13,173,33*7B
{"class":"SKY","tag":"0x86","time":"2007-01-14T00:01:47.632Z","xdop":0.55,"ydop":0.74,"vdop":1.80,"tdop":1.30,"hdop":1.00,"gdop":2.40,"pdop":2.00,"satellites":[{"PRN":21,"el":78,"az":40,"ss":46,"used":true},{"PRN":31,"el":39,"az":230,"ss":44,"used":true},{"PRN":6,"el":36,"az":62,"ss":43,"used":true},{"PRN":25,"el":36,"az":245,"ss":43,"used":true},{"PRN":30,"el":26,"az":132,"ss":38,"used":true},{"PRN":16,"el":40,"az":321,"ss":42,"used":true},{"PRN":18,"el":31,"az":140,"ss":39,"used":true},{"PRN":3,"el":10,"az":284,"ss":34,"used":true},{"PRN":7,"el":43,"az":56,"ss":43,"used":true},{"PRN":22,"el":13,"az":173,"ss":33,"used":false}]}
$GPZDA,102017.00,15,01,2007,00,00*63
$GPGGA,102017,3020.5010,N,01213.7241,E,2,09,1.00,627.56,M,31.479,M,,*40
$GPRMC,102017,A,3020.5010,N,01213.7241,E,0.0019,90.000,150107,,*1F
$GPGSA,A,3,03,06,07,16,18,21,25,30,31,,,,2.0,1.0,1.8*31
$GPGBS,102017,0.22,M,0.22,M,10.35,M*0C
{"class":"TPV","tag":"0xb1","mode":3,"time":"2007-01-15T10:20:17.000Z","ept":3.920,"lat":30.341683180,"lon":12.228735826,"alt":627.560,"epx":0.222,"epy":0.222,"epv":10.350,"track":90.0000,"speed":0.001,"climb":0.006,"eps":0.44}
$GPGSV,3,1,10,21,78,040,46,31,39,230,44,06,36,062,43,25,36,245,43*7F
$GPGSV,3,2,10,30,26,132,38,16,40,321,42,18,31,140,39,03,10,284,34*7F
$GPGSV,3,3,10,07,43,056,43,22,13,173,35*7D
{"class":"SKY","tag":"0x86","time":"2007-01-14T00:01:47.633Z","xdop":0.55,"ydop":0.74,"vdop":1.80,"tdop":1.30,"hdop":1.00,"gdop":2.40,"pdop":2.00,"satellites":[{"PRN":21,"el":78,"az":40,"ss":46,"used":true},{"PRN":31,"el":39,"az":230,"ss":44,"used":true},{"PRN":6,"el":36,"az":62,"ss":43,"used":true},{"PRN":25,"el":36,"az":245,"ss":43,"used":true},{"PRN":30,"el":26,"az":132,"ss":38,"used":true},{"PRN":16,"el":40,"az":321,"ss":42,"used":true},{"PRN":18,"el":31,"az":140,"ss":39,"used":true},{"PRN":3,"el":10,"az":284,"ss":34,"used":true},{"PRN":7,"el":43,"az":56,"ss":43,"used":true},{"PRN":22,"el":13,"az":173,"ss":35,"used":false}]}
$GPZDA,102018.00,15,01,2007,00,00*6C
$GPGGA,102018,3020.5010,N,01213.7242,E,2,09,1.00,627.56,M,31.479,M,,*4C
$GPRMC,102018,A,3020.5010,N,01213.7242,E,0.0060,71.565,150107,,*14
$GPGSA,A,3,03,06,07,16,18,21,25,30,31,,,,2.0,1.0,1.8*31
$GPGBS,102018,0.22,M,0.22,M,10.35,M*03
{"class":"TPV","tag":"0xb1","mode":3,"time":"2007-01-15T10:20:18.000Z","ept":3.920,"lat":30.341683112,"lon":12.228735945,"alt":627.564,"epx":0.222,"epy":0.222,"epv":10.350,"track":71.5651,"speed":0.003,"climb":16383.997,"eps":0.44}
$GPGSV,3,1,10,21,78,040,46,31,39,230,44,06,36,062,43,25,36,245,43*7F
$GPGSV,3,2,10,30,26,132,38,16,40,321,42,18,31,140,38,03,10,284,34*7E
$GPGSV,3,3,10,07,43,056,43,22,13,173,35*7D
{"class":"SKY","tag":"0x86","time":"2007-01-14T00:01:47.634Z","xdop":0.55,"ydop":0.74,"vdop":1.80,"tdop":1.30,"hdop":1.00,"gdop":2.40,"pdop":2.00,"satellites":[{"PRN":21,"el":78,"az":40,"ss":46,"used":true},{"PRN":31,"el":39,"az":230,"ss":44,"used":true},{"PRN":6,"el":36,"az":62,"ss":43,"used":true},{"PRN":25,"el":36,"az":245,"ss":43,"used":true},{"PRN":30,"el":26,"az":132,"ss":38,"used":true},{"PRN":16,"el":40,"az":321,"ss":42,"used":true},{"PRN":18,"el":31,"az":140,"ss":38,"used":true},{"PRN":3,"el":10,"az":284,"ss":34,"used":true},{"PRN":7,"el":43,"az":56,"ss":43,"used":true},{"PRN":22,"el":13,"az":173,"ss":35,"used":false}]}
$GPZDA,102019.00,15,01,2007,00,00*6D
$GPGGA,102019,3020.5010,N,01213.7242,E,2,09,1.00,627.56,M,31.479,M,,*4D
$GPRMC,102019,A,3020.5010,N,01213.7242,E,0.0019,0.000,150107,,*2B
$GPGSA,A,3,03,06,07,16,18,21,25,30,31,,,,2.0,1.0,1.8*31
$GPGBS,102019,0.22,M,0.22,M,10.35,M*02
{"class":"TPV","tag":"0xb1","mode":3,"time":"2007-01-15T10:20:19.000Z","ept":3.920,"lat":30.341683172,"lon":12.228735936,"alt":627.559,"epx":0.222,"epy":0.222,"epv":10.350,"track":0.0000,"speed":0.001,"climb":0.005,"eps":0.44}
$GPGSV,3,1,10,21,78,040,46,31,39,230,45,06,36,062,43,25,36,245,43*7E
$GPGSV,3,2,10,30,26,132,38,16,40,321,42,18,31,140,39,03,10,284,34*7F
$GPGSV,3,3,10,07,43,056,43,22,13,173,35*7D
{"class":"SKY","tag":"0x86","time":"2007-01-14T00:01:47.635Z","xdop":0.55,"ydop":0.74,"vdop":1.80,"tdop":1.30,"hdop":1.00,"gdop":2.40,"pdop":2.00,"satellites":[{"PRN":21,"el":78,"az":40,"ss":46,"used":true},{"PRN":31,"el":39,"az":230,"ss":45,"used":true},{"PRN":6,"el":36,"az":62,"ss":43,"used":true},{"PRN":25,"el":36,"az":245,"ss":43,"used":true},{"PRN":30,"el":26,"az":132,"ss":38,"used":true},{"PRN":16,"el":40,"az":321,"ss":42,"used":true},{"PRN":18,"el":31,"az":140,"ss":39,"used":true},{"PRN":3,"el":10,"az":284,"ss":34,"used":true},{"PRN":7,"el":43,"az":56,"ss":43,"used":true},{"PRN":22,"el":13,"az":173,"ss":35,"used":false}]}
$GPZDA,102020.00,15,01,2007,00,00*67
$GPGGA,102020,3020.5010,N,01213.7242,E,2,09,1.00,627.54,M,31.480,M,,*43
$GPRMC,102020,A,3020.5010,N,01213.7242,E,31847.9445,0.000,150107,,*2C
$GPGSA,A,3,03,06,07,16,18,21,25,30,31,,,,2.0,1.0,1.8*31
$GPGBS,102020,0.22,M,0.22,M,10.35,M*08
{"class":"TPV","tag":"0xb1","mode":3,"time":"2007-01-15T10:20:20.000Z","ept":3.920,"lat":30.341683180,"lon":12.228735886,"alt":627.543,"epx":0.222,"epy":0.222,"epv":10.350,"track":0.0000,"speed":16383.998,"climb":0.002,"eps":0.44}
$GPGSV,3,1,10,21,78,040,46,31,39,230,44,06,36,062,43,25,36,245,43*7F
$GPGSV,3,2,10,30,26,132,38,16,40,321,42,18,31,140,39,03,10,284,34*7F
$GPGSV,3,3,10,07,43,056,43,22,13,173,35*7D
{"class":"SKY","tag":"0x86","time":"2007-01-14T00:01:47.636Z","xdop":0.55,"ydop":0.74,"vdop":1.80,"tdop":1.30,"hdop":1.00,"gdop":2.40,"pdop":2.00,"satellites":[{"PRN":21,"el":78,"az":40,"ss":46,"used":true},{"PRN":31,"el":39,"az":230,"ss":44,"used":true},{"PRN":6,"el":36,"az":62,"ss":43,"used":true},{"PRN":25,"el":36,"az":245,"ss":43,"used":true},{"PRN":30,"el":26,"az":132,"ss":38,"used":true},{"PRN":16,"el":40,"az":321,"ss":42,"used":true},{"PRN":18,"el":31,"az":140,"ss":39,"used":true},{"PRN":3,"el":10,"az":284,"ss":34,"used":true},{"PRN":7,"el":43,"az":56,"ss":43,"used":true},{"PRN":22,"el":13,"az":173,"ss":35,"used":false}]}
$GPZDA,102021.00,15,01,2007,00,00*66
$GPGGA,102021,3020.5010,N,01213.7242,E,2,09,1.00,627.52,M,31.479,M,,*42
$GPRMC,102021,A,3020.5010,N,01213.7242,E,31847.9464,0.000,150107,,*2E
$GPGSA,A,3,03,06,07,16,18,21,25,30,31,,,,2.0,1.0,1.8*31
$GPGBS,102021,0.22,M,0.22,M,10.35,M*09
{"class":"TPV","tag":"0xb1","mode":3,"time":"2007-01-15T10:20:21.000Z","ept":3.920,"lat":30.341683256,"lon":12.228735869,"alt":627.515,"epx":0.222,"epy":0.222,"epv":10.350,"track":0.0000,"speed":16383.999,"climb":16383.999,"eps":0.44}
$GPGSV,3,1,10,21,78,040,46,31,39,230,44,06,36,062,43,25,36,245,43*7F
$GPGSV,3,2,10,30,26,132,38,16,40,321,42,18,31,140,39,03,10,284,34*7F
$GPGSV,3,3,10,07,43,056,43,22,13,173,35*7D
{"class":"SKY","tag":"0x86","time":"2007-01-14T00:01:47.637Z","xdop":0.55,"ydop":0.74,"vdop":1.80,"tdop":1.30,"hdop":1.00,"gdop":2.40,"pdop":2.00,"satellites":[{"PRN":21,"el":78,"az":40,"ss":46,"used":true},{"PRN":31,"el":39,"az":230,"ss":44,"used":true},{"PRN":6,"el":36,"az":62,"ss":43,"used":true},{"PRN":25,"el":36,"az":245,"ss":43,"used":true},{"PRN":30,"el":26,"az":132,"ss":38,"used":true},{"PRN":16,"el":40,"az":321,"ss":42,"used":true},{"PRN":18,"el":31,"az":140,"ss":39,"used":true},{"PRN":3,"el":10,"az":284,"ss":34,"used":true},{"PRN":7,"el":43,"az":56,"ss":43,"used":true},{"PRN":22,"el":13,"az":173,"ss":35,"used":false}]}
$GPZDA,102022.00,15,01,2007,00,00*65
$GPGGA,102022,3020.5010,N,01213.7242,E,2,09,1.00,627.54,M,31.479,M,,*47
$GPRMC,102022,A,3020.5010,N,01213.7242,E,0.0027,45.000,150107,,*1F
$GPGSA,A,3,03,06,07,16,18,21,25,30,31,,,,2.0,1.0,1.8*31
$GPGBS,102022,0.22,M,0.22,M,10.35,M*0A
{"class":"TPV","tag":"0xb1","mode":3,"time":"2007-01-15T10:20:22.000Z","ept":3.920,"lat":30.341683197,"lon":12.228735835,"alt":627.542,"epx":0.222,"epy":0.222,"epv":10.350,"track":45.0000,"speed":0.001,"climb":0.001,"eps":0.44}
$GPGSV,3,1,10,21,78,040,46,31,39,230,44,06,36,062,43,25,36,245,43*7F
$GPGSV,3,2,10,30,26,132,38,16,40,321,42,18,31,140,39,03,10,284,32*79
$GPGSV,3,3,10,07,43,056,43,22,13,173,35*7D
{"class":"SKY","tag":"0x86","time":"2007-01-14T00:01:47.638Z","xdop":0.55,"ydop":0.74,"vdop":1.80,"tdop":1.30,"hdop":1.00,"gdop":2.40,"pdop":2.00,"satellites":[{"PRN":21,"el":78,"az":40,"ss":46,"used":true},{"PRN":31,"el":39,"az":230,"ss":44,"used":true},{"PRN":6,"el":36,"az":62,"ss":43,"used":true},{"PRN":25,"el":36,"az":245,"ss":43,"used":true},{"PRN":30,"el":26,"az":132,"ss":38,"used":true},{"PRN":16,"el":40,"az":321,"ss":42,"used":true},{"PRN":18,"el":31,"az":140,"ss":39,"used":true},{"PRN":3,"el":10,"az":284,"ss":32,"used":true},{"PRN":7,"el":43,"az":56,"ss":43,"used":true},{"PRN":22,"el":13,"az":173,"ss":35,"used":false}]}
$GPZDA,102023.00,15,01,2007,00,00*64
$GPGGA,102023,3020.5010,N,01213.7242,E,2,09,1.00,627.52,M,31.479,M,,*40
$GPRMC,102023,A,3020.5010,N,01213.7242,E,45039.7977,45.000,150107,,*1E
$GPGSA,A,3,03,06,07,16,18,21,25,30,31,,,,2.0,1.0,1.8*31
$GPGBS,102023,0.22,M,0.22,M,10.35,M*0B
{"class":"TPV","tag":"0xb1","mode":3,"time":"2007-01-15T10:20:23.000Z","ept":3.920,"lat":30.341683248,"lon":12.228735852,"alt":627.520,"epx":0.222,"epy":0.222,"epv":10.350,"track":45.0000,"speed":23170.474,"climb":0.000,"eps":0.44}
$GPGSV,3,1,10,21,78,040,46,31,39,230,44,06,36,062,43,25,36,245,43*7F
$GPGSV,3,2,10,30,26,132,38,16,40,321,42,18,31,140,39,03,10,284,35*7E
$GPGSV,3,3,10,07,43,056,43,22,13,173,35*7D
{"class":"SKY","tag":"0x86","time":"2007-01-14T00:01:47.639Z","xdop":0.55,"ydop":0.74,"vdop":1.80,"tdop":1.30,"hdop":1.00,"gdop":2.40,"pdop":2.00,"satellites":[{"PRN":21,"el":78,"az":40,"ss":46,"used":true},{"PRN":31,"el":39,"az":230,"ss":44,"used":false},{"PRN":6,"el":36,"az":62,"ss":43,"used":true},{"PRN":25,"el":36,"az":245,"ss":43,"used":true},{"PRN":30,"el":26,"az":132,"ss":38,"used":true},{"PRN":16,"el":40,"az":321,"ss":42,"used":true},{"PRN":18,"el":31,"az":140,"ss":39,"used":true},{"PRN":3,"el":10,"az":284,"ss":35,"used":true},{"PRN":7,"el":43,"az":56,"ss":43,"used":true},{"PRN":22,"el":13,"az":173,"ss":35,"used":false}]}
$GPZDA,102024.00,15,01,2007,00,00*63
$GPGGA,102024,3020.5010,N,01213.7242,E,2,08,1.10,627.55,M,31.479,M,,*40
$GPRMC,102024,A,3020.5010,N,01213.7242,E,0.0057,90.000,150107,,*16
$GPGSA,A,3,06,07,16,18,21,25,30,31,31,,,,2.3,1.1,2.1*38
$GPGBS,102024,0.22,M,0.22,M,12.08,M*00
{"class":"TPV","tag":"0xb1","mode":3,"time":"2007-01-15T10:20:24.000Z","ept":5.880,"lat":30.341683205,"lon":12.228735911,"alt":627.549,"epx":0.222,"epy":0.222,"epv":12.075,"track":90.0000,"speed":0.003,"climb":0.001,"eps":0.44}
$GPGSV,3,1,10,21,78,040,46,31,39,230,44,06,36,062,43,25,36,245,43*7F
$GPGSV,3,2,10,30,26,132,38,16,40,321,42,18,31,140,38,03,10,284,33*79
$GPGSV,3,3,10,07,43,056,43,22,13,173,34*7C
{"class":"SKY","tag":"0x86","time":"2007-01-14T00:01:47.640Z","xdop":0.55,"ydop":0.74,"vdop":2.10,"tdop":1.50,"hdop":1.10,"gdop":2.80,"pdop":2.30,"satellites":[{"PRN":21,"el":78,"az":40,"ss":46,"used":true},{"PRN":31,"el":39,"az":230,"ss":44,"used":true},{"PRN":6,"el":36,"az":62,"ss":43,"used":true},{"PRN":25,"el":36,"az":245,"ss":43,"used":true},{"PRN":30,"el":26,"az":132,"ss":38,"used":true},{"PRN":16,"el":40,"az":321,"ss":42,"used":true},{"PRN":18,"el":31,"az":140,"ss":38,"used":true},{"PRN":3,"el":10,"az":284,"ss":33,"used":false},{"PRN":7,"el":43,"az":56,"ss":43,"used":true},{"PRN":22,"el":13,"az":173,"ss":34,"used":false}]}
$GPZDA,102025.00,15,01,2007,00,00*62
$GPGGA,102025,3020.5010,N,01213.7242,E,2,08,1.10,627.54,M,31.479,M,,*40
$GPRMC,102025,A,3020.5010,N,01213.7242,E,0.0042,26.565,150107,,*18
$GPGSA,A,3,06,07,16,18,21,25,30,31,31,,,,2.3,1.1,2.1*38
$GPGBS,102025,0.22,M,0.22,M,12.08,M*01
{"class":"TPV","tag":"0xb1","mode":3,"time":"2007-01-15T10:20:25.000Z","ept":5.880,"lat":30.341683256,"lon":12.228735936,"alt":627.539,"epx":0.222,"epy":0.222,"epv":12.075,"track":26.5651,"speed":0.002,"climb":0.003,"eps":0.44}
$GPGSV,3,1,10,21,78,040,46,31,39,230,44,06,36,062,43,25,36,245,43*7F
$GPGSV,3,2,10,30,26,132,38,16,40,321,42,18,31,140,38,03,10,284,32*78
$GPGSV,3,3,10,07,43,056,43,22,13,173,34*7C
{"class":"SKY","tag":"0x86","time":"2007-01-14T00:01:47.641Z","xdop":0.55,"ydop":0.74,"vdop":2.10,"tdop":1.50,"hdop":1.10,"gdop":2.80,"pdop":2.30,"satellites":[{"PRN":21,"el":78,"az":40,"ss":46,"used":true},{"PRN":31,"el":39,"az":230,"ss":44,"used":true},{"PRN":6,"el":36,"az":62,"ss":43,"used":true},{"PRN":25,"el":36,"az":245,"ss":43,"used":true},{"PRN":30,"el":26,"az":132,"ss":38,"used":true},{"PRN":16,"el":40,"az":321,"ss":42,"used":true},{"PRN":18,"el":31,"az":140,"ss":38,"used":true},{"PRN":3,"el":10,"az":284,"ss":32,"used":false},{"PRN":7,"el":43,"az":56,"ss":43,"used":true},{"PRN":22,"el":13,"az":173,"ss":34,"used":false}]}
$GPZDA,102026.00,15,01,2007,00,00*61
$GPGGA,102026,3020.5010,N,01213.7242,E,2,08,1.10,627.53,M,31.479,M,,*44
$GPRMC,102026,A,3020.5010,N,01213.7242,E,31847.9464,90.000,150107,,*10
$GPGSA,A,3,06,07,16,18,21,25,30,31,31,,,,2.3,1.1,2.1*38
$GPGBS,102026,0.24,M,0.24,M,12.08,M*02
{"class":"TPV","tag":"0xb1","mode":3,"time":"2007-01-15T10:20:26.000Z","ept":5.880,"lat":30.341683265,"lon":12.228735920,"alt":627.531,"epx":0.236,"epy":0.236,"epv":12.075,"track":90.0000,"speed":16383.999,"climb":16383.998,"eps":0.46}
$GPGSV,3,1,10,21,78,040,46,31,39,230,45,06,36,062,43,25,36,245,43*7E
$GPGSV,3,2,10,30,26,132,37,16,40,321,42,18,31,140,38,03,10,284,32*77
$GPGSV,3,3,10,07,43,056,43,22,13,173,34*7C
{"class":"SKY","tag":"0x86","time":"2007-01-14T00:01:47.642Z","xdop":0.55,"ydop":0.74,"vdop":2.10,"tdop":1.50,"hdop":1.10,"gdop":2.80,"pdop":2.30,"satellites":[{"PRN":21,"el":78,"az":40,"ss":46,"used":true},{"PRN":31,"el":39,"az":230,"ss":45,"used":true},{"PRN":6,"el":36,"az":62,"ss":43,"used":true},{"PRN":25,"el":36,"az":245,"ss":43,"used":true},{"PRN":30,"el":26,"az":132,"ss":37,"used":true},{"PRN":16,"el":40,"az":321,"ss":42,"used":true},{"PRN":18,"el":31,"az":140,"ss":38,"used":true},{"PRN":3,"el":10,"az":284,"ss":32,"used":false},{"PRN":7,"el":43,"az":56,"ss":43,"used":true},{"PRN":22,"el":13,"az":173,"ss":34,"used":false}]}
$GPZDA,102027.00,15,01,2007,00,00*60
$GPGGA,102027,3020.5010,N,01213.7242,E,2,08,1.10,627.54,M,31.479,M,,*42
$GPRMC,102027,A,3020.5010,N,01213.7242,E,31847.9464,90.000,150107,,*11
$GPGSA,A,3,06,07,16,18,21,25,30,31,31,,,,2.3,1.1,2.1*38
$GPGBS,102027,0.24,M,0.24,M,12.08,M*03
{"class":"TPV","tag":"0xb1","mode":3,"time":"2007-01-15T10:20:27.000Z","ept":5.880,"lat":30.341683239,"lon":12.228735920,"alt":627.541,"epx":0.236,"epy":0.236,"epv":12.075,"track":90.0000,"speed":16383.999,"climb":0.002,"eps":0.47}
$GPGSV,3,1,10,21,78,040,46,31,39,230,44,06,36,062,43,25,36,245,43*7F
$GPGSV,3,2,10,30,26,132,38,16,40,321,42,18,31,140,38,03,10,284,33*79
$GPGSV,3,3,10,07,43,056,43,22,13,173,34*7C
{"class":"SKY","tag":"0x86","time":"2007-01-14T00:01:47.643Z","xdop":0.55,"ydop":0.74,"vdop":2.10,"tdop":1.50,"hdop":1.10,"gdop":2.80,"pdop":2.30,"satellites":[{"PRN":21,"el":78,"az":40,"ss":46,"used":true},{"PRN":31,"el":39,"az":230,"ss":44,"used":true},{"PRN":6,"el":36,"az":62,"ss":43,"used":true},{"PRN":25,"el":36,"az":245,"ss":43,"used":true},{"PRN":30,"el":26,"az":132,"ss":38,"used":true},{"PRN":16,"el":40,"az":321,"ss":42,"used":true},{"PRN":18,"el":31,"az":140,"ss":38,"used":true},{"PRN":3,"el":10,"az":284,"ss":33,"used":false},{"PRN":7,"el":43,"az":56,"ss":43,"used":true},{"PRN":22,"el":13,"az":173,"ss":34,"used":false}]}
$GPZDA,102028.00,15,01,2007,00,00*6F
$GPGGA,102028,3020.5010,N,01213.7242,E,2,08,1.10,627.56,M,31.479,M,,*4F
$GPRMC,102028,A,3020.5010,N,01213.7242,E,31847.9445,0.000,150107,,*24
$GPGSA,A,3,06,07,16,18,21,25,30,31,31,,,,2.3,1.1,2.1*38
$GPGBS,102028,0.24,M,0.24,M,12.08,M*0C
{"class":"TPV","tag":"0xb1","mode":3,"time":"2007-01-15T10:20:28.000Z","ept":5.880,"lat":30.341683214,"lon":12.228735936,"alt":627.555,"epx":0.236,"epy":0.236,"epv":12.075,"track":0.0000,"speed":16383.998,"climb":0.007,"eps":0.47}
$GPGSV,3,1,10,21,78,040,46,31,39,230,44,06,36,062,43,25,36,245,43*7F
$GPGSV,3,2,10,30,26,132,38,16,40,321,42,18,31,140,38,03,10,284,34*7E
$GPGSV,3,3,10,07,43,056,43,22,13,173,34*7C
{"class":"SKY","tag":"0x86","time":"2007-01-14T00:01:47.644Z","xdop":0.55,"ydop":0.74,"vdop":2.10,"tdop":1.50,"hdop":1.10,"gdop":2.80,"pdop":2.30,"satellites":[{"PRN":21,"el":78,"az":40,"ss":46,"used":true},{"PRN":31,"el":39,"az":230,"ss":44,"used":true},{"PRN":6,"el":36,"az":62,"ss":43,"used":true},{"PRN":25,"el":36,"az":245,"ss":43,"used":true},{"PRN":30,"el":26,"az":132,"ss":38,"used":true},{"PRN":16,"el":40,"az":321,"ss":42,"used":true},{"PRN":18,"el":31,"az":140,"ss":38,"used":true},{"PRN":3,"el":10,"az":284,"ss":34,"used":false},{"PRN":7,"el":43,"az":56,"ss":43,"used":true},{"PRN":22,"el":13,"az":173,"ss":34,"used":false}]}
$GPZDA,102029.00,15,01,2007,00,00*6E
$GPGGA,102029,3020.5010,N,01213.7242,E,2,08,1.10,627.54,M,31.479,M,,*4C
$GPRMC,102029,A,3020.5010,N,01213.7242,E,31847.9464,90.000,150107,,*1F
$GPGSA,A,3,06,07,16,18,21,25,30,31,31,,,,2.3,1.1,2.1*38
$GPGBS,102029,0.25,M,0.25,M,12.08,M*0D
{"class":"TPV","tag":"0xb1","mode":3,"time":"2007-01-15T10:20:29.000Z","ept":5.880,"lat":30.341683231,"lon":12.228735877,"alt":627.537,"epx":0.249,"epy":0.249,"epv":12.075,"track":90.0000,"speed":16383.999,"climb":0.000,"eps":0.49}
$GPGSV,3,1,10,21,78,040,46,31,39,230,44,06,36,062,43,25,36,245,43*7F
$GPGSV,3,2,10,30,26,132,38,16,40,321,42,18,31,140,38,03,10,284,34*7E
$GPGSV,3,3,10,07,43,056,43,22,13,173,34*7C
{"class":"SKY","tag":"0x86","time":"2007-01-14T00:01:47.645Z","xdop":0.55,"ydop":0.74,"vdop":2.10,"tdop":1.50,"hdop":1.10,"gdop":2.80,"pdop":2.30,"satellites":[{"PRN":21,"el":78,"az":40,"ss":46,"used":true},{"PRN":31,"el":39,"az":230,"ss":44,"used":true},{"PRN":6,"el":36,"az":62,"ss":43,"used":true},{"PRN":25,"el":36,"az":245,"ss":43,"used":true},{"PRN":30,"el":26,"az":132,"ss":38,"used":true},{"PRN":16,"el":40,"az":321,"ss":42,"used":true},{"PRN":18,"el":31,"az":140,"ss":38,"used":true},{"PRN":3,"el":10,"az":284,"ss":34,"used":false},{"PRN":7,"el":43,"az":56,"ss":43,"used":true},{"PRN":22,"el":13,"az":173,"ss":34,"used":false}]}
