$GPGGA,110518.000,5709.8067,N,00207.2822,W,1,08,1.0,59.3,M,48.2,M,,0000*77
{"class":"TPV","tag":"GGA","mode":3,"lat":57.163445000,"lon":-2.121370000,"alt":59.300}
$GPGLL,5709.8067,N,00207.2822,W,110518.000,A,A*4A
{"class":"TPV","tag":"GLL","mode":3,"lat":57.163445000,"lon":-2.121370000,"alt":59.300}
$GPGSA,A,3,23,04,20,31,32,17,13,24,,,,,2.1,1.0,1.8*3F
{"class":"TPV","tag":"GSA","mode":3,"lat":57.163445000,"lon":-2.121370000,"alt":59.300,"epv":41.400}
$GPRMC,110518.000,A,5709.8067,N,00207.2822,W,0.00,,140311,,,A*65
{"class":"TPV","tag":"RMC","mode":3,"time":"2011-03-14T11:05:18.000Z","ept":0.005,"lat":57.163445000,"lon":-2.121370000,"alt":59.300,"epv":41.400,"track":0.0000,"speed":0.000}
$GPVTG,,T,,M,0.00,N,0.0,K,A*13
$GPGGA,110519.000,5709.8067,N,00207.2822,W,1,08,1.0,59.3,M,48.2,M,,0000*76
$GPGLL,5709.8067,N,00207.2822,W,110519.000,A,A*4B
$GPGSA,A,3,23,04,20,31,32,17,13,24,,,,,2.1,1.0,1.8*3F
$GPRMC,110519.000,A,5709.8067,N,00207.2822,W,0.00,,140311,,,A*64
{"class":"TPV","tag":"RMC","mode":3,"time":"2011-03-14T11:05:19.000Z","ept":0.005,"lat":57.163445000,"lon":-2.121370000,"alt":59.300,"epv":41.400,"track":0.0000,"speed":0.000,"climb":0.000}
$GPVTG,,T,,M,0.00,N,0.0,K,A*13
$GPGGA,110520.000,5709.8067,N,00207.2822,W,1,08,1.0,59.3,M,48.2,M,,0000*7C
$GPGLL,5709.8067,N,00207.2822,W,110520.000,A,A*41
$GPGSA,A,3,23,04,20,31,32,17,13,24,,,,,2.1,1.0,1.8*3F
$GPGSV,3,1,12,23,65,147,33,20,59,095,27,04,46,290,20,13,37,191,24*79
$GPGSV,3,2,12,32,32,083,33,17,30,227,20,31,23,042,22,24,16,136,21*73
$GPGSV,3,3,12,10,14,262,,02,11,306,,25,08,,,12,07,321,15*40
{"class":"SKY","tag":"GSV","xdop":0.68,"ydop":0.77,"vdop":1.80,"tdop":1.18,"hdop":1.00,"gdop":2.37,"pdop":2.10,"satellites":[{"PRN":23,"el":65,"az":147,"ss":33,"used":true},{"PRN":20,"el":59,"az":95,"ss":27,"used":true},{"PRN":4,"el":46,"az":290,"ss":20,"used":true},{"PRN":13,"el":37,"az":191,"ss":24,"used":true},{"PRN":32,"el":32,"az":83,"ss":33,"used":true},{"PRN":17,"el":30,"az":227,"ss":20,"used":true},{"PRN":31,"el":23,"az":42,"ss":22,"used":true},{"PRN":24,"el":16,"az":136,"ss":21,"used":true},{"PRN":10,"el":14,"az":262,"ss":0,"used":false},{"PRN":2,"el":11,"az":306,"ss":0,"used":false},{"PRN":25,"el":8,"az":0,"ss":0,"used":false},{"PRN":12,"el":7,"az":321,"ss":15,"used":false}]}
$GPRMC,110520.000,A,5709.8067,N,00207.2822,W,0.00,,140311,,,A*6E
{"class":"TPV","tag":"RMC","mode":3,"time":"2011-03-14T11:05:20.000Z","ept":0.005,"lat":57.163445000,"lon":-2.121370000,"alt":59.300,"epx":10.256,"epy":11.488,"epv":41.400,"track":0.0000,"speed":0.000,"climb":0.000}
$GPVTG,,T,,M,0.00,N,0.0,K,A*13
$GPGGA,110521.000,5709.8067,N,00207.2822,W,1,08,1.0,59.3,M,48.2,M,,0000*7D
$GPGLL,5709.8067,N,00207.2822,W,110521.000,A,A*40
$GPGSA,A,3,23,04,20,31,32,17,13,24,,,,,2.1,1.0,1.8*3F
$GPRMC,110521.000,A,5709.8067,N,00207.2822,W,0.00,,140311,,,A*6F
{"class":"TPV","tag":"RMC","mode":3,"time":"2011-03-14T11:05:21.000Z","ept":0.005,"lat":57.163445000,"lon":-2.121370000,"alt":59.300,"epx":10.256,"epy":11.488,"epv":41.400,"track":0.0000,"speed":0.000,"climb":0.000,"eps":22.98}
$GPVTG,,T,,M,0.00,N,0.0,K,A*13
$GPGGA,110522.000,5709.8067,N,00207.2822,W,1,08,1.0,59.3,M,48.2,M,,0000*7E
$GPGLL,5709.8067,N,00207.2822,W,110522.000,A,A*43
$GPGSA,A,3,23,04,20,31,32,17,13,24,,,,,2.1,1.0,1.8*3F
$GPRMC,110522.000,A,5709.8067,N,00207.2822,W,0.00,,140311,,,A*6C
{"class":"TPV","tag":"RMC","mode":3,"time":"2011-03-14T11:05:22.000Z","ept":0.005,"lat":57.163445000,"lon":-2.121370000,"alt":59.300,"epx":10.256,"epy":11.488,"epv":41.400,"track":0.0000,"speed":0.000,"climb":0.000,"eps":22.98}
$GPVTG,,T,,M,0.00,N,0.0,K,A*13
$GPGGA,110523.000,5709.8067,N,00207.2822,W,1,08,1.0,59.3,M,48.2,M,,0000*7F
$GPGLL,5709.8067,N,00207.2822,W,110523.000,A,A*42
$GPGSA,A,3,23,04,20,31,32,17,13,24,,,,,2.1,1.0,1.8*3F
$GPRMC,110523.000,A,5709.8067,N,00207.2822,W,0.00,,140311,,,A*6D
{"class":"TPV","tag":"RMC","mode":3,"time":"2011-03-14T11:05:23.000Z","ept":0.005,"lat":57.163445000,"lon":-2.121370000,"alt":59.300,"epx":10.256,"epy":11.488,"epv":41.400,"track":0.0000,"speed":0.000,"climb":0.000,"eps":22.98}
$GPVTG,,T,,M,0.00,N,0.0,K,A*13
$GPGGA,110524.000,5709.8067,N,00207.2822,W,1,08,1.0,59.3,M,48.2,M,,0000*78
$GPGLL,5709.8067,N,00207.2822,W,110524.000,A,A*45
$GPGSA,A,3,23,04,20,31,32,17,13,24,,,,,2.1,1.0,1.8*3F
$GPRMC,110524.000,A,5709.8067,N,00207.2822,W,0.00,,140311,,,A*6A
{"class":"TPV","tag":"RMC","mode":3,"time":"2011-03-14T11:05:24.000Z","ept":0.005,"lat":57.163445000,"lon":-2.121370000,"alt":59.300,"epx":10.256,"epy":11.488,"epv":41.400,"track":0.0000,"speed":0.000,"climb":0.000,"eps":22.98}
$GPVTG,,T,,M,0.00,N,0.0,K,A*13
$GPGGA,110525.000,5709.8067,N,00207.2822,W,1,08,1.0,59.3,M,48.2,M,,0000*79
$GPGLL,5709.8067,N,00207.2822,W,110525.000,A,A*44
$GPGSA,A,3,23,04,20,31,32,17,13,24,,,,,2.1,1.0,1.8*3F
$GPGSV,3,1,12,23,65,147,32,20,59,095,27,04,46,290,20,13,37,191,24*78
$GPGSV,3,2,12,32,32,083,32,17,30,227,19,31,23,042,22,24,16,136,20*79
$GPGSV,3,3,12,10,14,262,,02,11,306,,25,08,,,12,07,321,15*40
{"class":"SKY","tag":"GSV","xdop":0.68,"ydop":0.77,"vdop":1.80,"tdop":1.18,"hdop":1.00,"gdop":2.37,"pdop":2.10,"satellites":[{"PRN":23,"el":65,"az":147,"ss":32,"used":true},{"PRN":20,"el":59,"az":95,"ss":27,"used":true},{"PRN":4,"el":46,"az":290,"ss":20,"used":true},{"PRN":13,"el":37,"az":191,"ss":24,"used":true},{"PRN":32,"el":32,"az":83,"ss":32,"used":true},{"PRN":17,"el":30,"az":227,"ss":19,"used":true},{"PRN":31,"el":23,"az":42,"ss":22,"used":true},{"PRN":24,"el":16,"az":136,"ss":20,"used":true},{"PRN":10,"el":14,"az":262,"ss":0,"used":false},{"PRN":2,"el":11,"az":306,"ss":0,"used":false},{"PRN":25,"el":8,"az":0,"ss":0,"used":false},{"PRN":12,"el":7,"az":321,"ss":15,"used":false}]}
$GPRMC,110525.000,A,5709.8067,N,00207.2822,W,0.00,,140311,,,A*6B
{"class":"TPV","tag":"RMC","mode":3,"time":"2011-03-14T11:05:25.000Z","ept":0.005,"lat":57.163445000,"lon":-2.121370000,"alt":59.300,"epx":10.256,"epy":11.488,"epv":41.400,"track":0.0000,"speed":0.000,"climb":0.000,"eps":22.98}
$GPVTG,,T,,M,0.00,N,0.0,K,A*13
$GPGGA,110526.000,5709.8067,N,00207.2822,W,1,08,1.0,59.3,M,48.2,M,,0000*7A
$GPGLL,5709.8067,N,00207.2822,W,110526.000,A,A*47
$GPGSA,A,3,23,04,20,31,32,17,13,24,,,,,2.1,1.0,1.8*3F
$GPRMC,110526.000,A,5709.8067,N,00207.2822,W,0.00,,140311,,,A*68
{"class":"TPV","tag":"RMC","mode":3,"time":"2011-03-14T11:05:26.000Z","ept":0.005,"lat":57.163445000,"lon":-2.121370000,"alt":59.300,"epx":10.256,"epy":11.488,"epv":41.400,"track":0.0000,"speed":0.000,"climb":0.000,"eps":22.98}
$GPVTG,,T,,M,0.00,N,0.0,K,A*13
$GPGGA,110527.000,5709.8067,N,00207.2822,W,1,08,1.0,59.3,M,48.2,M,,0000*7B
$GPGLL,5709.8067,N,00207.2822,W,110527.000,A,A*46
$GPGSA,A,3,23,04,20,31,32,17,13,24,,,,,2.1,1.0,1.8*3F
$GPRMC,110527.000,A,5709.8067,N,00207.2822,W,0.00,,140311,,,A*69
{"class":"TPV","tag":"RMC","mode":3,"time":"2011-03-14T11:05:27.000Z","ept":0.005,"lat":57.163445000,"lon":-2.121370000,"alt":59.300,"epx":10.256,"epy":11.488,"epv":41.400,"track":0.0000,"speed":0.000,"climb":0.000,"eps":22.98}
$GPVTG,,T,,M,0.00,N,0.0,K,A*13
$GPGGA,110528.000,5709.8067,N,00207.2822,W,1,08,1.0,59.3,M,48.2,M,,0000*74
$GPGLL,5709.8067,N,00207.2822,W,110528.000,A,A*49
$GPGSA,A,3,23,04,20,31,32,17,13,24,,,,,2.1,1.0,1.8*3F
$GPRMC,110528.000,A,5709.8067,N,00207.2822,W,0.00,,140311,,,A*66
{"class":"TPV","tag":"RMC","mode":3,"time":"2011-03-14T11:05:28.000Z","ept":0.005,"lat":57.163445000,"lon":-2.121370000,"alt":59.300,"epx":10.256,"epy":11.488,"epv":41.400,"track":0.0000,"speed":0.000,"climb":0.000,"eps":22.98}
$GPVTG,,T,,M,0.00,N,0.0,K,A*13
$GPGGA,110529.000,5709.8067,N,00207.2822,W,1,08,1.0,59.3,M,48.2,M,,0000*75
$GPGLL,5709.8067,N,00207.2822,W,110529.000,A,A*48
$GPGSA,A,3,23,04,20,31,32,17,13,24,,,,,2.1,1.0,1.8*3F
$GPRMC,110529.000,A,5709.8067,N,00207.2822,W,0.00,,140311,,,A*67
{"class":"TPV","tag":"RMC","mode":3,"time":"2011-03-14T11:05:29.000Z","ept":0.005,"lat":57.163445000,"lon":-2.121370000,"alt":59.300,"epx":10.256,"epy":11.488,"epv":41.400,"track":0.0000,"speed":0.000,"climb":0.000,"eps":22.98}
$GPVTG,,T,,M,0.00,N,0.0,K,A*13
$GPGGA,110530.000,5709.8067,N,00207.2822,W,1,08,1.0,59.3,M,48.2,M,,0000*7D
$GPGLL,5709.8067,N,00207.2822,W,110530.000,A,A*40
$GPGSA,A,3,23,04,20,31,32,17,13,24,,,,,2.1,1.0,1.8*3F
$GPGSV,3,1,12,23,65,147,32,20,59,095,26,04,46,290,19,13,37,191,24*73
$GPGSV,3,2,12,32,32,083,32,17,30,227,18,31,23,042,21,24,16,136,19*71
$GPGSV,3,3,12,10,14,262,,02,11,306,,25,08,,,12,07,321,15*40
{"class":"SKY","tag":"GSV","xdop":0.68,"ydop":0.77,"vdop":1.80,"tdop":1.18,"hdop":1.00,"gdop":2.37,"pdop":2.10,"satellites":[{"PRN":23,"el":65,"az":147,"ss":32,"used":true},{"PRN":20,"el":59,"az":95,"ss":26,"used":true},{"PRN":4,"el":46,"az":290,"ss":19,"used":true},{"PRN":13,"el":37,"az":191,"ss":24,"used":true},{"PRN":32,"el":32,"az":83,"ss":32,"used":true},{"PRN":17,"el":30,"az":227,"ss":18,"used":true},{"PRN":31,"el":23,"az":42,"ss":21,"used":true},{"PRN":24,"el":16,"az":136,"ss":19,"used":true},{"PRN":10,"el":14,"az":262,"ss":0,"used":false},{"PRN":2,"el":11,"az":306,"ss":0,"used":false},{"PRN":25,"el":8,"az":0,"ss":0,"used":false},{"PRN":12,"el":7,"az":321,"ss":15,"used":false}]}
$GPRMC,110530.000,A,5709.8067,N,00207.2822,W,0.00,,140311,,,A*6F
{"class":"TPV","tag":"RMC","mode":3,"time":"2011-03-14T11:05:30.000Z","ept":0.005,"lat":57.163445000,"lon":-2.121370000,"alt":59.300,"epx":10.256,"epy":11.488,"epv":41.400,"track":0.0000,"speed":0.000,"climb":0.000,"eps":22.98}
$GPVTG,,T,,M,0.00,N,0.0,K,A*13
$GPGGA,110531.000,5709.8067,N,00207.2822,W,1,08,1.0,59.3,M,48.2,M,,0000*7C
$GPGLL,5709.8067,N,00207.2822,W,110531.000,A,A*41
$GPGSA,A,3,23,04,20,31,32,17,13,24,,,,,2.1,1.0,1.8*3F
$GPRMC,110531.000,A,5709.8067,N,00207.2822,W,0.00,,140311,,,A*6E
{"class":"TPV","tag":"RMC","mode":3,"time":"2011-03-14T11:05:31.000Z","ept":0.005,"lat":57.163445000,"lon":-2.121370000,"alt":59.300,"epx":10.256,"epy":11.488,"epv":41.400,"track":0.0000,"speed":0.000,"climb":0.000,"eps":22.98}
$GPVTG,,T,,M,0.00,N,0.0,K,A*13
$GPGGA,110532.000,5709.8067,N,00207.2822,W,1,08,1.0,59.3,M,48.2,M,,0000*7F
$GPGLL,5709.8067,N,00207.2822,W,110532.000,A,A*42
$GPGSA,A,3,23,04,20,31,32,17,13,24,,,,,2.1,1.0,1.8*3F
$GPRMC,110532.000,A,5709.8067,N,00207.2822,W,0.00,,140311,,,A*6D
{"class":"TPV","tag":"RMC","mode":3,"time":"2011-03-14T11:05:32.000Z","ept":0.005,"lat":57.163445000,"lon":-2.121370000,"alt":59.300,"epx":10.256,"epy":11.488,"epv":41.400,"track":0.0000,"speed":0.000,"climb":0.000,"eps":22.98}
$GPVTG,,T,,M,0.00,N,0.0,K,A*13
$GPGGA,110533.000,5709.8067,N,00207.2822,W,1,08,1.0,59.3,M,48.2,M,,0000*7E
$GPGLL,5709.8067,N,00207.2822,W,110533.000,A,A*43
$GPGSA,A,3,23,04,20,31,32,17,13,24,,,,,2.1,1.0,1.8*3F
$GPRMC,110533.000,A,5709.8067,N,00207.2822,W,0.00,,140311,,,A*6C
{"class":"TPV","tag":"RMC","mode":3,"time":"2011-03-14T11:05:33.000Z","ept":0.005,"lat":57.163445000,"lon":-2.121370000,"alt":59.300,"epx":10.256,"epy":11.488,"epv":41.400,"track":0.0000,"speed":0.000,"climb":0.000,"eps":22.98}
$GPVTG,,T,,M,0.00,N,0.0,K,A*13
$GPGGA,110534.000,5709.8067,N,00207.2822,W,1,07,1.2,59.3,M,48.2,M,,0000*74
$GPGLL,5709.8067,N,00207.2822,W,110534.000,A,A*44
$GPGSA,A,3,23,04,20,31,32,17,13,,,,,,2.6,1.2,2.3*34
$GPRMC,110534.000,A,5709.8067,N,00207.2822,W,0.00,,140311,,,A*6B
{"class":"TPV","tag":"RMC","mode":3,"time":"2011-03-14T11:05:34.000Z","ept":0.005,"lat":57.163445000,"lon":-2.121370000,"alt":59.300,"epx":10.256,"epy":11.488,"epv":41.400,"track":0.0000,"speed":0.000,"climb":0.000,"eps":22.98}
$GPVTG,,T,,M,0.00,N,0.0,K,A*13
$GPGGA,110535.000,5709.8067,N,00207.2822,W,1,07,1.2,59.3,M,48.2,M,,0000*75
$GPGLL,5709.8067,N,00207.2822,W,110535.000,A,A*45
$GPGSA,A,3,23,04,20,31,32,17,13,,,,,,2.6,1.2,2.3*34
$GPGSV,3,1,12,23,65,147,31,20,59,095,27,04,46,290,14,13,38,191,24*73
$GPGSV,3,2,12,32,32,083,32,17,30,227,18,31,23,042,21,24,16,137,08*70
$GPGSV,3,3,12,10,14,262,,02,11,306,,25,08,,,12,07,321,15*40
{"class":"SKY","tag":"GSV","xdop":0.68,"ydop":0.77,"vdop":2.30,"tdop":1.18,"hdop":1.20,"gdop":2.37,"pdop":2.60,"satellites":[{"PRN":23,"el":65,"az":147,"ss":31,"used":true},{"PRN":20,"el":59,"az":95,"ss":27,"used":true},{"PRN":4,"el":46,"az":290,"ss":14,"used":true},{"PRN":13,"el":38,"az":191,"ss":24,"used":true},{"PRN":32,"el":32,"az":83,"ss":32,"used":true},{"PRN":17,"el":30,"az":227,"ss":18,"used":true},{"PRN":31,"el":23,"az":42,"ss":21,"used":true},{"PRN":24,"el":16,"az":137,"ss":8,"used":false},{"PRN":10,"el":14,"az":262,"ss":0,"used":false},{"PRN":2,"el":11,"az":306,"ss":0,"used":false},{"PRN":25,"el":8,"az":0,"ss":0,"used":false},{"PRN":12,"el":7,"az":321,"ss":15,"used":false}]}
$GPRMC,110535.000,A,5709.8067,N,00207.2822,W,0.00,,140311,,,A*6A
{"class":"TPV","tag":"RMC","mode":3,"time":"2011-03-14T11:05:35.000Z","ept":0.005,"lat":57.163445000,"lon":-2.121370000,"alt":59.300,"epx":10.256,"epy":11.488,"epv":52.900,"track":0.0000,"speed":0.000,"climb":0.000,"eps":22.98}
$GPVTG,,T,,M,0.00,N,0.0,K,A*13
$GPGGA,110536.000,5709.8067,N,00207.2822,W,1,07,1.2,59.3,M,48.2,M,,0000*76
$GPGLL,5709.8067,N,00207.2822,W,110536.000,A,A*46
$GPGSA,A,3,23,04,20,31,32,17,13,,,,,,2.6,1.2,2.3*34
$GPRMC,110536.000,A,5709.8067,N,00207.2822,W,0.00,,140311,,,A*69
{"class":"TPV","tag":"RMC","mode":3,"time":"2011-03-14T11:05:36.000Z","ept":0.005,"lat":57.163445000,"lon":-2.121370000,"alt":59.300,"epx":10.256,"epy":11.488,"epv":52.900,"track":0.0000,"speed":0.000,"climb":0.000,"eps":22.98}
$GPVTG,,T,,M,0.00,N,0.0,K,A*13
$GPGGA,110537.000,5709.8067,N,00207.2822,W,1,07,1.2,59.3,M,48.2,M,,0000*77
$GPGLL,5709.8067,N,00207.2822,W,110537.000,A,A*47
$GPGSA,A,3,23,04,20,31,32,17,13,,,,,,2.6,1.2,2.3*34
$GPRMC,110537.000,A,5709.8067,N,00207.2822,W,0.00,,140311,,,A*68
{"class":"TPV","tag":"RMC","mode":3,"time":"2011-03-14T11:05:37.000Z","ept":0.005,"lat":57.163445000,"lon":-2.121370000,"alt":59.300,"epx":10.256,"epy":11.488,"epv":52.900,"track":0.0000,"speed":0.000,"climb":0.000,"eps":22.98}
$GPVTG,,T,,M,0.00,N,0.0,K,A*13
$GPGGA,110538.000,5709.8067,N,00207.2822,W,1,07,1.2,59.3,M,48.2,M,,0000*78
$GPGLL,5709.8067,N,00207.2822,W,110538.000,A,A*48
$GPGSA,A,3,23,04,20,31,32,17,13,,,,,,2.6,1.2,2.3*34
$GPRMC,110538.000,A,5709.8067,N,00207.2822,W,0.00,,140311,,,A*67
{"class":"TPV","tag":"RMC","mode":3,"time":"2011-03-14T11:05:38.000Z","ept":0.005,"lat":57.163445000,"lon":-2.121370000,"alt":59.300,"epx":10.256,"epy":11.488,"epv":52.900,"track":0.0000,"speed":0.000,"climb":0.000,"eps":22.98}
$GPVTG,,T,,M,0.00,N,0.0,K,A*13
$GPGGA,110539.000,5709.8067,N,00207.2822,W,1,07,1.2,59.3,M,48.2,M,,0000*79
$GPGLL,5709.8067,N,00207.2822,W,110539.000,A,A*49
$GPGSA,A,3,23,04,20,31,32,17,13,,,,,,2.6,1.2,2.3*34
$GPRMC,110539.000,A,5709.8067,N,00207.2822,W,0.00,,140311,,,A*66
{"class":"TPV","tag":"RMC","mode":3,"time":"2011-03-14T11:05:39.000Z","ept":0.005,"lat":57.163445000,"lon":-2.121370000,"alt":59.300,"epx":10.256,"epy":11.488,"epv":52.900,"track":0.0000,"speed":0.000,"climb":0.000,"eps":22.98}
$GPVTG,,T,,M,0.00,N,0.0,K,A*13
$GPGGA,110540.000,5709.8067,N,00207.2822,W,1,07,1.2,59.3,M,48.2,M,,0000*77
$GPGLL,5709.8067,N,00207.2822,W,110540.000,A,A*47
$GPGSA,A,3,23,04,20,31,32,17,13,,,,,,2.6,1.2,2.3*34
$GPGSV,3,1,12,23,65,147,31,20,59,095,27,04,46,290,14,13,38,191,24*73
$GPGSV,3,2,12,32,32,083,32,17,30,227,18,31,23,042,21,24,16,137,*78
$GPGSV,3,3,12,10,14,262,,02,11,306,,25,08,,,12,07,321,15*40
{"class":"SKY","tag":"GSV","xdop":0.68,"ydop":0.77,"vdop":2.30,"tdop":1.18,"hdop":1.20,"gdop":2.37,"pdop":2.60,"satellites":[{"PRN":23,"el":65,"az":147,"ss":31,"used":true},{"PRN":20,"el":59,"az":95,"ss":27,"used":true},{"PRN":4,"el":46,"az":290,"ss":14,"used":true},{"PRN":13,"el":38,"az":191,"ss":24,"used":true},{"PRN":32,"el":32,"az":83,"ss":32,"used":true},{"PRN":17,"el":30,"az":227,"ss":18,"used":true},{"PRN":31,"el":23,"az":42,"ss":21,"used":true},{"PRN":24,"el":16,"az":137,"ss":0,"used":false},{"PRN":10,"el":14,"az":262,"ss":0,"used":false},{"PRN":2,"el":11,"az":306,"ss":0,"used":false},{"PRN":25,"el":8,"az":0,"ss":0,"used":false},{"PRN":12,"el":7,"az":321,"ss":15,"used":false}]}
$GPRMC,110540.000,A,5709.8067,N,00207.2822,W,0.00,,140311,,,A*68
{"class":"TPV","tag":"RMC","mode":3,"time":"2011-03-14T11:05:40.000Z","ept":0.005,"lat":57.163445000,"lon":-2.121370000,"alt":59.300,"epx":10.256,"epy":11.488,"epv":52.900,"track":0.0000,"speed":0.000,"climb":0.000,"eps":22.98}
$GPVTG,,T,,M,0.00,N,0.0,K,A*13
$GPGGA,110541.000,5709.8067,N,00207.2822,W,1,07,1.2,59.3,M,48.2,M,,0000*76
$GPGLL,5709.8067,N,00207.2822,W,110541.000,A,A*46
$GPGSA,A,3,23,04,20,31,32,17,13,,,,,,2.6,1.2,2.3*34
$GPRMC,110541.000,A,5709.8067,N,00207.2822,W,0.00,,140311,,,A*69
{"class":"TPV","tag":"RMC","mode":3,"time":"2011-03-14T11:05:41.000Z","ept":0.005,"lat":57.163445000,"lon":-2.121370000,"alt":59.300,"epx":10.256,"epy":11.488,"epv":52.900,"track":0.0000,"speed":0.000,"climb":0.000,"eps":22.98}
$GPVTG,,T,,M,0.00,N,0.0,K,A*13
$GPGGA,110542.000,5709.8067,N,00207.2822,W,1,07,1.2,59.3,M,48.2,M,,0000*75
$GPGLL,5709.8067,N,00207.2822,W,110542.000,A,A*45
$GPGSA,A,3,23,04,20,31,32,17,13,,,,,,2.6,1.2,2.3*34
$GPRMC,110542.000,A,5709.8067,N,00207.2822,W,0.00,,140311,,,A*6A
{"class":"TPV","tag":"RMC","mode":3,"time":"2011-03-14T11:05:42.000Z","ept":0.005,"lat":57.163445000,"lon":-2.121370000,"alt":59.300,"epx":10.256,"epy":11.488,"epv":52.900,"track":0.0000,"speed":0.000,"climb":0.000,"eps":22.98}
$GPVTG,,T,,M,0.00,N,0.0,K,A*13
$GPGGA,110543.000,5709.8067,N,00207.2822,W,1,07,1.2,59.3,M,48.2,M,,0000*74
$GPGLL,5709.8067,N,00207.2822,W,110543.000,A,A*44
$GPGSA,A,3,23,04,20,31,32,17,13,,,,,,2.6,1.2,2.3*34
$GPRMC,110543.000,A,5709.8067,N,00207.2822,W,0.00,,140311,,,A*6B
{"class":"TPV","tag":"RMC","mode":3,"time":"2011-03-14T11:05:43.000Z","ept":0.005,"lat":57.163445000,"lon":-2.121370000,"alt":59.300,"epx":10.256,"epy":11.488,"epv":52.900,"track":0.0000,"speed":0.000,"climb":0.000,"eps":22.98}
$GPVTG,,T,,M,0.00,N,0.0,K,A*13
$GPGGA,110544.000,5709.8067,N,00207.2822,W,1,08,1.0,59.3,M,48.2,M,,0000*7E
$GPGLL,5709.8067,N,00207.2822,W,110544.000,A,A*43
$GPGSA,A,3,23,04,20,31,32,17,13,24,,,,,2.1,1.0,1.8*3F
$GPRMC,110544.000,A,5709.8067,N,00207.2822,W,0.00,,140311,,,A*6C
{"class":"TPV","tag":"RMC","mode":3,"time":"2011-03-14T11:05:44.000Z","ept":0.005,"lat":57.163445000,"lon":-2.121370000,"alt":59.300,"epx":10.256,"epy":11.488,"epv":52.900,"track":0.0000,"speed":0.000,"climb":0.000,"eps":22.98}
$GPVTG,,T,,M,0.00,N,0.0,K,A*13
$GPGGA,110545.000,5709.8067,N,00207.2822,W,1,08,1.0,59.3,M,48.2,M,,0000*7F
$GPGLL,5709.8067,N,00207.2822,W,110545.000,A,A*42
$GPGSA,A,3,23,04,20,31,32,17,13,24,,,,,2.1,1.0,1.8*3F
$GPGSV,3,1,12,23,65,147,30,20,59,095,27,04,46,290,14,13,38,191,24*72
$GPGSV,3,2,12,32,32,083,32,17,30,227,18,31,23,042,14,24,16,137,15*7A
$GPGSV,3,3,12,10,14,262,,02,11,306,,25,08,,,12,07,321,15*40
{"class":"SKY","tag":"GSV","xdop":0.68,"ydop":0.77,"vdop":1.80,"tdop":1.18,"hdop":1.00,"gdop":2.37,"pdop":2.10,"satellites":[{"PRN":23,"el":65,"az":147,"ss":30,"used":true},{"PRN":20,"el":59,"az":95,"ss":27,"used":true},{"PRN":4,"el":46,"az":290,"ss":14,"used":true},{"PRN":13,"el":38,"az":191,"ss":24,"used":true},{"PRN":32,"el":32,"az":83,"ss":32,"used":true},{"PRN":17,"el":30,"az":227,"ss":18,"used":true},{"PRN":31,"el":23,"az":42,"ss":14,"used":true},{"PRN":24,"el":16,"az":137,"ss":15,"used":true},{"PRN":10,"el":14,"az":262,"ss":0,"used":false},{"PRN":2,"el":11,"az":306,"ss":0,"used":false},{"PRN":25,"el":8,"az":0,"ss":0,"used":false},{"PRN":12,"el":7,"az":321,"ss":15,"used":false}]}
$GPRMC,110545.000,A,5709.8067,N,00207.2822,W,0.00,,140311,,,A*6D
{"class":"TPV","tag":"RMC","mode":3,"time":"2011-03-14T11:05:45.000Z","ept":0.005,"lat":57.163445000,"lon":-2.121370000,"alt":59.300,"epx":10.256,"epy":11.488,"epv":41.400,"track":0.0000,"speed":0.000,"climb":0.000,"eps":22.98}
$GPVTG,,T,,M,0.00,N,0.0,K,A*13
$GPGGA,110546.000,5709.8067,N,00207.2822,W,1,08,1.0,59.3,M,48.2,M,,0000*7C
$GPGLL,5709.8067,N,00207.2822,W,110546.000,A,A*41
$GPGSA,A,3,23,04,20,31,32,17,13,24,,,,,2.1,1.0,1.8*3F
$GPRMC,110546.000,A,5709.8067,N,00207.2822,W,0.00,,140311,,,A*6E
{"class":"TPV","tag":"RMC","mode":3,"time":"2011-03-14T11:05:46.000Z","ept":0.005,"lat":57.163445000,"lon":-2.121370000,"alt":59.300,"epx":10.256,"epy":11.488,"epv":41.400,"track":0.0000,"speed":0.000,"climb":0.000,"eps":22.98}
$GPVTG,,T,,M,0.00,N,0.0,K,A*13
$GPGGA,110547.000,5709.8067,N,00207.2822,W,1,08,1.0,59.3,M,48.2,M,,0000*7D
$GPGLL,5709.8067,N,00207.2822,W,110547.000,A,A*40
$GPGSA,A,3,23,04,20,31,32,17,13,24,,,,,2.1,1.0,1.8*3F
$GPRMC,110547.000,A,5709.8067,N,00207.2822,W,0.00,,140311,,,A*6F
{"class":"TPV","tag":"RMC","mode":3,"time":"2011-03-14T11:05:47.000Z","ept":0.005,"lat":57.163445000,"lon":-2.121370000,"alt":59.300,"epx":10.256,"epy":11.488,"epv":41.400,"track":0.0000,"speed":0.000,"climb":0.000,"eps":22.98}
$GPVTG,,T,,M,0.00,N,0.0,K,A*13
$GPGGA,110548.000,5709.8067,N,00207.2822,W,1,08,1.0,59.3,M,48.2,M,,0000*72
$GPGLL,5709.8067,N,00207.2822,W,110548.000,A,A*4F
$GPGSA,A,3,23,04,20,31,32,17,13,24,,,,,2.1,1.0,1.8*3F
$GPRMC,110548.000,A,5709.8067,N,00207.2822,W,0.00,,140311,,,A*60
{"class":"TPV","tag":"RMC","mode":3,"time":"2011-03-14T11:05:48.000Z","ept":0.005,"lat":57.163445000,"lon":-2.121370000,"alt":59.300,"epx":10.256,"epy":11.488,"epv":41.400,"track":0.0000,"speed":0.000,"climb":0.000,"eps":22.98}
$GPVTG,,T,,M,0.00,N,0.0,K,A*13
$GPGGA,110549.000,5709.8067,N,00207.2822,W,1,08,1.0,59.3,M,48.2,M,,0000*73
$GPGLL,5709.8067,N,00207.2822,W,110549.000,A,A*4E
$GPGSA,A,3,23,04,20,31,32,17,13,24,,,,,2.1,1.0,1.8*3F
$GPRMC,110549.000,A,5709.8067,N,00207.2822,W,0.00,,140311,,,A*61
{"class":"TPV","tag":"RMC","mode":3,"time":"2011-03-14T11:05:49.000Z","ept":0.005,"lat":57.163445000,"lon":-2.121370000,"alt":59.300,"epx":10.256,"epy":11.488,"epv":41.400,"track":0.0000,"speed":0.000,"climb":0.000,"eps":22.98}
$GPVTG,,T,,M,0.00,N,0.0,K,A*13
$GPGGA,110550.000,5709.8067,N,00207.2822,W,1,08,1.0,59.3,M,48.2,M,,0000*7B
$GPGLL,5709.8067,N,00207.2822,W,110550.000,A,A*46
$GPGSA,A,3,23,04,20,31,32,17,13,24,,,,,2.1,1.0,1.8*3F
$GPGSV,3,1,12,23,65,147,30,20,58,095,27,04,46,290,14,13,38,191,24*73
$GPGSV,3,2,12,32,32,083,32,17,30,227,18,31,23,042,19,24,15,137,16*77
$GPGSV,3,3,12,10,15,262,,02,11,306,,25,08,,,12,07,321,14*40
{"class":"SKY","tag":"GSV","xdop":0.68,"ydop":0.77,"vdop":1.80,"tdop":1.18,"hdop":1.00,"gdop":2.37,"pdop":2.10,"satellites":[{"PRN":23,"el":65,"az":147,"ss":30,"used":true},{"PRN":20,"el":58,"az":95,"ss":27,"used":true},{"PRN":4,"el":46,"az":290,"ss":14,"used":true},{"PRN":13,"el":38,"az":191,"ss":24,"used":true},{"PRN":32,"el":32,"az":83,"ss":32,"used":true},{"PRN":17,"el":30,"az":227,"ss":18,"used":true},{"PRN":31,"el":23,"az":42,"ss":19,"used":true},{"PRN":24,"el":15,"az":137,"ss":16,"used":true},{"PRN":10,"el":15,"az":262,"ss":0,"used":false},{"PRN":2,"el":11,"az":306,"ss":0,"used":false},{"PRN":25,"el":8,"az":0,"ss":0,"used":false},{"PRN":12,"el":7,"az":321,"ss":14,"used":false}]}
$GPRMC,110550.000,A,5709.8067,N,00207.2822,W,0.00,,140311,,,A*69
{"class":"TPV","tag":"RMC","mode":3,"time":"2011-03-14T11:05:50.000Z","ept":0.005,"lat":57.163445000,"lon":-2.121370000,"alt":59.300,"epx":10.256,"epy":11.488,"epv":41.400,"track":0.0000,"speed":0.000,"climb":0.000,"eps":22.98}
$GPVTG,,T,,M,0.00,N,0.0,K,A*13
$GPGGA,110551.000,5709.8067,N,00207.2822,W,1,08,1.0,59.3,M,48.2,M,,0000*7A
$GPGLL,5709.8067,N,00207.2822,W,110551.000,A,A*47
$GPGSA,A,3,23,04,20,31,32,17,13,24,,,,,2.1,1.0,1.8*3F
$GPRMC,110551.000,A,5709.8067,N,00207.2822,W,0.00,,140311,,,A*68
{"class":"TPV","tag":"RMC","mode":3,"time":"2011-03-14T11:05:51.000Z","ept":0.005,"lat":57.163445000,"lon":-2.121370000,"alt":59.300,"epx":10.256,"epy":11.488,"epv":41.400,"track":0.0000,"speed":0.000,"climb":0.000,"eps":22.98}
$GPVTG,,T,,M,0.00,N,0.0,K,A*13
$GPGGA,110552.000,5709.8067,N,00207.2822,W,1,08,1.0,59.3,M,48.2,M,,0000*79
$GPGLL,5709.8067,N,00207.2822,W,110552.000,A,A*44
$GPGSA,A,3,23,04,20,31,32,17,13,24,,,,,2.1,1.0,1.8*3F
$GPRMC,110552.000,A,5709.8067,N,00207.2822,W,0.00,,140311,,,A*6B
{"class":"TPV","tag":"RMC","mode":3,"time":"2011-03-14T11:05:52.000Z","ept":0.005,"lat":57.163445000,"lon":-2.121370000,"alt":59.300,"epx":10.256,"epy":11.488,"epv":41.400,"track":0.0000,"speed":0.000,"climb":0.000,"eps":22.98}
$GPVTG,,T,,M,0.00,N,0.0,K,A*13
$GPGGA,110553.000,5709.8067,N,00207.2822,W,1,08,1.0,59.3,M,48.2,M,,0000*78
$GPGLL,5709.8067,N,00207.2822,W,110553.000,A,A*45
$GPGSA,A,3,23,04,20,31,32,17,13,24,,,,,2.1,1.0,1.8*3F
$GPRMC,110553.000,A,5709.8067,N,00207.2822,W,0.00,,140311,,,A*6A
{"class":"TPV","tag":"RMC","mode":3,"time":"2011-03-14T11:05:53.000Z","ept":0.005,"lat":57.163445000,"lon":-2.121370000,"alt":59.300,"epx":10.256,"epy":11.488,"epv":41.400,"track":0.0000,"speed":0.000,"climb":0.000,"eps":22.98}
$GPVTG,,T,,M,0.00,N,0.0,K,A*13
$GPGGA,110554.000,5709.8067,N,00207.2822,W,1,08,1.0,59.3,M,48.2,M,,0000*7F
$GPGLL,5709.8067,N,00207.2822,W,110554.000,A,A*42
$GPGSA,A,3,23,04,20,31,32,17,13,24,,,,,2.1,1.0,1.8*3F
$GPRMC,110554.000,A,5709.8067,N,00207.2822,W,0.00,,140311,,,A*6D
{"class":"TPV","tag":"RMC","mode":3,"time":"2011-03-14T11:05:54.000Z","ept":0.005,"lat":57.163445000,"lon":-2.121370000,"alt":59.300,"epx":10.256,"epy":11.488,"epv":41.400,"track":0.0000,"speed":0.000,"climb":0.000,"eps":22.98}
$GPVTG,,T,,M,0.00,N,0.0,K,A*13
$GPGGA,110555.000,5709.8067,N,00207.2822,W,1,08,1.0,59.3,M,48.2,M,,0000*7E
$GPGLL,5709.8067,N,00207.2822,W,110555.000,A,A*43
$GPGSA,A,3,23,04,20,31,32,17,13,24,,,,,2.1,1.0,1.8*3F
$GPGSV,3,1,12,23,65,147,30,20,58,095,26,04,46,290,15,13,38,191,25*72
$GPGSV,3,2,12,32,32,083,32,17,30,227,18,31,23,042,19,24,15,137,16*77
$GPGSV,3,3,12,10,15,262,,02,11,306,,25,08,,,12,07,321,14*40
{"class":"SKY","tag":"GSV","xdop":0.68,"ydop":0.77,"vdop":1.80,"tdop":1.18,"hdop":1.00,"gdop":2.37,"pdop":2.10,"satellites":[{"PRN":23,"el":65,"az":147,"ss":30,"used":true},{"PRN":20,"el":58,"az":95,"ss":26,"used":true},{"PRN":4,"el":46,"az":290,"ss":15,"used":true},{"PRN":13,"el":38,"az":191,"ss":25,"used":true},{"PRN":32,"el":32,"az":83,"ss":32,"used":true},{"PRN":17,"el":30,"az":227,"ss":18,"used":true},{"PRN":31,"el":23,"az":42,"ss":19,"used":true},{"PRN":24,"el":15,"az":137,"ss":16,"used":true},{"PRN":10,"el":15,"az":262,"ss":0,"used":false},{"PRN":2,"el":11,"az":306,"ss":0,"used":false},{"PRN":25,"el":8,"az":0,"ss":0,"used":false},{"PRN":12,"el":7,"az":321,"ss":14,"used":false}]}
$GPRMC,110555.000,A,5709.8067,N,00207.2822,W,0.00,,140311,,,A*6C
{"class":"TPV","tag":"RMC","mode":3,"time":"2011-03-14T11:05:55.000Z","ept":0.005,"lat":57.163445000,"lon":-2.121370000,"alt":59.300,"epx":10.256,"epy":11.488,"epv":41.400,"track":0.0000,"speed":0.000,"climb":0.000,"eps":22.98}
$GPVTG,,T,,M,0.00,N,0.0,K,A*13
$GPGGA,110556.000,5709.8067,N,00207.2822,W,1,08,1.0,59.3,M,48.2,M,,0000*7D
$GPGLL,5709.8067,N,00207.2822,W,110556.000,A,A*40
$GPGSA,A,3,23,04,20,31,32,17,13,24,,,,,2.1,1.0,1.8*3F
$GPRMC,110556.000,A,5709.8067,N,00207.2822,W,0.00,,140311,,,A*6F
{"class":"TPV","tag":"RMC","mode":3,"time":"2011-03-14T11:05:56.000Z","ept":0.005,"lat":57.163445000,"lon":-2.121370000,"alt":59.300,"epx":10.256,"epy":11.488,"epv":41.400,"track":0.0000,"speed":0.000,"climb":0.000,"eps":22.98}
$GPVTG,,T,,M,0.00,N,0.0,K,A*13
$GPGGA,110557.000,5709.8067,N,00207.2822,W,1,08,1.0,59.3,M,48.2,M,,0000*7C
$GPGLL,5709.8067,N,00207.2822,W,110557.000,A,A*41
$GPGSA,A,3,23,04,20,31,32,17,13,24,,,,,2.1,1.0,1.8*3F
$GPRMC,110557.000,A,5709.8067,N,00207.2822,W,0.00,,140311,,,A*6E
{"class":"TPV","tag":"RMC","mode":3,"time":"2011-03-14T11:05:57.000Z","ept":0.005,"lat":57.163445000,"lon":-2.121370000,"alt":59.300,"epx":10.256,"epy":11.488,"epv":41.400,"track":0.0000,"speed":0.000,"climb":0.000,"eps":22.98}
$GPVTG,,T,,M,0.00,N,0.0,K,A*13
$GPGGA,110558.000,5709.8067,N,00207.2822,W,1,08,1.0,59.3,M,48.2,M,,0000*73
$GPGLL,5709.8067,N,00207.2822,W,110558.000,A,A*4E
$GPGSA,A,3,23,04,20,31,32,17,13,24,,,,,2.1,1.0,1.8*3F
$GPRMC,110558.000,A,5709.8067,N,00207.2822,W,0.00,,140311,,,A*61
{"class":"TPV","tag":"RMC","mode":3,"time":"2011-03-14T11:05:58.000Z","ept":0.005,"lat":57.163445000,"lon":-2.121370000,"alt":59.300,"epx":10.256,"epy":11.488,"epv":41.400,"track":0.0000,"speed":0.000,"climb":0.000,"eps":22.98}
$GPVTG,,T,,M,0.00,N,0.0,K,A*13
$GPGGA,110559.000,5709.8067,N,00207.2822,W,1,08,1.0,59.3,M,48.2,M,,0000*72
$GPGLL,5709.8067,N,00207.2822,W,110559.000,A,A*4F
$GPGSA,A,3,23,04,20,31,32,17,13,24,,,,,2.1,1.0,1.8*3F
$GPRMC,110559.000,A,5709.8067,N,00207.2822,W,0.00,,140311,,,A*60
{"class":"TPV","tag":"RMC","mode":3,"time":"2011-03-14T11:05:59.000Z","ept":0.005,"lat":57.163445000,"lon":-2.121370000,"alt":59.300,"epx":10.256,"epy":11.488,"epv":41.400,"track":0.0000,"speed":0.000,"climb":0.000,"eps":22.98}
$GPVTG,,T,,M,0.00,N,0.0,K,A*13
$GPGGA,110600.000,5709.8067,N,00207.2822,W,1,08,1.0,59.3,M,48.2,M,,0000*7D
$GPGLL,5709.8067,N,00207.2822,W,110600.000,A,A*40
$GPGSA,A,3,23,04,20,31,32,17,13,24,,,,,2.1,1.0,1.8*3F
$GPGSV,3,1,12,23,65,147,30,20,58,095,27,04,46,290,14,13,38,191,25*72
$GPGSV,3,2,12,32,32,083,32,17,30,227,18,31,23,042,19,24,15,137,15*74
$GPGSV,3,3,12,10,15,262,,02,11,306,,25,08,,,12,07,321,13*47
{"class":"SKY","tag":"GSV","xdop":0.68,"ydop":0.77,"vdop":1.80,"tdop":1.18,"hdop":1.00,"gdop":2.37,"pdop":2.10,"satellites":[{"PRN":23,"el":65,"az":147,"ss":30,"used":true},{"PRN":20,"el":58,"az":95,"ss":27,"used":true},{"PRN":4,"el":46,"az":290,"ss":14,"used":true},{"PRN":13,"el":38,"az":191,"ss":25,"used":true},{"PRN":32,"el":32,"az":83,"ss":32,"used":true},{"PRN":17,"el":30,"az":227,"ss":18,"used":true},{"PRN":31,"el":23,"az":42,"ss":19,"used":true},{"PRN":24,"el":15,"az":137,"ss":15,"used":true},{"PRN":10,"el":15,"az":262,"ss":0,"used":false},{"PRN":2,"el":11,"az":306,"ss":0,"used":false},{"PRN":25,"el":8,"az":0,"ss":0,"used":false},{"PRN":12,"el":7,"az":321,"ss":13,"used":false}]}
$GPRMC,110600.000,A,5709.8067,N,00207.2822,W,0.00,,140311,,,A*6F
{"class":"TPV","tag":"RMC","mode":3,"time":"2011-03-14T11:06:00.000Z","ept":0.005,"lat":57.163445000,"lon":-2.121370000,"alt":59.300,"epx":10.256,"epy":11.488,"epv":41.400,"track":0.0000,"speed":0.000,"climb":0.000,"eps":22.98}
$GPVTG,,T,,M,0.00,N,0.0,K,A*13
$GPGGA,110601.000,5709.8067,N,00207.2822,W,1,08,1.0,59.3,M,48.2,M,,0000*7C
$GPGLL,5709.8067,N,00207.2822,W,110601.000,A,A*41
$GPGSA,A,3,23,04,20,31,32,17,13,24,,,,,2.1,1.0,1.8*3F
$GPRMC,110601.000,A,5709.8067,N,00207.2822,W,0.00,,140311,,,A*6E
{"class":"TPV","tag":"RMC","mode":3,"time":"2011-03-14T11:06:01.000Z","ept":0.005,"lat":57.163445000,"lon":-2.121370000,"alt":59.300,"epx":10.256,"epy":11.488,"epv":41.400,"track":0.0000,"speed":0.000,"climb":0.000,"eps":22.98}
$GPVTG,,T,,M,0.00,N,0.0,K,A*13
$GPGGA,110602.000,5709.8067,N,00207.2822,W,1,08,1.0,59.3,M,48.2,M,,0000*7F
$GPGLL,5709.8067,N,00207.2822,W,110602.000,A,A*42
$GPGSA,A,3,23,04,20,31,32,17,13,24,,,,,2.1,1.0,1.8*3F
$GPRMC,110602.000,A,5709.8067,N,00207.2822,W,0.00,,140311,,,A*6D
{"class":"TPV","tag":"RMC","mode":3,"time":"2011-03-14T11:06:02.000Z","ept":0.005,"lat":57.163445000,"lon":-2.121370000,"alt":59.300,"epx":10.256,"epy":11.488,"epv":41.400,"track":0.0000,"speed":0.000,"climb":0.000,"eps":22.98}
$GPVTG,,T,,M,0.00,N,0.0,K,A*13
$GPGGA,110603.000,5709.8067,N,00207.2822,W,1,08,1.0,59.3,M,48.2,M,,0000*7E
$GPGLL,5709.8067,N,00207.2822,W,110603.000,A,A*43
$GPGSA,A,3,23,04,20,31,32,17,13,24,,,,,2.1,1.0,1.8*3F
$GPRMC,110603.000,A,5709.8067,N,00207.2822,W,0.00,,140311,,,A*6C
{"class":"TPV","tag":"RMC","mode":3,"time":"2011-03-14T11:06:03.000Z","ept":0.005,"lat":57.163445000,"lon":-2.121370000,"alt":59.300,"epx":10.256,"epy":11.488,"epv":41.400,"track":0.0000,"speed":0.000,"climb":0.000,"eps":22.98}
$GPVTG,,T,,M,0.00,N,0.0,K,A*13
$GPGGA,110604.000,5709.8067,N,00207.2822,W,1,08,1.0,59.3,M,48.2,M,,0000*79
$GPGLL,5709.8067,N,00207.2822,W,110604.000,A,A*44
$GPGSA,A,3,23,04,20,31,32,17,13,24,,,,,2.1,1.0,1.8*3F
$GPRMC,110604.000,A,5709.8067,N,00207.2822,W,0.00,,140311,,,A*6B
{"class":"TPV","tag":"RMC","mode":3,"time":"2011-03-14T11:06:04.000Z","ept":0.005,"lat":57.163445000,"lon":-2.121370000,"alt":59.300,"epx":10.256,"epy":11.488,"epv":41.400,"track":0.0000,"speed":0.000,"climb":0.000,"eps":22.98}
$GPVTG,,T,,M,0.00,N,0.0,K,A*13
$GPGGA,110605.000,5709.8067,N,00207.2822,W,1,08,1.0,59.3,M,48.2,M,,0000*78
$GPGLL,5709.8067,N,00207.2822,W,110605.000,A,A*45
$GPGSA,A,3,23,04,20,31,32,17,13,24,,,,,2.1,1.0,1.8*3F
$GPGSV,3,1,12,23,65,147,30,20,58,095,26,04,46,290,13,13,38,191,26*77
$GPGSV,3,2,12,32,32,083,31,17,30,227,16,31,23,042,19,24,15,137,14*78
$GPGSV,3,3,12,10,15,262,,02,11,306,,25,08,,,12,07,321,14*40
{"class":"SKY","tag":"GSV","xdop":0.68,"ydop":0.77,"vdop":1.80,"tdop":1.18,"hdop":1.00,"gdop":2.37,"pdop":2.10,"satellites":[{"PRN":23,"el":65,"az":147,"ss":30,"used":true},{"PRN":20,"el":58,"az":95,"ss":26,"used":true},{"PRN":4,"el":46,"az":290,"ss":13,"used":true},{"PRN":13,"el":38,"az":191,"ss":26,"used":true},{"PRN":32,"el":32,"az":83,"ss":31,"used":true},{"PRN":17,"el":30,"az":227,"ss":16,"used":true},{"PRN":31,"el":23,"az":42,"ss":19,"used":true},{"PRN":24,"el":15,"az":137,"ss":14,"used":true},{"PRN":10,"el":15,"az":262,"ss":0,"used":false},{"PRN":2,"el":11,"az":306,"ss":0,"used":false},{"PRN":25,"el":8,"az":0,"ss":0,"used":false},{"PRN":12,"el":7,"az":321,"ss":14,"used":false}]}
$GPRMC,110605.000,A,5709.8067,N,00207.2822,W,0.00,,140311,,,A*6A
{"class":"TPV","tag":"RMC","mode":3,"time":"2011-03-14T11:06:05.000Z","ept":0.005,"lat":57.163445000,"lon":-2.121370000,"alt":59.300,"epx":10.256,"epy":11.488,"epv":41.400,"track":0.0000,"speed":0.000,"climb":0.000,"eps":22.98}
$GPVTG,,T,,M,0.00,N,0.0,K,A*13
$GPGGA,110606.000,5709.8067,N,00207.2822,W,1,07,1.2,59.3,M,48.2,M,,0000*76
$GPGLL,5709.8067,N,00207.2822,W,110606.000,A,A*46
$GPGSA,A,3,23,04,20,31,32,17,13,,,,,,2.6,1.2,2.2*35
$GPRMC,110606.000,A,5709.8067,N,00207.2822,W,0.00,,140311,,,A*69
{"class":"TPV","tag":"RMC","mode":3,"time":"2011-03-14T11:06:06.000Z","ept":0.005,"lat":57.163445000,"lon":-2.121370000,"alt":59.300,"epx":10.256,"epy":11.488,"epv":41.400,"track":0.0000,"speed":0.000,"climb":0.000,"eps":22.98}
$GPVTG,,T,,M,0.00,N,0.0,K,A*13
$GPGGA,110607.000,5709.8067,N,00207.2822,W,1,07,1.2,59.3,M,48.2,M,,0000*77
$GPGLL,5709.8067,N,00207.2822,W,110607.000,A,A*47
$GPGSA,A,3,23,04,20,31,32,17,13,,,,,,2.6,1.2,2.2*35
$GPRMC,110607.000,A,5709.8067,N,00207.2822,W,0.00,,140311,,,A*68
{"class":"TPV","tag":"RMC","mode":3,"time":"2011-03-14T11:06:07.000Z","ept":0.005,"lat":57.163445000,"lon":-2.121370000,"alt":59.300,"epx":10.256,"epy":11.488,"epv":50.600,"track":0.0000,"speed":0.000,"climb":0.000,"eps":22.98}
$GPVTG,,T,,M,0.00,N,0.0,K,A*13
$GPGGA,110608.000,5709.8067,N,00207.2822,W,1,07,1.2,59.3,M,48.2,M,,0000*78
$GPGLL,5709.8067,N,00207.2822,W,110608.000,A,A*48
$GPGSA,A,3,23,04,20,31,32,17,13,,,,,,2.6,1.2,2.2*35
$GPRMC,110608.000,A,5709.8067,N,00207.2822,W,0.00,,140311,,,A*67
{"class":"TPV","tag":"RMC","mode":3,"time":"2011-03-14T11:06:08.000Z","ept":0.005,"lat":57.163445000,"lon":-2.121370000,"alt":59.300,"epx":10.256,"epy":11.488,"epv":50.600,"track":0.0000,"speed":0.000,"climb":0.000,"eps":22.98}
$GPVTG,,T,,M,0.00,N,0.0,K,A*13
$GPGGA,110609.000,5709.8067,N,00207.2822,W,1,07,1.2,59.3,M,48.2,M,,0000*79
$GPGLL,5709.8067,N,00207.2822,W,110609.000,A,A*49
$GPGSA,A,3,23,04,20,31,32,17,13,,,,,,2.6,1.2,2.2*35
$GPRMC,110609.000,A,5709.8067,N,00207.2822,W,0.00,,140311,,,A*66
{"class":"TPV","tag":"RMC","mode":3,"time":"2011-03-14T11:06:09.000Z","ept":0.005,"lat":57.163445000,"lon":-2.121370000,"alt":59.300,"epx":10.256,"epy":11.488,"epv":50.600,"track":0.0000,"speed":0.000,"climb":0.000,"eps":22.98}
$GPVTG,,T,,M,0.00,N,0.0,K,A*13
$GPGGA,110610.000,5709.8067,N,00207.2822,W,1,07,1.2,59.3,M,48.2,M,,0000*71
$GPGLL,5709.8067,N,00207.2822,W,110610.000,A,A*41
$GPGSA,A,3,23,04,20,31,32,17,13,,,,,,2.6,1.2,2.2*35
$GPGSV,3,1,12,23,65,147,30,20,58,095,26,04,46,290,13,13,38,191,26*77
$GPGSV,3,2,12,32,32,083,31,17,30,227,16,31,23,042,19,24,15,137,*7D
$GPGSV,3,3,12,10,15,262,,02,11,306,,25,08,,,12,07,321,14*40
{"class":"SKY","tag":"GSV","xdop":0.68,"ydop":0.77,"vdop":2.20,"tdop":1.18,"hdop":1.20,"gdop":2.37,"pdop":2.60,"satellites":[{"PRN":23,"el":65,"az":147,"ss":30,"used":true},{"PRN":20,"el":58,"az":95,"ss":26,"used":true},{"PRN":4,"el":46,"az":290,"ss":13,"used":true},{"PRN":13,"el":38,"az":191,"ss":26,"used":true},{"PRN":32,"el":32,"az":83,"ss":31,"used":true},{"PRN":17,"el":30,"az":227,"ss":16,"used":true},{"PRN":31,"el":23,"az":42,"ss":19,"used":true},{"PRN":24,"el":15,"az":137,"ss":0,"used":false},{"PRN":10,"el":15,"az":262,"ss":0,"used":false},{"PRN":2,"el":11,"az":306,"ss":0,"used":false},{"PRN":25,"el":8,"az":0,"ss":0,"used":false},{"PRN":12,"el":7,"az":321,"ss":14,"used":false}]}
$GPRMC,110610.000,A,5709.8067,N,00207.2822,W,0.00,,140311,,,A*6E
{"class":"TPV","tag":"RMC","mode":3,"time":"2011-03-14T11:06:10.000Z","ept":0.005,"lat":57.163445000,"lon":-2.121370000,"alt":59.300,"epx":10.256,"epy":11.488,"epv":50.600,"track":0.0000,"speed":0.000,"climb":0.000,"eps":22.98}
$GPVTG,,T,,M,0.00,N,0.0,K,A*13
$GPGGA,110611.000,5709.8067,N,00207.2822,W,1,07,1.2,59.3,M,48.2,M,,0000*70
$GPGLL,5709.8067,N,00207.2822,W,110611.000,A,A*40
$GPGSA,A,3,23,04,20,31,32,17,13,,,,,,2.6,1.2,2.2*35
$GPRMC,110611.000,A,5709.8067,N,00207.2822,W,0.00,,140311,,,A*6F
{"class":"TPV","tag":"RMC","mode":3,"time":"2011-03-14T11:06:11.000Z","ept":0.005,"lat":57.163445000,"lon":-2.121370000,"alt":59.300,"epx":10.256,"epy":11.488,"epv":50.600,"track":0.0000,"speed":0.000,"climb":0.000,"eps":22.98}
$GPVTG,,T,,M,0.00,N,0.0,K,A*13
$GPGGA,110612.000,5709.8067,N,00207.2822,W,1,07,1.2,59.3,M,48.2,M,,0000*73
$GPGLL,5709.8067,N,00207.2822,W,110612.000,A,A*43
$GPGSA,A,3,23,04,20,31,32,17,13,,,,,,2.6,1.2,2.2*35
$GPRMC,110612.000,A,5709.8067,N,00207.2822,W,0.00,,140311,,,A*6C
{"class":"TPV","tag":"RMC","mode":3,"time":"2011-03-14T11:06:12.000Z","ept":0.005,"lat":57.163445000,"lon":-2.121370000,"alt":59.300,"epx":10.256,"epy":11.488,"epv":50.600,"track":0.0000,"speed":0.000,"climb":0.000,"eps":22.98}
$GPVTG,,T,,M,0.00,N,0.0,K,A*13
$GPGGA,110613.000,5709.8067,N,00207.2822,W,1,06,2.3,59.3,M,48.2,M,,0000*71
$GPGLL,5709.8067,N,00207.2822,W,110613.000,A,A*42
$GPGSA,A,3,23,20,31,32,17,13,,,,,,,3.6,2.3,2.8*38
$GPRMC,110613.000,A,5709.8067,N,00207.2822,W,0.00,,140311,,,A*6D
{"class":"TPV","tag":"RMC","mode":3,"time":"2011-03-14T11:06:13.000Z","ept":0.005,"lat":57.163445000,"lon":-2.121370000,"alt":59.300,"epx":10.256,"epy":11.488,"epv":50.600,"track":0.0000,"speed":0.000,"climb":0.000,"eps":22.98}
$GPVTG,,T,,M,0.00,N,0.0,K,A*13
$GPGGA,110614.000,5709.8067,N,00207.2822,W,1,06,2.3,59.3,M,48.2,M,,0000*76
$GPGLL,5709.8067,N,00207.2822,W,110614.000,A,A*45
$GPGSA,A,3,23,20,31,32,17,13,,,,,,,3.6,2.3,2.8*38
$GPRMC,110614.000,A,5709.8067,N,00207.2822,W,0.00,,140311,,,A*6A
{"class":"TPV","tag":"RMC","mode":3,"time":"2011-03-14T11:06:14.000Z","ept":0.005,"lat":57.163445000,"lon":-2.121370000,"alt":59.300,"epx":10.256,"epy":11.488,"epv":64.400,"track":0.0000,"speed":0.000,"climb":0.000,"eps":22.98}
$GPVTG,,T,,M,0.00,N,0.0,K,A*13
$GPGGA,110615.000,5709.8067,N,00207.2822,W,1,06,2.3,59.3,M,48.2,M,,0000*77
$GPGLL,5709.8067,N,00207.2822,W,110615.000,A,A*44
$GPGSA,A,3,23,20,31,32,17,13,,,,,,,3.6,2.3,2.8*38
$GPGSV,3,1,12,23,65,147,29,20,58,095,26,04,46,290,,13,38,191,26*7D
$GPGSV,3,2,12,32,32,083,30,17,30,227,16,31,23,042,18,24,15,137,*7D
$GPGSV,3,3,12,10,15,262,,02,11,306,,25,08,,,12,07,321,14*40
{"class":"SKY","tag":"GSV","xdop":0.68,"ydop":0.77,"vdop":2.80,"tdop":1.18,"hdop":2.30,"gdop":2.37,"pdop":3.60,"satellites":[{"PRN":23,"el":65,"az":147,"ss":29,"used":true},{"PRN":20,"el":58,"az":95,"ss":26,"used":true},{"PRN":4,"el":46,"az":290,"ss":0,"used":false},{"PRN":13,"el":38,"az":191,"ss":26,"used":true},{"PRN":32,"el":32,"az":83,"ss":30,"used":true},{"PRN":17,"el":30,"az":227,"ss":16,"used":true},{"PRN":31,"el":23,"az":42,"ss":18,"used":true},{"PRN":24,"el":15,"az":137,"ss":0,"used":false},{"PRN":10,"el":15,"az":262,"ss":0,"used":false},{"PRN":2,"el":11,"az":306,"ss":0,"used":false},{"PRN":25,"el":8,"az":0,"ss":0,"used":false},{"PRN":12,"el":7,"az":321,"ss":14,"used":false}]}
$GPRMC,110615.000,A,5709.8067,N,00207.2822,W,0.00,,140311,,,A*6B
{"class":"TPV","tag":"RMC","mode":3,"time":"2011-03-14T11:06:15.000Z","ept":0.005,"lat":57.163445000,"lon":-2.121370000,"alt":59.300,"epx":10.256,"epy":11.488,"epv":64.400,"track":0.0000,"speed":0.000,"climb":0.000,"eps":22.98}
$GPVTG,,T,,M,0.00,N,0.0,K,A*13
$GPGGA,110616.000,5709.8067,N,00207.2822,W,1,06,2.3,59.3,M,48.2,M,,0000*74
$GPGLL,5709.8067,N,00207.2822,W,110616.000,A,A*47
$GPGSA,A,3,23,20,31,32,17,13,,,,,,,3.6,2.3,2.8*38
$GPRMC,110616.000,A,5709.8067,N,00207.2822,W,0.00,,140311,,,A*68
{"class":"TPV","tag":"RMC","mode":3,"time":"2011-03-14T11:06:16.000Z","ept":0.005,"lat":57.163445000,"lon":-2.121370000,"alt":59.300,"epx":10.256,"epy":11.488,"epv":64.400,"track":0.0000,"speed":0.000,"climb":0.000,"eps":22.98}
$GPVTG,,T,,M,0.00,N,0.0,K,A*13
$GPGGA,110617.000,5709.8067,N,00207.2822,W,1,06,2.3,59.3,M,48.2,M,,0000*75
$GPGLL,5709.8067,N,00207.2822,W,110617.000,A,A*46
$GPGSA,A,3,23,20,31,32,17,13,,,,,,,3.6,2.3,2.8*38
$GPRMC,110617.000,A,5709.8067,N,00207.2822,W,0.00,,140311,,,A*69
{"class":"TPV","tag":"RMC","mode":3,"time":"2011-03-14T11:06:17.000Z","ept":0.005,"lat":57.163445000,"lon":-2.121370000,"alt":59.300,"epx":10.256,"epy":11.488,"epv":64.400,"track":0.0000,"speed":0.000,"climb":0.000,"eps":22.98}
$GPVTG,,T,,M,0.00,N,0.0,K,A*13
$GPGGA,110618.000,5709.8067,N,00207.2822,W,1,06,2.3,59.3,M,48.2,M,,0000*7A
$GPGLL,5709.8067,N,00207.2822,W,110618.000,A,A*49
$GPGSA,A,3,23,20,31,32,17,13,,,,,,,3.6,2.3,2.8*38
$GPRMC,110618.000,A,5709.8067,N,00207.2822,W,0.00,,140311,,,A*66
{"class":"TPV","tag":"RMC","mode":3,"time":"2011-03-14T11:06:18.000Z","ept":0.005,"lat":57.163445000,"lon":-2.121370000,"alt":59.300,"epx":10.256,"epy":11.488,"epv":64.400,"track":0.0000,"speed":0.000,"climb":0.000,"eps":22.98}
$GPVTG,,T,,M,0.00,N,0.0,K,A*13
$GPGGA,110619.000,5709.8067,N,00207.2822,W,1,07,1.2,59.3,M,48.2,M,,0000*78
$GPGLL,5709.8067,N,00207.2822,W,110619.000,A,A*48
$GPGSA,A,3,23,04,20,31,32,17,13,,,,,,2.6,1.2,2.2*35
$GPRMC,110619.000,A,5709.8067,N,00207.2822,W,0.00,,140311,,,A*67
{"class":"TPV","tag":"RMC","mode":3,"time":"2011-03-14T11:06:19.000Z","ept":0.005,"lat":57.163445000,"lon":-2.121370000,"alt":59.300,"epx":10.256,"epy":11.488,"epv":64.400,"track":0.0000,"speed":0.000,"climb":0.000,"eps":22.98}
$GPVTG,,T,,M,0.00,N,0.0,K,A*13
$GPGGA,110620.000,5709.8067,N,00207.2822,W,1,07,1.2,59.3,M,48.2,M,,0000*72
$GPGLL,5709.8067,N,00207.2822,W,110620.000,A,A*42
$GPGSA,A,3,23,04,20,31,32,17,13,,,,,,2.6,1.2,2.2*35
$GPGSV,3,1,12,23,65,146,29,20,58,095,26,04,46,290,18,13,38,191,27*74
$GPGSV,3,2,12,32,31,083,31,17,30,227,16,31,23,042,19,24,15,137,*7E
$GPGSV,3,3,12,10,15,262,,02,12,306,,25,08,,,12,07,321,13*44
{"class":"SKY","tag":"GSV","xdop":0.68,"ydop":0.77,"vdop":2.20,"tdop":1.18,"hdop":1.20,"gdop":2.37,"pdop":2.60,"satellites":[{"PRN":23,"el":65,"az":146,"ss":29,"used":true},{"PRN":20,"el":58,"az":95,"ss":26,"used":true},{"PRN":4,"el":46,"az":290,"ss":18,"used":true},{"PRN":13,"el":38,"az":191,"ss":27,"used":true},{"PRN":32,"el":31,"az":83,"ss":31,"used":true},{"PRN":17,"el":30,"az":227,"ss":16,"used":true},{"PRN":31,"el":23,"az":42,"ss":19,"used":true},{"PRN":24,"el":15,"az":137,"ss":0,"used":false},{"PRN":10,"el":15,"az":262,"ss":0,"used":false},{"PRN":2,"el":12,"az":306,"ss":0,"used":false},{"PRN":25,"el":8,"az":0,"ss":0,"used":false},{"PRN":12,"el":7,"az":321,"ss":13,"used":false}]}
$GPRMC,110620.000,A,5709.8067,N,00207.2822,W,0.00,,140311,,,A*6D
{"class":"TPV","tag":"RMC","mode":3,"time":"2011-03-14T11:06:20.000Z","ept":0.005,"lat":57.163445000,"lon":-2.121370000,"alt":59.300,"epx":10.256,"epy":11.488,"epv":50.600,"track":0.0000,"speed":0.000,"climb":0.000,"eps":22.98}
$GPVTG,,T,,M,0.00,N,0.0,K,A*13
$GPGGA,110621.000,5709.8067,N,00207.2822,W,1,07,1.2,59.3,M,48.2,M,,0000*73
$GPGLL,5709.8067,N,00207.2822,W,110621.000,A,A*43
$GPGSA,A,3,23,04,20,31,32,17,13,,,,,,2.6,1.2,2.2*35
$GPRMC,110621.000,A,5709.8067,N,00207.2822,W,0.00,,140311,,,A*6C
{"class":"TPV","tag":"RMC","mode":3,"time":"2011-03-14T11:06:21.000Z","ept":0.005,"lat":57.163445000,"lon":-2.121370000,"alt":59.300,"epx":10.256,"epy":11.488,"epv":50.600,"track":0.0000,"speed":0.000,"climb":0.000,"eps":22.98}
$GPVTG,,T,,M,0.00,N,0.0,K,A*13
$GPGGA,110622.000,5709.8067,N,00207.2822,W,1,07,1.2,59.3,M,48.2,M,,0000*70
$GPGLL,5709.8067,N,00207.2822,W,110622.000,A,A*40
$GPGSA,A,3,23,04,20,31,32,17,13,,,,,,2.6,1.2,2.2*35
$GPRMC,110622.000,A,5709.8067,N,00207.2822,W,0.00,,140311,,,A*6F
{"class":"TPV","tag":"RMC","mode":3,"time":"2011-03-14T11:06:22.000Z","ept":0.005,"lat":57.163445000,"lon":-2.121370000,"alt":59.300,"epx":10.256,"epy":11.488,"epv":50.600,"track":0.0000,"speed":0.000,"climb":0.000,"eps":22.98}
$GPVTG,,T,,M,0.00,N,0.0,K,A*13
$GPGGA,110623.000,5709.8067,N,00207.2822,W,1,07,1.2,59.3,M,48.2,M,,0000*71
$GPGLL,5709.8067,N,00207.2822,W,110623.000,A,A*41
$GPGSA,A,3,23,04,20,31,32,17,13,,,,,,2.6,1.2,2.2*35
$GPRMC,110623.000,A,5709.8067,N,00207.2822,W,0.00,,140311,,,A*6E
{"class":"TPV","tag":"RMC","mode":3,"time":"2011-03-14T11:06:23.000Z","ept":0.005,"lat":57.163445000,"lon":-2.121370000,"alt":59.300,"epx":10.256,"epy":11.488,"epv":50.600,"track":0.0000,"speed":0.000,"climb":0.000,"eps":22.98}
$GPVTG,,T,,M,0.00,N,0.0,K,A*13
$GPGGA,110624.000,5709.8067,N,00207.2822,W,1,07,1.2,59.3,M,48.2,M,,0000*76
$GPGLL,5709.8067,N,00207.2822,W,110624.000,A,A*46
$GPGSA,A,3,23,04,20,31,32,17,13,,,,,,2.6,1.2,2.2*35
$GPRMC,110624.000,A,5709.8067,N,00207.2822,W,0.00,,140311,,,A*69
{"class":"TPV","tag":"RMC","mode":3,"time":"2011-03-14T11:06:24.000Z","ept":0.005,"lat":57.163445000,"lon":-2.121370000,"alt":59.300,"epx":10.256,"epy":11.488,"epv":50.600,"track":0.0000,"speed":0.000,"climb":0.000,"eps":22.98}
$GPVTG,,T,,M,0.00,N,0.0,K,A*13
$GPGGA,110625.000,5709.8067,N,00207.2822,W,1,07,1.2,59.3,M,48.2,M,,0000*77
$GPGLL,5709.8067,N,00207.2822,W,110625.000,A,A*47
$GPGSA,A,3,23,04,20,31,32,17,13,,,,,,2.6,1.2,2.2*35
$GPGSV,3,1,12,23,65,146,30,20,58,095,27,04,46,290,19,13,38,191,28*73
$GPGSV,3,2,12,32,31,083,31,17,30,227,17,31,23,042,19,24,15,137,*7F
$GPGSV,3,3,12,10,15,262,,02,12,306,,25,08,,,12,07,321,*46
{"class":"SKY","tag":"GSV","xdop":0.68,"ydop":0.77,"vdop":2.20,"tdop":1.18,"hdop":1.20,"gdop":2.37,"pdop":2.60,"satellites":[{"PRN":23,"el":65,"az":146,"ss":30,"used":true},{"PRN":20,"el":58,"az":95,"ss":27,"used":true},{"PRN":4,"el":46,"az":290,"ss":19,"used":true},{"PRN":13,"el":38,"az":191,"ss":28,"used":true},{"PRN":32,"el":31,"az":83,"ss":31,"used":true},{"PRN":17,"el":30,"az":227,"ss":17,"used":true},{"PRN":31,"el":23,"az":42,"ss":19,"used":true},{"PRN":24,"el":15,"az":137,"ss":0,"used":false},{"PRN":10,"el":15,"az":262,"ss":0,"used":false},{"PRN":2,"el":12,"az":306,"ss":0,"used":false},{"PRN":25,"el":8,"az":0,"ss":0,"used":false},{"PRN":12,"el":7,"az":321,"ss":0,"used":false}]}
$GPRMC,110625.000,A,5709.8067,N,00207.2822,W,0.00,,140311,,,A*68
{"class":"TPV","tag":"RMC","mode":3,"time":"2011-03-14T11:06:25.000Z","ept":0.005,"lat":57.163445000,"lon":-2.121370000,"alt":59.300,"epx":10.256,"epy":11.488,"epv":50.600,"track":0.0000,"speed":0.000,"climb":0.000,"eps":22.98}
$GPVTG,,T,,M,0.00,N,0.0,K,A*13
$GPGGA,110626.000,5709.8067,N,00207.2822,W,1,07,1.2,59.3,M,48.2,M,,0000*74
$GPGLL,5709.8067,N,00207.2822,W,110626.000,A,A*44
$GPGSA,A,3,23,04,20,31,32,17,13,,,,,,2.6,1.2,2.2*35
$GPRMC,110626.000,A,5709.8067,N,00207.2822,W,0.00,,140311,,,A*6B
{"class":"TPV","tag":"RMC","mode":3,"time":"2011-03-14T11:06:26.000Z","ept":0.005,"lat":57.163445000,"lon":-2.121370000,"alt":59.300,"epx":10.256,"epy":11.488,"epv":50.600,"track":0.0000,"speed":0.000,"climb":0.000,"eps":22.98}
$GPVTG,,T,,M,0.00,N,0.0,K,A*13
$GPGGA,110627.000,5709.8067,N,00207.2822,W,1,07,1.2,59.3,M,48.2,M,,0000*75
$GPGLL,5709.8067,N,00207.2822,W,110627.000,A,A*45
$GPGSA,A,3,23,04,20,31,32,17,13,,,,,,2.6,1.2,2.2*35
$GPRMC,110627.000,A,5709.8067,N,00207.2822,W,0.00,,140311,,,A*6A
{"class":"TPV","tag":"RMC","mode":3,"time":"2011-03-14T11:06:27.000Z","ept":0.005,"lat":57.163445000,"lon":-2.121370000,"alt":59.300,"epx":10.256,"epy":11.488,"epv":50.600,"track":0.0000,"speed":0.000,"climb":0.000,"eps":22.98}
$GPVTG,,T,,M,0.00,N,0.0,K,A*13
$GPGGA,110628.000,5709.8067,N,00207.2822,W,1,07,1.2,59.3,M,48.2,M,,0000*7A
$GPGLL,5709.8067,N,00207.2822,W,110628.000,A,A*4A
$GPGSA,A,3,23,04,20,31,32,17,13,,,,,,2.5,1.2,2.2*36
$GPRMC,110628.000,A,5709.8067,N,00207.2822,W,0.00,,140311,,,A*65
{"class":"TPV","tag":"RMC","mode":3,"time":"2011-03-14T11:06:28.000Z","ept":0.005,"lat":57.163445000,"lon":-2.121370000,"alt":59.300,"epx":10.256,"epy":11.488,"epv":50.600,"track":0.0000,"speed":0.000,"climb":0.000,"eps":22.98}
$GPVTG,,T,,M,0.00,N,0.0,K,A*13
$GPGGA,110629.000,5709.8067,N,00207.2822,W,1,07,1.2,59.3,M,48.2,M,,0000*7B
$GPGLL,5709.8067,N,00207.2822,W,110629.000,A,A*4B
$GPGSA,A,3,23,04,20,31,32,17,13,,,,,,2.5,1.2,2.2*36
$GPRMC,110629.000,A,5709.8067,N,00207.2822,W,0.00,,140311,,,A*64
{"class":"TPV","tag":"RMC","mode":3,"time":"2011-03-14T11:06:29.000Z","ept":0.005,"lat":57.163445000,"lon":-2.121370000,"alt":59.300,"epx":10.256,"epy":11.488,"epv":50.600,"track":0.0000,"speed":0.000,"climb":0.000,"eps":22.98}
$GPVTG,,T,,M,0.00,N,0.0,K,A*13
