$GPGGA,080315.000,6503.0241,N,02528.3627,E,1,07,1.2,9.9,M,21.6,M,,0000*58
{"class":"TPV","tag":"GGA","mode":3,"lat":65.050401667,"lon":25.472711667,"alt":9.900}
$GPGSA,A,3,29,12,30,23,04,31,16,,,,,,2.2,1.2,1.9*32
{"class":"TPV","tag":"GSA","mode":3,"lat":65.050401667,"lon":25.472711667,"alt":9.900,"epv":43.700}
$GPGSV,3,1,11,29,65,214,25,30,52,154,23,31,45,272,32,02,41,068,*7A
$GPGSV,3,2,11,12,23,132,25,23,18,348,13,10,16,098,15,04,12,040,24*7E
$GPGSV,3,3,11,05,11,110,23,16,07,296,33,13,07,020,26*43
{"class":"SKY","tag":"GSV","xdop":0.89,"ydop":0.96,"vdop":1.90,"tdop":1.44,"hdop":1.20,"gdop":2.99,"pdop":2.20,"satellites":[{"PRN":29,"el":65,"az":214,"ss":25,"used":true},{"PRN":30,"el":52,"az":154,"ss":23,"used":true},{"PRN":31,"el":45,"az":272,"ss":32,"used":true},{"PRN":2,"el":41,"az":68,"ss":0,"used":false},{"PRN":12,"el":23,"az":132,"ss":25,"used":true},{"PRN":23,"el":18,"az":348,"ss":13,"used":true},{"PRN":10,"el":16,"az":98,"ss":15,"used":false},{"PRN":4,"el":12,"az":40,"ss":24,"used":true},{"PRN":5,"el":11,"az":110,"ss":23,"used":false},{"PRN":16,"el":7,"az":296,"ss":33,"used":true},{"PRN":13,"el":7,"az":20,"ss":26,"used":false}]}
$GPRMC,080315.000,A,6503.0241,N,02528.3627,E,0.95,25.69,051209,,,A*50
{"class":"TPV","tag":"RMC","mode":3,"time":"2009-12-05T08:03:15.000Z","ept":0.005,"lat":65.050401667,"lon":25.472711667,"alt":9.900,"epx":13.383,"epy":14.464,"epv":43.700,"track":25.6900,"speed":0.489}
$GPGGA,080316.000,6503.0241,N,02528.3625,E,1,07,1.2,10.4,M,21.6,M,,0000*6C
$GPGSA,A,3,29,12,30,23,04,31,16,,,,,,2.2,1.2,1.9*32
$GPRMC,080316.000,A,6503.0241,N,02528.3625,E,0.56,33.07,051209,,,A*51
{"class":"TPV","tag":"RMC","mode":3,"time":"2009-12-05T08:03:16.000Z","ept":0.005,"lat":65.050401667,"lon":25.472708333,"alt":10.400,"epx":13.383,"epy":14.464,"epv":43.700,"track":33.0700,"speed":0.288,"climb":0.500,"eps":28.93}
$GPGGA,080317.000,6503.0239,N,02528.3621,E,1,07,1.2,10.3,M,21.6,M,,0000*61
$GPGSA,A,3,29,12,30,23,04,31,16,,,,,,2.2,1.2,1.9*32
$GPRMC,080317.000,A,6503.0239,N,02528.3621,E,0.74,18.23,051209,,,A*54
{"class":"TPV","tag":"RMC","mode":3,"time":"2009-12-05T08:03:17.000Z","ept":0.005,"lat":65.050398333,"lon":25.472701667,"alt":10.300,"epx":13.383,"epy":14.464,"epv":43.700,"track":18.2300,"speed":0.381,"climb":-0.100,"eps":28.93}
$GPGGA,080318.000,6503.0236,N,02528.3617,E,1,07,1.2,10.2,M,21.6,M,,0000*65
$GPGSA,A,3,29,12,30,23,04,31,16,,,,,,2.2,1.2,1.9*32
$GPRMC,080318.000,A,6503.0236,N,02528.3617,E,0.36,37.53,051209,,,A*5D
{"class":"TPV","tag":"RMC","mode":3,"time":"2009-12-05T08:03:18.000Z","ept":0.005,"lat":65.050393333,"lon":25.472695000,"alt":10.200,"epx":13.383,"epy":14.464,"epv":43.700,"track":37.5300,"speed":0.185,"climb":-0.100,"eps":28.93}
$GPGGA,080319.000,6503.0235,N,02528.3611,E,1,07,1.2,10.3,M,21.6,M,,0000*60
$GPGSA,A,3,29,12,30,23,04,31,16,,,,,,2.2,1.2,1.9*32
$GPRMC,080319.000,A,6503.0235,N,02528.3611,E,0.34,8.27,051209,,,A*64
{"class":"TPV","tag":"RMC","mode":3,"time":"2009-12-05T08:03:19.000Z","ept":0.005,"lat":65.050391667,"lon":25.472685000,"alt":10.300,"epx":13.383,"epy":14.464,"epv":43.700,"track":8.2700,"speed":0.175,"climb":0.100,"eps":28.93}
$GPGGA,080320.000,6503.0233,N,02528.3606,E,1,07,1.2,10.9,M,21.6,M,,0000*60
$GPGSA,A,3,29,12,30,23,04,31,16,,,,,,2.2,1.2,1.9*32
$GPGSV,3,1,11,29,66,214,24,30,52,154,24,31,45,272,32,02,41,068,*7F
$GPGSV,3,2,11,12,23,132,26,23,18,348,16,10,16,098,,04,12,040,25*7D
$GPGSV,3,3,11,05,12,110,23,16,07,296,33,13,07,020,25*43
{"class":"SKY","tag":"GSV","xdop":0.89,"ydop":0.96,"vdop":1.90,"tdop":1.44,"hdop":1.20,"gdop":2.99,"pdop":2.20,"satellites":[{"PRN":29,"el":66,"az":214,"ss":24,"used":true},{"PRN":30,"el":52,"az":154,"ss":24,"used":true},{"PRN":31,"el":45,"az":272,"ss":32,"used":true},{"PRN":2,"el":41,"az":68,"ss":0,"used":false},{"PRN":12,"el":23,"az":132,"ss":26,"used":true},{"PRN":23,"el":18,"az":348,"ss":16,"used":true},{"PRN":10,"el":16,"az":98,"ss":0,"used":false},{"PRN":4,"el":12,"az":40,"ss":25,"used":true},{"PRN":5,"el":12,"az":110,"ss":23,"used":false},{"PRN":16,"el":7,"az":296,"ss":33,"used":true},{"PRN":13,"el":7,"az":20,"ss":25,"used":false}]}
$GPRMC,080320.000,A,6503.0233,N,02528.3606,E,0.11,349.73,051209,,,A*6E
{"class":"TPV","tag":"RMC","mode":3,"time":"2009-12-05T08:03:20.000Z","ept":0.005,"lat":65.050388333,"lon":25.472676667,"alt":10.900,"epx":13.383,"epy":14.464,"epv":43.700,"track":349.7300,"speed":0.057,"climb":0.600,"eps":28.93}
$GPGGA,080321.000,6503.0229,N,02528.3601,E,1,07,1.2,10.2,M,21.6,M,,0000*66
$GPGSA,A,3,29,12,30,23,04,31,16,,,,,,2.2,1.2,1.9*32
$GPRMC,080321.000,A,6503.0229,N,02528.3601,E,0.17,185.36,051209,,,A*66
{"class":"TPV","tag":"RMC","mode":3,"time":"2009-12-05T08:03:21.000Z","ept":0.005,"lat":65.050381667,"lon":25.472668333,"alt":10.200,"epx":13.383,"epy":14.464,"epv":43.700,"track":185.3600,"speed":0.087,"climb":-0.700,"eps":28.93}
$GPGGA,080322.000,6503.0225,N,02528.3596,E,1,07,1.2,9.1,M,21.6,M,,0000*5F
$GPGSA,A,3,29,12,30,23,04,31,16,,,,,,2.2,1.2,1.9*32
$GPRMC,080322.000,A,6503.0225,N,02528.3596,E,0.15,191.14,051209,,,A*63
{"class":"TPV","tag":"RMC","mode":3,"time":"2009-12-05T08:03:22.000Z","ept":0.005,"lat":65.050375000,"lon":25.472660000,"alt":9.100,"epx":13.383,"epy":14.464,"epv":43.700,"track":191.1400,"speed":0.077,"climb":-1.100,"eps":28.93}
$GPGGA,080323.000,6503.0221,N,02528.3588,E,1,07,1.2,8.0,M,21.6,M,,0000*55
$GPGSA,A,3,29,12,30,23,04,31,16,,,,,,2.2,1.2,1.9*32
$GPRMC,080323.000,A,6503.0221,N,02528.3588,E,0.23,195.46,051209,,,A*6F
{"class":"TPV","tag":"RMC","mode":3,"time":"2009-12-05T08:03:23.000Z","ept":0.005,"lat":65.050368333,"lon":25.472646667,"alt":8.000,"epx":13.383,"epy":14.464,"epv":43.700,"track":195.4600,"speed":0.118,"climb":-1.100,"eps":28.93}
$GPGGA,080324.000,6503.0219,N,02528.3584,E,1,07,1.2,8.1,M,21.6,M,,0000*54
$GPGSA,A,3,29,12,30,23,04,31,16,,,,,,2.2,1.2,1.9*32
$GPRMC,080324.000,A,6503.0219,N,02528.3584,E,0.07,83.00,051209,,,A*5D
{"class":"TPV","tag":"RMC","mode":3,"time":"2009-12-05T08:03:24.000Z","ept":0.005,"lat":65.050365000,"lon":25.472640000,"alt":8.100,"epx":13.383,"epy":14.464,"epv":43.700,"track":83.0000,"speed":0.036,"climb":0.100,"eps":28.93}
$GPGGA,080325.000,6503.0216,N,02528.3580,E,1,08,1.0,8.0,M,21.6,M,,0000*52
$GPGSA,A,3,29,12,30,23,04,31,02,16,,,,,2.0,1.0,1.7*3E
$GPGSV,3,1,11,29,66,214,24,30,52,154,25,31,45,272,32,02,41,068,17*78
$GPGSV,3,2,11,12,23,132,26,23,18,348,18,10,16,098,,04,12,040,25*73
$GPGSV,3,3,11,05,12,110,23,16,07,296,32,13,07,020,25*42
{"class":"SKY","tag":"GSV","xdop":0.89,"ydop":0.96,"vdop":1.70,"tdop":1.44,"hdop":1.00,"gdop":2.99,"pdop":2.00,"satellites":[{"PRN":29,"el":66,"az":214,"ss":24,"used":true},{"PRN":30,"el":52,"az":154,"ss":25,"used":true},{"PRN":31,"el":45,"az":272,"ss":32,"used":true},{"PRN":2,"el":41,"az":68,"ss":17,"used":true},{"PRN":12,"el":23,"az":132,"ss":26,"used":true},{"PRN":23,"el":18,"az":348,"ss":18,"used":true},{"PRN":10,"el":16,"az":98,"ss":0,"used":false},{"PRN":4,"el":12,"az":40,"ss":25,"used":true},{"PRN":5,"el":12,"az":110,"ss":23,"used":false},{"PRN":16,"el":7,"az":296,"ss":32,"used":true},{"PRN":13,"el":7,"az":20,"ss":25,"used":false}]}
$GPRMC,080325.000,A,6503.0216,N,02528.3580,E,0.12,86.47,051209,,,A*55
{"class":"TPV","tag":"RMC","mode":3,"time":"2009-12-05T08:03:25.000Z","ept":0.005,"lat":65.050360000,"lon":25.472633333,"alt":8.000,"epx":13.383,"epy":14.464,"epv":43.700,"track":86.4700,"speed":0.062,"climb":-0.100,"eps":28.93}
$GPGGA,080326.000,6503.0215,N,02528.3576,E,1,06,1.4,8.6,M,21.6,M,,0000*57
$GPGSA,A,3,29,12,30,04,31,16,,,,,,,2.4,1.4,1.9*33
$GPRMC,080326.000,A,6503.0215,N,02528.3576,E,0.06,1.14,051209,,,A*60
{"class":"TPV","tag":"RMC","mode":3,"time":"2009-12-05T08:03:26.000Z","ept":0.005,"lat":65.050358333,"lon":25.472626667,"alt":8.600,"epx":13.383,"epy":14.464,"epv":39.100,"track":1.1400,"speed":0.031,"climb":0.600,"eps":28.93}
$GPGGA,080327.000,6503.0214,N,02528.3571,E,1,08,1.0,8.9,M,21.6,M,,0000*55
$GPGSA,A,3,29,12,30,23,04,31,02,16,,,,,2.0,1.0,1.7*3E
$GPRMC,080327.000,A,6503.0214,N,02528.3571,E,0.32,1.13,051209,,,A*67
{"class":"TPV","tag":"RMC","mode":3,"time":"2009-12-05T08:03:27.000Z","ept":0.005,"lat":65.050356667,"lon":25.472618333,"alt":8.900,"epx":13.383,"epy":14.464,"epv":43.700,"track":1.1300,"speed":0.165,"climb":0.300,"eps":28.93}
$GPGGA,080328.000,6503.0211,N,02528.3568,E,1,08,1.0,7.5,M,21.6,M,,0000*54
$GPGSA,A,3,29,12,30,23,04,31,02,16,,,,,2.0,1.0,1.7*3E
$GPRMC,080328.000,A,6503.0211,N,02528.3568,E,0.19,97.48,051209,,,A*5D
{"class":"TPV","tag":"RMC","mode":3,"time":"2009-12-05T08:03:28.000Z","ept":0.005,"lat":65.050351667,"lon":25.472613333,"alt":7.500,"epx":13.383,"epy":14.464,"epv":39.100,"track":97.4800,"speed":0.098,"climb":-1.400,"eps":28.93}
$GPGGA,080329.000,6503.0208,N,02528.3565,E,1,08,1.0,6.8,M,21.6,M,,0000*5C
$GPGSA,A,3,29,12,30,23,04,31,02,16,,,,,2.0,1.0,1.7*3E
$GPRMC,080329.000,A,6503.0208,N,02528.3565,E,0.25,72.57,051209,,,A*53
{"class":"TPV","tag":"RMC","mode":3,"time":"2009-12-05T08:03:29.000Z","ept":0.005,"lat":65.050346667,"lon":25.472608333,"alt":6.800,"epx":13.383,"epy":14.464,"epv":39.100,"track":72.5700,"speed":0.129,"climb":-0.700,"eps":28.93}
$GPGGA,080330.000,6503.0205,N,02528.3561,E,1,08,1.0,5.7,M,21.6,M,,0000*51
$GPGSA,A,3,29,12,30,23,04,31,02,16,,,,,2.0,1.0,1.7*3E
$GPGSV,3,1,11,29,66,214,23,30,52,154,26,31,45,272,32,02,41,068,17*7C
$GPGSV,3,2,11,12,23,132,25,23,18,348,20,10,16,098,,04,12,040,25*7B
$GPGSV,3,3,11,05,12,110,24,16,07,296,32,13,07,020,23*43
{"class":"SKY","tag":"GSV","xdop":0.89,"ydop":0.96,"vdop":1.70,"tdop":1.44,"hdop":1.00,"gdop":2.99,"pdop":2.00,"satellites":[{"PRN":29,"el":66,"az":214,"ss":23,"used":true},{"PRN":30,"el":52,"az":154,"ss":26,"used":true},{"PRN":31,"el":45,"az":272,"ss":32,"used":true},{"PRN":2,"el":41,"az":68,"ss":17,"used":true},{"PRN":12,"el":23,"az":132,"ss":25,"used":true},{"PRN":23,"el":18,"az":348,"ss":20,"used":true},{"PRN":10,"el":16,"az":98,"ss":0,"used":false},{"PRN":4,"el":12,"az":40,"ss":25,"used":true},{"PRN":5,"el":12,"az":110,"ss":24,"used":false},{"PRN":16,"el":7,"az":296,"ss":32,"used":true},{"PRN":13,"el":7,"az":20,"ss":23,"used":false}]}
$GPRMC,080330.000,A,6503.0205,N,02528.3561,E,0.14,181.62,051209,,,A*6B
{"class":"TPV","tag":"RMC","mode":3,"time":"2009-12-05T08:03:30.000Z","ept":0.005,"lat":65.050341667,"lon":25.472601667,"alt":5.700,"epx":13.383,"epy":14.464,"epv":39.100,"track":181.6200,"speed":0.072,"climb":-1.100,"eps":28.93}
$GPGGA,080331.000,6503.0202,N,02528.3556,E,1,08,1.0,5.3,M,21.6,M,,0000*57
$GPGSA,A,3,29,12,30,23,04,31,02,16,,,,,2.0,1.0,1.7*3E
$GPRMC,080331.000,A,6503.0202,N,02528.3556,E,0.20,209.92,051209,,,A*62
{"class":"TPV","tag":"RMC","mode":3,"time":"2009-12-05T08:03:31.000Z","ept":0.005,"lat":65.050336667,"lon":25.472593333,"alt":5.300,"epx":13.383,"epy":14.464,"epv":39.100,"track":209.9200,"speed":0.103,"climb":-0.400,"eps":28.93}
$GPGGA,080332.000,6503.0200,N,02528.3552,E,1,08,1.0,4.6,M,21.6,M,,0000*56
$GPGSA,A,3,29,12,30,23,04,31,02,16,,,,,2.0,1.0,1.7*3E
$GPRMC,080332.000,A,6503.0200,N,02528.3552,E,0.36,228.63,051209,,,A*6D
{"class":"TPV","tag":"RMC","mode":3,"time":"2009-12-05T08:03:32.000Z","ept":0.005,"lat":65.050333333,"lon":25.472586667,"alt":4.600,"epx":13.383,"epy":14.464,"epv":39.100,"track":228.6300,"speed":0.185,"climb":-0.700,"eps":28.93}
$GPGGA,080333.000,6503.0196,N,02528.3548,E,1,07,1.2,3.5,M,21.6,M,,0000*59
$GPGSA,A,3,29,12,30,23,04,31,16,,,,,,2.2,1.2,1.9*32
$GPRMC,080333.000,A,6503.0196,N,02528.3548,E,0.21,93.12,051209,,,A*59
{"class":"TPV","tag":"RMC","mode":3,"time":"2009-12-05T08:03:33.000Z","ept":0.005,"lat":65.050326667,"lon":25.472580000,"alt":3.500,"epx":13.383,"epy":14.464,"epv":39.100,"track":93.1200,"speed":0.108,"climb":-1.100,"eps":28.93}
$GPGGA,080334.000,6503.0194,N,02528.3545,E,1,07,1.2,3.0,M,21.6,M,,0000*54
$GPGSA,A,3,29,12,30,23,04,31,16,,,,,,2.2,1.2,1.9*32
$GPRMC,080334.000,A,6503.0194,N,02528.3545,E,0.27,131.95,051209,,,A*61
{"class":"TPV","tag":"RMC","mode":3,"time":"2009-12-05T08:03:34.000Z","ept":0.005,"lat":65.050323333,"lon":25.472575000,"alt":3.000,"epx":13.383,"epy":14.464,"epv":43.700,"track":131.9500,"speed":0.139,"climb":-0.500,"eps":28.93}
$GPGGA,080335.000,6503.0195,N,02528.3544,E,1,07,1.2,3.3,M,21.6,M,,0000*56
$GPGSA,A,3,29,12,30,23,04,31,16,,,,,,2.2,1.2,1.9*32
$GPGSV,3,1,11,29,66,214,22,30,52,154,27,31,45,272,32,02,41,068,*7A
$GPGSV,3,2,11,12,23,132,18,23,18,348,21,10,16,098,,04,12,040,25*74
$GPGSV,3,3,11,05,12,110,24,16,07,296,32,13,07,020,22*42
{"class":"SKY","tag":"GSV","xdop":0.89,"ydop":0.96,"vdop":1.90,"tdop":1.44,"hdop":1.20,"gdop":2.99,"pdop":2.20,"satellites":[{"PRN":29,"el":66,"az":214,"ss":22,"used":true},{"PRN":30,"el":52,"az":154,"ss":27,"used":true},{"PRN":31,"el":45,"az":272,"ss":32,"used":true},{"PRN":2,"el":41,"az":68,"ss":0,"used":false},{"PRN":12,"el":23,"az":132,"ss":18,"used":true},{"PRN":23,"el":18,"az":348,"ss":21,"used":true},{"PRN":10,"el":16,"az":98,"ss":0,"used":false},{"PRN":4,"el":12,"az":40,"ss":25,"used":true},{"PRN":5,"el":12,"az":110,"ss":24,"used":false},{"PRN":16,"el":7,"az":296,"ss":32,"used":true},{"PRN":13,"el":7,"az":20,"ss":22,"used":false}]}
$GPRMC,080335.000,A,6503.0195,N,02528.3544,E,0.28,93.31,051209,,,A*58
{"class":"TPV","tag":"RMC","mode":3,"time":"2009-12-05T08:03:35.000Z","ept":0.005,"lat":65.050325000,"lon":25.472573333,"alt":3.300,"epx":13.383,"epy":14.464,"epv":43.700,"track":93.3100,"speed":0.144,"climb":0.300,"eps":28.93}
$GPGGA,080336.000,6503.0192,N,02528.3542,E,1,07,1.2,2.1,M,21.6,M,,0000*57
$GPGSA,A,3,29,12,30,23,04,31,16,,,,,,2.2,1.2,1.9*32
$GPRMC,080336.000,A,6503.0192,N,02528.3542,E,0.31,109.65,051209,,,A*61
{"class":"TPV","tag":"RMC","mode":3,"time":"2009-12-05T08:03:36.000Z","ept":0.005,"lat":65.050320000,"lon":25.472570000,"alt":2.100,"epx":13.383,"epy":14.464,"epv":43.700,"track":109.6500,"speed":0.159,"climb":-1.200,"eps":28.93}
$GPGGA,080337.000,6503.0193,N,02528.3539,E,1,06,1.7,2.0,M,21.6,M,,0000*5E
$GPGSA,A,3,29,30,23,04,31,16,,,,,,,3.3,1.7,2.8*36
$GPRMC,080337.000,A,6503.0193,N,02528.3539,E,0.26,357.90,051209,,,A*68
{"class":"TPV","tag":"RMC","mode":3,"time":"2009-12-05T08:03:37.000Z","ept":0.005,"lat":65.050321667,"lon":25.472565000,"alt":2.000,"epx":13.383,"epy":14.464,"epv":43.700,"track":357.9000,"speed":0.134,"climb":-0.100,"eps":28.93}
$GPGGA,080338.000,6503.0192,N,02528.3535,E,1,07,1.2,1.3,M,21.6,M,,0000*58
$GPGSA,A,3,29,12,30,23,04,31,16,,,,,,2.2,1.2,1.9*32
$GPRMC,080338.000,A,6503.0192,N,02528.3535,E,0.23,329.09,051209,,,A*66
{"class":"TPV","tag":"RMC","mode":3,"time":"2009-12-05T08:03:38.000Z","ept":0.005,"lat":65.050320000,"lon":25.472558333,"alt":1.300,"epx":13.383,"epy":14.464,"epv":64.400,"track":329.0900,"speed":0.118,"climb":-0.700,"eps":28.93}
$GPGGA,080339.000,6503.0194,N,02528.3531,E,1,06,1.7,1.4,M,21.6,M,,0000*58
$GPGSA,A,3,29,30,23,04,31,16,,,,,,,3.3,1.7,2.8*36
$GPRMC,080339.000,A,6503.0194,N,02528.3531,E,0.29,324.54,051209,,,A*6A
{"class":"TPV","tag":"RMC","mode":3,"time":"2009-12-05T08:03:39.000Z","ept":0.005,"lat":65.050323333,"lon":25.472551667,"alt":1.400,"epx":13.383,"epy":14.464,"epv":43.700,"track":324.5400,"speed":0.149,"climb":0.100,"eps":28.93}
$GPGGA,080340.000,6503.0196,N,02528.3527,E,1,06,1.7,1.7,M,21.6,M,,0000*50
$GPGSA,A,3,29,30,23,04,31,16,,,,,,,3.3,1.7,2.8*36
$GPGSV,3,1,11,29,66,214,21,30,52,154,28,31,45,272,31,02,41,068,*75
$GPGSV,3,2,11,12,23,132,17,23,18,348,21,10,16,098,,04,12,040,25*7B
$GPGSV,3,3,11,05,12,110,23,16,07,296,31,13,07,020,22*46
{"class":"SKY","tag":"GSV","xdop":0.89,"ydop":0.96,"vdop":2.80,"tdop":1.44,"hdop":1.70,"gdop":2.99,"pdop":3.30,"satellites":[{"PRN":29,"el":66,"az":214,"ss":21,"used":true},{"PRN":30,"el":52,"az":154,"ss":28,"used":true},{"PRN":31,"el":45,"az":272,"ss":31,"used":true},{"PRN":2,"el":41,"az":68,"ss":0,"used":false},{"PRN":12,"el":23,"az":132,"ss":17,"used":false},{"PRN":23,"el":18,"az":348,"ss":21,"used":true},{"PRN":10,"el":16,"az":98,"ss":0,"used":false},{"PRN":4,"el":12,"az":40,"ss":25,"used":true},{"PRN":5,"el":12,"az":110,"ss":23,"used":false},{"PRN":16,"el":7,"az":296,"ss":31,"used":true},{"PRN":13,"el":7,"az":20,"ss":22,"used":false}]}
$GPRMC,080340.000,A,6503.0196,N,02528.3527,E,0.17,253.19,051209,,,A*64
{"class":"TPV","tag":"RMC","mode":3,"time":"2009-12-05T08:03:40.000Z","ept":0.005,"lat":65.050326667,"lon":25.472545000,"alt":1.700,"epx":13.383,"epy":14.464,"epv":64.400,"track":253.1900,"speed":0.087,"climb":0.300,"eps":28.93}
$GPGGA,080341.000,6503.0192,N,02528.3525,E,1,07,1.2,0.1,M,21.6,M,,0000*54
$GPGSA,A,3,29,12,30,23,04,31,16,,,,,,2.2,1.2,1.9*32
$GPRMC,080341.000,A,6503.0192,N,02528.3525,E,0.16,233.14,051209,,,A*69
{"class":"TPV","tag":"RMC","mode":3,"time":"2009-12-05T08:03:41.000Z","ept":0.005,"lat":65.050320000,"lon":25.472541667,"alt":0.100,"epx":13.383,"epy":14.464,"epv":64.400,"track":233.1400,"speed":0.082,"climb":-1.600,"eps":28.93}
$GPGGA,080342.000,6503.0194,N,02528.3526,E,1,08,1.0,-0.9,M,21.6,M,,0000*7A
$GPGSA,A,3,29,12,30,23,04,31,02,16,,,,,2.0,1.0,1.7*3E
$GPRMC,080342.000,A,6503.0194,N,02528.3526,E,0.10,352.68,051209,,,A*64
{"class":"TPV","tag":"RMC","mode":3,"time":"2009-12-05T08:03:42.000Z","ept":0.005,"lat":65.050323333,"lon":25.472543333,"alt":-0.900,"epx":13.383,"epy":14.464,"epv":43.700,"track":352.6800,"speed":0.051,"climb":-1.000,"eps":28.93}
$GPGGA,080343.000,6503.0192,N,02528.3526,E,1,08,1.0,-2.0,M,21.6,M,,0000*76
$GPGSA,A,3,29,12,30,23,04,31,02,16,,,,,2.0,1.0,1.7*3E
$GPRMC,080343.000,A,6503.0192,N,02528.3526,E,0.17,125.18,051209,,,A*61
{"class":"TPV","tag":"RMC","mode":3,"time":"2009-12-05T08:03:43.000Z","ept":0.005,"lat":65.050320000,"lon":25.472543333,"alt":-2.000,"epx":13.383,"epy":14.464,"epv":39.100,"track":125.1800,"speed":0.087,"climb":-1.100,"eps":28.93}
$GPGGA,080344.000,6503.0194,N,02528.3524,E,1,08,1.0,-1.7,M,21.6,M,,0000*71
$GPGSA,A,3,29,12,30,23,04,31,02,16,,,,,2.0,1.0,1.7*3E
$GPRMC,080344.000,A,6503.0194,N,02528.3524,E,0.26,17.55,051209,,,A*59
{"class":"TPV","tag":"RMC","mode":3,"time":"2009-12-05T08:03:44.000Z","ept":0.005,"lat":65.050323333,"lon":25.472540000,"alt":-1.700,"epx":13.383,"epy":14.464,"epv":39.100,"track":17.5500,"speed":0.134,"climb":0.300,"eps":28.93}
$GPGGA,080345.000,6503.0200,N,02528.3521,E,1,08,1.0,0.2,M,21.6,M,,0000*52
$GPGSA,A,3,29,12,30,23,04,31,02,16,,,,,2.0,1.0,1.7*3E
$GPGSV,3,1,11,29,66,214,21,30,52,154,29,31,45,272,31,02,41,068,17*72
$GPGSV,3,2,11,12,23,132,19,23,18,348,12,10,16,098,,04,12,040,25*75
$GPGSV,3,3,11,05,12,110,22,16,07,296,31,13,07,020,21*44
{"class":"SKY","tag":"GSV","xdop":0.89,"ydop":0.96,"vdop":1.70,"tdop":1.44,"hdop":1.00,"gdop":2.99,"pdop":2.00,"satellites":[{"PRN":29,"el":66,"az":214,"ss":21,"used":true},{"PRN":30,"el":52,"az":154,"ss":29,"used":true},{"PRN":31,"el":45,"az":272,"ss":31,"used":true},{"PRN":2,"el":41,"az":68,"ss":17,"used":true},{"PRN":12,"el":23,"az":132,"ss":19,"used":true},{"PRN":23,"el":18,"az":348,"ss":12,"used":true},{"PRN":10,"el":16,"az":98,"ss":0,"used":false},{"PRN":4,"el":12,"az":40,"ss":25,"used":true},{"PRN":5,"el":12,"az":110,"ss":22,"used":false},{"PRN":16,"el":7,"az":296,"ss":31,"used":true},{"PRN":13,"el":7,"az":20,"ss":21,"used":false}]}
$GPRMC,080345.000,A,6503.0200,N,02528.3521,E,0.02,174.00,051209,,,A*61
{"class":"TPV","tag":"RMC","mode":3,"time":"2009-12-05T08:03:45.000Z","ept":0.005,"lat":65.050333333,"lon":25.472535000,"alt":0.200,"epx":13.383,"epy":14.464,"epv":39.100,"track":174.0000,"speed":0.010,"climb":1.900,"eps":28.93}
$GPGGA,080346.000,6503.0204,N,02528.3519,E,1,08,1.0,1.5,M,21.6,M,,0000*58
$GPGSA,A,3,29,12,30,23,04,31,02,16,,,,,2.0,1.0,1.7*3E
$GPRMC,080346.000,A,6503.0204,N,02528.3519,E,0.74,16.87,051209,,,A*56
{"class":"TPV","tag":"RMC","mode":3,"time":"2009-12-05T08:03:46.000Z","ept":0.005,"lat":65.050340000,"lon":25.472531667,"alt":1.500,"epx":13.383,"epy":14.464,"epv":39.100,"track":16.8700,"speed":0.381,"climb":1.300,"eps":28.93}
$GPGGA,080347.000,6503.0207,N,02528.3518,E,1,08,1.0,2.5,M,21.6,M,,0000*58
$GPGSA,A,3,29,12,30,23,04,31,02,16,,,,,2.0,1.0,1.7*3E
$GPRMC,080347.000,A,6503.0207,N,02528.3518,E,0.43,19.41,051209,,,A*54
{"class":"TPV","tag":"RMC","mode":3,"time":"2009-12-05T08:03:47.000Z","ept":0.005,"lat":65.050345000,"lon":25.472530000,"alt":2.500,"epx":13.383,"epy":14.464,"epv":39.100,"track":19.4100,"speed":0.221,"climb":1.000,"eps":28.93}
$GPGGA,080348.000,6503.0210,N,02528.3517,E,1,06,1.4,3.2,M,21.6,M,,0000*52
$GPGSA,A,3,29,12,30,04,31,16,,,,,,,2.4,1.4,1.9*33
$GPRMC,080348.000,A,6503.0210,N,02528.3517,E,0.37,36.42,051209,,,A*5F
{"class":"TPV","tag":"RMC","mode":3,"time":"2009-12-05T08:03:48.000Z","ept":0.005,"lat":65.050350000,"lon":25.472528333,"alt":3.200,"epx":13.383,"epy":14.464,"epv":39.100,"track":36.4200,"speed":0.190,"climb":0.700,"eps":28.93}
$GPGGA,080349.000,6503.0212,N,02528.3517,E,1,06,1.4,3.6,M,21.6,M,,0000*55
$GPGSA,A,3,29,12,30,04,31,16,,,,,,,2.4,1.4,1.9*33
$GPRMC,080349.000,A,6503.0212,N,02528.3517,E,0.50,28.72,051209,,,A*51
{"class":"TPV","tag":"RMC","mode":3,"time":"2009-12-05T08:03:49.000Z","ept":0.005,"lat":65.050353333,"lon":25.472528333,"alt":3.600,"epx":13.383,"epy":14.464,"epv":43.700,"track":28.7200,"speed":0.257,"climb":0.400,"eps":28.93}
$GPGGA,080350.000,6503.0211,N,02528.3517,E,1,06,1.4,3.4,M,21.6,M,,0000*5C
$GPGSA,A,3,29,12,30,04,31,16,,,,,,,2.4,1.4,1.9*33
$GPGSV,3,1,12,29,66,213,20,30,52,154,29,31,45,271,30,02,41,068,16*74
$GPGSV,3,2,12,12,23,132,21,23,18,348,,10,16,097,,04,12,040,25*71
$GPGSV,3,3,12,05,12,110,22,16,07,296,31,13,07,020,20,21,00,196,*7B
{"class":"SKY","tag":"GSV","xdop":0.89,"ydop":0.96,"vdop":1.90,"tdop":1.44,"hdop":1.40,"gdop":2.99,"pdop":2.40,"satellites":[{"PRN":29,"el":66,"az":213,"ss":20,"used":true},{"PRN":30,"el":52,"az":154,"ss":29,"used":true},{"PRN":31,"el":45,"az":271,"ss":30,"used":true},{"PRN":2,"el":41,"az":68,"ss":16,"used":false},{"PRN":12,"el":23,"az":132,"ss":21,"used":true},{"PRN":23,"el":18,"az":348,"ss":0,"used":false},{"PRN":10,"el":16,"az":97,"ss":0,"used":false},{"PRN":4,"el":12,"az":40,"ss":25,"used":true},{"PRN":5,"el":12,"az":110,"ss":22,"used":false},{"PRN":16,"el":7,"az":296,"ss":31,"used":true},{"PRN":13,"el":7,"az":20,"ss":20,"used":false},{"PRN":21,"el":0,"az":196,"ss":0,"used":false}]}
$GPRMC,080350.000,A,6503.0211,N,02528.3517,E,0.15,309.98,051209,,,A*6F
{"class":"TPV","tag":"RMC","mode":3,"time":"2009-12-05T08:03:50.000Z","ept":0.005,"lat":65.050351667,"lon":25.472528333,"alt":3.400,"epx":13.383,"epy":14.464,"epv":43.700,"track":309.9800,"speed":0.077,"climb":-0.200,"eps":28.93}
$GPGGA,080351.000,6503.0211,N,02528.3515,E,1,07,1.2,3.8,M,21.6,M,,0000*54
$GPGSA,A,3,29,12,30,04,31,02,16,,,,,,2.1,1.2,1.7*3C
$GPRMC,080351.000,A,6503.0211,N,02528.3515,E,0.03,195.01,051209,,,A*6C
{"class":"TPV","tag":"RMC","mode":3,"time":"2009-12-05T08:03:51.000Z","ept":0.005,"lat":65.050351667,"lon":25.472525000,"alt":3.800,"epx":13.383,"epy":14.464,"epv":43.700,"track":195.0100,"speed":0.015,"climb":0.400,"eps":28.93}
$GPGGA,080352.000,6503.0210,N,02528.3519,E,1,07,1.2,3.1,M,21.6,M,,0000*53
$GPGSA,A,3,29,12,30,04,31,02,16,,,,,,2.1,1.2,1.7*3C
$GPRMC,080352.000,A,6503.0210,N,02528.3519,E,0.17,300.87,051209,,,A*67
{"class":"TPV","tag":"RMC","mode":3,"time":"2009-12-05T08:03:52.000Z","ept":0.005,"lat":65.050350000,"lon":25.472531667,"alt":3.100,"epx":13.383,"epy":14.464,"epv":39.100,"track":300.8700,"speed":0.087,"climb":-0.700,"eps":28.93}
$GPGGA,080353.000,6503.0211,N,02528.3521,E,1,07,1.2,3.8,M,21.6,M,,0000*51
$GPGSA,A,3,29,12,30,04,31,02,16,,,,,,2.1,1.2,1.7*3C
$GPRMC,080353.000,A,6503.0211,N,02528.3521,E,0.05,235.43,051209,,,A*60
{"class":"TPV","tag":"RMC","mode":3,"time":"2009-12-05T08:03:53.000Z","ept":0.005,"lat":65.050351667,"lon":25.472535000,"alt":3.800,"epx":13.383,"epy":14.464,"epv":39.100,"track":235.4300,"speed":0.026,"climb":0.700,"eps":28.93}
$GPGGA,080354.000,6503.0205,N,02528.3519,E,1,08,1.0,2.1,M,21.6,M,,0000*5D
$GPGSA,A,3,29,12,30,23,04,31,02,16,,,,,2.0,1.0,1.7*3E
$GPRMC,080354.000,A,6503.0205,N,02528.3519,E,0.18,82.11,051209,,,A*5C
{"class":"TPV","tag":"RMC","mode":3,"time":"2009-12-05T08:03:54.000Z","ept":0.005,"lat":65.050341667,"lon":25.472531667,"alt":2.100,"epx":13.383,"epy":14.464,"epv":39.100,"track":82.1100,"speed":0.093,"climb":-1.700,"eps":28.93}
$GPGGA,080355.000,6503.0204,N,02528.3517,E,1,08,1.0,2.5,M,21.6,M,,0000*57
$GPGSA,A,3,29,12,30,23,04,31,02,16,,,,,2.0,1.0,1.7*3E
$GPGSV,3,1,12,29,66,213,20,30,52,154,29,31,45,271,30,02,41,068,15*77
$GPGSV,3,2,12,12,23,132,22,23,18,348,18,10,16,097,,04,12,040,25*7B
$GPGSV,3,3,12,05,12,110,12,16,07,296,30,13,07,020,19,21,00,196,*73
{"class":"SKY","tag":"GSV","xdop":0.89,"ydop":0.96,"vdop":1.70,"tdop":1.44,"hdop":1.00,"gdop":2.99,"pdop":2.00,"satellites":[{"PRN":29,"el":66,"az":213,"ss":20,"used":true},{"PRN":30,"el":52,"az":154,"ss":29,"used":true},{"PRN":31,"el":45,"az":271,"ss":30,"used":true},{"PRN":2,"el":41,"az":68,"ss":15,"used":true},{"PRN":12,"el":23,"az":132,"ss":22,"used":true},{"PRN":23,"el":18,"az":348,"ss":18,"used":true},{"PRN":10,"el":16,"az":97,"ss":0,"used":false},{"PRN":4,"el":12,"az":40,"ss":25,"used":true},{"PRN":5,"el":12,"az":110,"ss":12,"used":false},{"PRN":16,"el":7,"az":296,"ss":30,"used":true},{"PRN":13,"el":7,"az":20,"ss":19,"used":false},{"PRN":21,"el":0,"az":196,"ss":0,"used":false}]}
$GPRMC,080355.000,A,6503.0204,N,02528.3517,E,0.14,17.41,051209,,,A*57
{"class":"TPV","tag":"RMC","mode":3,"time":"2009-12-05T08:03:55.000Z","ept":0.005,"lat":65.050340000,"lon":25.472528333,"alt":2.500,"epx":13.383,"epy":14.464,"epv":39.100,"track":17.4100,"speed":0.072,"climb":0.400,"eps":28.93}
$GPGGA,080356.000,6503.0205,N,02528.3514,E,1,08,1.0,3.5,M,21.6,M,,0000*57
$GPGSA,A,3,29,12,30,23,04,31,02,16,,,,,2.0,1.0,1.7*3E
$GPRMC,080356.000,A,6503.0205,N,02528.3514,E,0.26,318.83,051209,,,A*65
{"class":"TPV","tag":"RMC","mode":3,"time":"2009-12-05T08:03:56.000Z","ept":0.005,"lat":65.050341667,"lon":25.472523333,"alt":3.500,"epx":13.383,"epy":14.464,"epv":39.100,"track":318.8300,"speed":0.134,"climb":1.000,"eps":28.93}
$GPGGA,080357.000,6503.0206,N,02528.3510,E,1,08,1.0,4.3,M,21.6,M,,0000*50
$GPGSA,A,3,29,12,30,23,04,31,02,16,,,,,2.0,1.0,1.7*3E
$GPRMC,080357.000,A,6503.0206,N,02528.3510,E,0.22,274.62,051209,,,A*63
{"class":"TPV","tag":"RMC","mode":3,"time":"2009-12-05T08:03:57.000Z","ept":0.005,"lat":65.050343333,"lon":25.472516667,"alt":4.300,"epx":13.383,"epy":14.464,"epv":39.100,"track":274.6200,"speed":0.113,"climb":0.800,"eps":28.93}
$GPGGA,080358.000,6503.0202,N,02528.3508,E,1,08,1.0,2.6,M,21.6,M,,0000*51
$GPGSA,A,3,29,12,30,23,04,31,02,16,,,,,2.0,1.0,1.7*3E
$GPRMC,080358.000,A,6503.0202,N,02528.3508,E,0.29,327.42,051209,,,A*6F
{"class":"TPV","tag":"RMC","mode":3,"time":"2009-12-05T08:03:58.000Z","ept":0.005,"lat":65.050336667,"lon":25.472513333,"alt":2.600,"epx":13.383,"epy":14.464,"epv":39.100,"track":327.4200,"speed":0.149,"climb":-1.700,"eps":28.93}
$GPGGA,080359.000,6503.0200,N,02528.3505,E,1,08,1.0,2.3,M,21.6,M,,0000*5A
$GPGSA,A,3,29,12,30,23,04,31,02,16,,,,,2.0,1.0,1.7*3E
$GPRMC,080359.000,A,6503.0200,N,02528.3505,E,0.15,188.94,051209,,,A*62
{"class":"TPV","tag":"RMC","mode":3,"time":"2009-12-05T08:03:59.000Z","ept":0.005,"lat":65.050333333,"lon":25.472508333,"alt":2.300,"epx":13.383,"epy":14.464,"epv":39.100,"track":188.9400,"speed":0.077,"climb":-0.300,"eps":28.93}
$GPGGA,080400.000,6503.0198,N,02528.3504,E,1,08,1.0,1.5,M,21.6,M,,0000*57
$GPGSA,A,3,29,12,30,23,04,31,02,16,,,,,2.0,1.0,1.7*3E
$GPGSV,3,1,12,29,66,213,20,30,52,154,29,31,45,271,30,02,41,068,15*77
$GPGSV,3,2,12,12,23,132,23,23,18,348,18,10,16,097,,04,12,040,25*7A
$GPGSV,3,3,12,05,12,110,15,16,07,296,30,13,07,020,18,21,00,196,*75
{"class":"SKY","tag":"GSV","xdop":0.89,"ydop":0.96,"vdop":1.70,"tdop":1.44,"hdop":1.00,"gdop":2.99,"pdop":2.00,"satellites":[{"PRN":29,"el":66,"az":213,"ss":20,"used":true},{"PRN":30,"el":52,"az":154,"ss":29,"used":true},{"PRN":31,"el":45,"az":271,"ss":30,"used":true},{"PRN":2,"el":41,"az":68,"ss":15,"used":true},{"PRN":12,"el":23,"az":132,"ss":23,"used":true},{"PRN":23,"el":18,"az":348,"ss":18,"used":true},{"PRN":10,"el":16,"az":97,"ss":0,"used":false},{"PRN":4,"el":12,"az":40,"ss":25,"used":true},{"PRN":5,"el":12,"az":110,"ss":15,"used":false},{"PRN":16,"el":7,"az":296,"ss":30,"used":true},{"PRN":13,"el":7,"az":20,"ss":18,"used":false},{"PRN":21,"el":0,"az":196,"ss":0,"used":false}]}
$GPRMC,080400.000,A,6503.0198,N,02528.3504,E,0.40,159.57,051209,,,A*69
{"class":"TPV","tag":"RMC","mode":3,"time":"2009-12-05T08:04:00.000Z","ept":0.005,"lat":65.050330000,"lon":25.472506667,"alt":1.500,"epx":13.383,"epy":14.464,"epv":39.100,"track":159.5700,"speed":0.206,"climb":-0.800,"eps":28.93}
$GPGGA,080401.000,6503.0194,N,02528.3504,E,1,08,1.0,-0.2,M,21.6,M,,0000*71
$GPGSA,A,3,29,12,30,23,04,31,02,16,,,,,2.0,1.0,1.7*3E
$GPRMC,080401.000,A,6503.0194,N,02528.3504,E,0.41,126.31,051209,,,A*6D
{"class":"TPV","tag":"RMC","mode":3,"time":"2009-12-05T08:04:01.000Z","ept":0.005,"lat":65.050323333,"lon":25.472506667,"alt":-0.200,"epx":13.383,"epy":14.464,"epv":39.100,"track":126.3100,"speed":0.211,"climb":-1.700,"eps":28.93}
$GPGGA,080402.000,6503.0192,N,02528.3504,E,1,06,1.4,-1.4,M,21.6,M,,0000*79
$GPGSA,A,3,29,12,30,04,31,16,,,,,,,2.4,1.4,1.9*33
$GPRMC,080402.000,A,6503.0192,N,02528.3504,E,0.14,155.29,051209,,,A*65
{"class":"TPV","tag":"RMC","mode":3,"time":"2009-12-05T08:04:02.000Z","ept":0.005,"lat":65.050320000,"lon":25.472506667,"alt":-1.400,"epx":13.383,"epy":14.464,"epv":39.100,"track":155.2900,"speed":0.072,"climb":-1.200,"eps":28.93}
$GPGGA,080403.000,6503.0185,N,02528.3502,E,1,06,1.4,-3.6,M,21.6,M,,0000*78
$GPGSA,A,3,29,12,30,04,31,16,,,,,,,2.4,1.4,1.9*33
$GPRMC,080403.000,A,6503.0185,N,02528.3502,E,0.10,233.34,051209,,,A*6F
{"class":"TPV","tag":"RMC","mode":3,"time":"2009-12-05T08:04:03.000Z","ept":0.005,"lat":65.050308333,"lon":25.472503333,"alt":-3.600,"epx":13.383,"epy":14.464,"epv":43.700,"track":233.3400,"speed":0.051,"climb":-2.200,"eps":28.93}
