# Name: Saab AIS-GPS R4 Positioning System
# Description: product description (optional)
# Submitter: vwf@julkor.net
# Date: 2011-06-01

!AIVDM,1,1,,B,13aGhtw0R<OJf=6LgQ?Ad1FF05`L,0*24
$PFEC,AIcmd,0,35,A,01062011,130711*05
!AIVDO,1,1,,B,13`kvwO005wJnb0Lfo:@7P8F05`L,0*5B
$GPZDA,130711,01,06,2011,01,00*49
$GPGLL,5012.790800,N,00806.879600,W,130711,A,D*5B
$GPGGA,130711,5012.790800,N,00806.879600,W,2,,,,,,,*6A
$GPVTG,3.0,T,,,0.50,N,,,D*16
$GPRMC,130711.00,A,5012.790800,N,00806.879600,W,0.5,3.0,010611,,A*6A
$GPDTM,W84,C*52
$HEHDT,4.0,T*2B
$HEROT,0.0,A*2B
$PFEC,AIcmd,0,35,A,01062011,130712*06
!AIVDO,1,1,,B,13`kvwO005wJnb0Lfo:P7h8H05`L,0*7D
$GPZDA,130712,01,06,2011,01,00*4A
$GPGLL,5012.791400,N,00806.879600,W,130712,A,D*55
$GPGGA,130712,5012.791400,N,00806.879600,W,2,,,,,,,*64
$GPVTG,3.1,T,,,0.50,N,,,D*17
$GPRMC,130712.00,A,5012.791400,N,00806.879600,W,0.5,3.1,010611,,A*65
$GPDTM,W84,C*52
$HEHDT,4.0,T*2B
$HEROT,0.0,A*2B
$PFEC,AIcmd,0,35,A,01062011,130713*07
!AIVDO,1,1,,B,13`kvwO005wJnb0Lfo;07h8J05`L,0*1E
$GPZDA,130713,01,06,2011,01,00*4B
$GPGLL,5012.791400,N,00806.879600,W,130713,A,D*54
$GPGGA,130713,5012.791400,N,00806.879600,W,2,,,,,,,*65
$GPVTG,3.1,T,,,0.50,N,,,D*17
$GPRMC,130713.00,A,5012.791400,N,00806.879600,W,0.5,3.1,010611,,A*64
$GPDTM,W84,C*52
$HEHDT,4.0,T*2B
$HEROT,0.0,A*2B
$PFEC,AIcmd,0,35,A,01062011,130714*00
!AIVDO,1,1,,B,13`kvwO005wJnb0Lfo;@7@8L05`L,0*40
$GPZDA,130714,01,06,2011,01,00*4C
$GPGLL,5012.791400,N,00806.879600,W,130714,A,D*53
$GPGGA,130714,5012.791400,N,00806.879600,W,2,,,,,,,*62
$GPVTG,2.9,T,,,0.50,N,,,D*1E
$GPRMC,130714.00,A,5012.791400,N,00806.879600,W,0.5,2.9,010611,,A*6A
$GPDTM,W84,C*52
$HEHDT,4.0,T*2B
$HEROT,0.0,A*2B
$PFEC,AIcmd,0,35,A,01062011,130715*01
!AIVDO,1,1,,B,13`kvwO005wJnb0Lfo;h7@8N05`L,0*6A
$GPZDA,130715,01,06,2011,01,00*4D
$GPGLL,5012.791400,N,00806.879600,W,130715,A,D*52
$GPGGA,130715,5012.791400,N,00806.879600,W,2,,,,,,,*63
$GPVTG,2.9,T,,,0.50,N,,,D*1E
$GPRMC,130715.00,A,5012.791400,N,00806.879600,W,0.5,2.9,010611,,A*6B
$GPDTM,W84,C*52
$HEHDT,4.0,T*2B
$HEROT,0.0,A*2B
$PFEC,AIcmd,0,35,A,01062011,130716*02
!AIVDO,1,1,,B,13`kvwO005wJnb0Lfo<07P8P05`L,0*3B
$GPZDA,130716,01,06,2011,01,00*4E
$GPGLL,5012.792000,N,00806.879600,W,130716,A,D*56
$GPGGA,130716,5012.792000,N,00806.879600,W,2,,,,,,,*67
$GPVTG,3.0,T,,,0.50,N,,,D*16
$GPRMC,130716.00,A,5012.792000,N,00806.879600,W,0.5,3.0,010611,,A*67
$GPDTM,W84,C*52
$HEHDT,4.1,T*2A
$HEROT,0.0,A*2B
!AIVDM,1,1,,B,13aGhtw0B<OJfDpLgQqQd1FR05`L,0*41
$PFEC,AIcmd,0,35,A,01062011,130717*03
!AIVDO,1,1,,B,13`kvwO005wJnb2Lfo<P708R05`L,0*3B
$GPZDA,130717,01,06,2011,01,00*4F
$GPGLL,5012.792000,N,00806.879600,W,130717,A,D*57
$GPGGA,130717,5012.792000,N,00806.879600,W,2,,,,,,,*66
$GPVTG,2.8,T,,,0.50,N,,,D*1F
$GPRMC,130717.00,A,5012.792000,N,00806.879600,W,0.5,2.8,010611,,A*6F
$GPDTM,W84,C*52
$HEHDT,4.1,T*2A
$HEROT,0.0,A*2B
$PFEC,AIcmd,0,35,A,01062011,130718*0C
!AIVDO,1,1,,B,13`kvwO005wJnb2Lfo<h6@8T05`L,0*74
$GPZDA,130718,01,06,2011,01,00*40
$GPGLL,5012.792000,N,00806.879600,W,130718,A,D*58
$GPGGA,130718,5012.792000,N,00806.879600,W,2,,,,,,,*69
$GPVTG,2.5,T,,,0.50,N,,,D*12
$GPRMC,130718.00,A,5012.792000,N,00806.879600,W,0.5,2.5,010611,,A*6D
$GPDTM,W84,C*52
$HEHDT,4.1,T*2A
$HEROT,0.0,A*2B
$PFEC,AIcmd,0,35,A,01062011,130719*0D
!AIVDO,1,1,,B,13`kvwO005wJnb2Lfo=@6@8V05`L,0*5F
$GPZDA,130719,01,06,2011,01,00*41
$GPGLL,5012.792000,N,00806.879600,W,130719,A,D*59
$GPGGA,130719,5012.792000,N,00806.879600,W,2,,,,,,,*68
$GPVTG,2.5,T,,,0.50,N,,,D*12
$GPRMC,130719.00,A,5012.792000,N,00806.879600,W,0.5,2.5,010611,,A*6C
$GPDTM,W84,C*52
$HEHDT,4.1,T*2A
$HEROT,0.0,A*2B
$PFEC,AIcmd,0,35,A,01062011,130720*07
!AIVDO,1,1,,B,13`kvwO005wJnb2Lfo=P6@8`05`L,0*79
$GPZDA,130720,01,06,2011,01,00*4B
$GPGLL,5012.792600,N,00806.879600,W,130720,A,D*55
$GPGGA,130720,5012.792600,N,00806.879600,W,2,,,,,,,*64
$GPVTG,2.5,T,,,0.50,N,,,D*12
$GPRMC,130720.00,A,5012.792600,N,00806.879600,W,0.5,2.5,010611,,A*60
$GPDTM,W84,C*52
$HEHDT,4.1,T*2A
$HEROT,0.0,A*2B
$PFEC,AIcmd,0,35,A,01062011,130721*06
!AIVDO,1,1,,B,13`kvwO005wJnb2Lfo>05P8b05`L,0*0B
$GPZDA,130721,01,06,2011,01,00*4A
$GPGLL,5012.792600,N,00806.879600,W,130721,A,D*54
$GPGGA,130721,5012.792600,N,00806.879600,W,2,,,,,,,*65
$GPVTG,2.2,T,,,0.50,N,,,D*15
$GPRMC,130721.00,A,5012.792600,N,00806.879600,W,0.5,2.2,010611,,A*66
$GPDTM,W84,C*52
$HEHDT,4.1,T*2A
$HEROT,0.0,A*2B
$PFEC,AIcmd,0,35,A,01062011,130722*05
!AIVDO,1,1,,B,13`kvwO005wJnb2Lfo>@6@8d05`L,0*6E
$GPZDA,130722,01,06,2011,01,00*49
$GPGLL,5012.792600,N,00806.879600,W,130722,A,D*57
$GPGGA,130722,5012.792600,N,00806.879600,W,2,,,,,,,*66
$GPVTG,2.5,T,,,0.50,N,,,D*12
$GPRMC,130722.00,A,5012.792600,N,00806.879600,W,0.5,2.5,010611,,A*62
$GPDTM,W84,C*52
$HEHDT,4.1,T*2A
$HEROT,0.0,A*2B
!AIVDM,1,1,,B,13aGhtw02<OJfL`LgRSid1Ff05`L,0*04
$PFEC,AIcmd,0,35,A,01062011,130723*04
!AIVDO,1,1,,B,13`kvwO005wJnb2Lfo>h7P8f05`L,0*55
$GPZDA,130723,01,06,2011,01,00*48
$GPGLL,5012.792600,N,00806.879600,W,130723,A,D*56
$GPGGA,130723,5012.792600,N,00806.879600,W,2,,,,,,,*67
$GPVTG,3.0,T,,,0.50,N,,,D*16
$GPRMC,130723.00,A,5012.792600,N,00806.879600,W,0.5,3.0,010611,,A*67
$GPDTM,W84,C*52
$HEHDT,4.2,T*29
$HEROT,0.0,A*2B
$PFEC,AIcmd,0,35,A,01062011,130724*03
!AIVDO,1,1,,B,13`kvwO005wJnb2Lfo?06P8h05`L,0*03
$GPZDA,130724,01,06,2011,01,00*4F
$GPGLL,5012.793200,N,00806.879600,W,130724,A,D*54
$GPGGA,130724,5012.793200,N,00806.879600,W,2,,,,,,,*65
$GPVTG,2.6,T,,,0.50,N,,,D*11
$GPRMC,130724.00,A,5012.793200,N,00806.879600,W,0.5,2.6,010611,,A*62
$GPDTM,W84,C*52
$HEHDT,4.2,T*29
$HEROT,0.0,A*2B
$PFEC,AIcmd,0,35,A,01062011,130725*02
!AIVDO,1,1,,B,13`kvwO005wJnb2Lfo?P708j05`L,0*00
$GPZDA,130725,01,06,2011,01,00*4E
$GPGLL,5012.793200,N,00806.879600,W,130725,A,D*55
$GPGGA,130725,5012.793200,N,00806.879600,W,2,,,,,,,*64
$GPVTG,2.8,T,,,0.50,N,,,D*1F
$GPRMC,130725.00,A,5012.793200,N,00806.879600,W,0.5,2.8,010611,,A*6D
$GPDTM,W84,C*52
$HEHDT,4.2,T*29
$HEROT,0.0,A*2B
$PFEC,AIcmd,0,35,A,01062011,130726*01
!AIVDO,1,1,,B,13`kvwO005wJnb4Lfo?h6@8l05`L,0*49
$GPZDA,130726,01,06,2011,01,00*4D
$GPGLL,5012.793200,N,00806.879600,W,130726,A,D*56
$GPGGA,130726,5012.793200,N,00806.879600,W,2,,,,,,,*67
$GPVTG,2.5,T,,,0.50,N,,,D*12
$GPRMC,130726.00,A,5012.793200,N,00806.879600,W,0.5,2.5,010611,,A*63
$GPDTM,W84,C*52
$HEHDT,4.2,T*29
$HEROT,0.0,A*2B
$PFEC,AIcmd,0,35,A,01062011,130727*00
!AIVDO,1,1,,B,13`kvwO005wJnb4Lfo@@6P8n05`L,0*0C
$GPZDA,130727,01,06,2011,01,00*4C
$GPGLL,5012.793200,N,00806.879600,W,130727,A,D*57
$GPGGA,130727,5012.793200,N,00806.879600,W,2,,,,,,,*66
$GPVTG,2.6,T,,,0.50,N,,,D*11
$GPRMC,130727.00,A,5012.793200,N,00806.879600,W,0.5,2.6,010611,,A*61
$GPDTM,W84,C*52
$HEHDT,4.2,T*29
$HEROT,0.0,A*2B
$PFEC,AIcmd,0,35,A,01062011,130728*0F
!AIVDO,1,1,,B,13`kvwO005wJnb4Lfo@P6P8p05`L,0*02
$GPZDA,130728,01,06,2011,01,00*43
$GPGLL,5012.793800,N,00806.879600,W,130728,A,D*52
$GPGGA,130728,5012.793800,N,00806.879600,W,2,,,,,,,*63
$GPVTG,2.6,T,,,0.50,N,,,D*11
$GPRMC,130728.00,A,5012.793800,N,00806.879600,W,0.5,2.6,010611,,A*64
$GPDTM,W84,C*52
$HEHDT,4.2,T*29
$HEROT,0.0,A*2B
!AIVDM,1,1,,B,13aGhtwwj<OJfTJLgS>1d1Fr05`L,0*09
$PFEC,AIcmd,0,35,A,01062011,130729*0E
!AIVDO,1,1,,B,13`kvwO005wJnb4LfoA06P8r05`L,0*61
$GPZDA,130729,01,06,2011,01,00*42
$GPGLL,5012.793800,N,00806.879600,W,130729,A,D*53
$GPGGA,130729,5012.793800,N,00806.879600,W,2,,,,,,,*62
$GPVTG,2.6,T,,,0.50,N,,,D*11
$GPRMC,130729.00,A,5012.793800,N,00806.879600,W,0.5,2.6,010611,,A*65
$GPDTM,W84,C*52
$HEHDT,4.3,T*28
$HEROT,0.0,A*2B
$PFEC,AIcmd,0,35,A,01062011,130730*06
!AIVDO,1,1,,B,13`kvwO005wJnb4LfoA@6@8t05`L,0*07
$GPZDA,130730,01,06,2011,01,00*4A
$GPGLL,5012.793800,N,00806.879600,W,130730,A,D*5B
$GPGGA,130730,5012.793800,N,00806.879600,W,2,,,,,,,*6A
$GPVTG,2.5,T,,,0.50,N,,,D*12
$GPRMC,130730.00,A,5012.793800,N,00806.879600,W,0.5,2.5,010611,,A*6E
$GPDTM,W84,C*52
$HEHDT,4.3,T*28
$HEROT,0.0,A*2B
$PFEC,AIcmd,0,35,A,01062011,130731*07
!AIVDO,1,1,,B,13`kvwO005wJnb4LfoAh6P8v05`L,0*3D
$GPZDA,130731,01,06,2011,01,00*4B
$GPGLL,5012.793800,N,00806.879600,W,130731,A,D*5A
$GPGGA,130731,5012.793800,N,00806.879600,W,2,,,,,,,*6B
$GPVTG,2.6,T,,,0.50,N,,,D*11
$GPRMC,130731.00,A,5012.793800,N,00806.879600,W,0.5,2.6,010611,,A*6C
$GPDTM,W84,C*52
$HEHDT,4.3,T*28
$HEROT,0.0,A*2B
$PFEC,AIcmd,0,35,A,01062011,130732*04
!AIVDO,1,1,,B,13`kvwO005wJnb4LfoB06P9005`L,0*21
$GPZDA,130732,01,06,2011,01,00*48
$GPGLL,5012.793800,N,00806.879600,W,130732,A,D*59
$GPGGA,130732,5012.793800,N,00806.879600,W,2,,,,,,,*68
$GPVTG,2.6,T,,,0.50,N,,,D*11
$GPRMC,130732.00,A,5012.793800,N,00806.879600,W,0.5,2.6,010611,,A*6F
$GPDTM,W84,C*52
$HEHDT,4.3,T*28
$HEROT,0.0,A*2B
$PFEC,AIcmd,0,35,A,01062011,130733*05
!AIVDO,1,1,,B,13`kvwO005wJnb4LfoB@6P9205`L,0*53
$GPZDA,130733,01,06,2011,01,00*49
$GPGLL,5012.794400,N,00806.879600,W,130733,A,D*53
$GPGGA,130733,5012.794400,N,00806.879600,W,2,,,,,,,*62
$GPVTG,2.6,T,,,0.50,N,,,D*11
$GPRMC,130733.00,A,5012.794400,N,00806.879600,W,0.5,2.6,010611,,A*65
$GPDTM,W84,C*52
$HEHDT,4.3,T*28
$HEROT,0.0,A*2B
$PFEC,AIcmd,0,35,A,01062011,130734*02
!AIVDO,1,1,,B,13`kvwO005wJnb4LfoBh6P9405`L,0*7D
$GPZDA,130734,01,06,2011,01,00*4E
$GPGLL,5012.794400,N,00806.879600,W,130734,A,D*54
$GPGGA,130734,5012.794400,N,00806.879600,W,2,,,,,,,*65
$GPVTG,2.6,T,,,0.50,N,,,D*11
$GPRMC,130734.00,A,5012.794400,N,00806.879600,W,0.5,2.6,010611,,A*62
$GPDTM,W84,C*52
$HEHDT,4.3,T*28
$HEROT,0.0,A*2B
!AIVDM,1,1,,B,13aGhtwwj<OJfd:LgSpAd1G605`L,0*32
$PFEC,AIcmd,0,35,A,01062011,130735*03
!AIVDO,1,1,,B,13`kvwO005wJnb6LfoC0809605`L,0*4A
$GPZDA,130735,01,06,2011,01,00*4F
$GPGLL,5012.794400,N,00806.879600,W,130735,A,D*55
$GPGGA,130735,5012.794400,N,00806.879600,W,2,,,,,,,*64
$GPVTG,3.2,T,,,0.50,N,,,D*14
$GPRMC,130735.00,A,5012.794400,N,00806.879600,W,0.5,3.2,010611,,A*66
$GPDTM,W84,C*52
$HEHDT,4.3,T*28
$HEROT,0.0,A*2B
$PFEC,AIcmd,0,35,A,01062011,130736*00
!AIVDO,1,1,,B,13`kvwO005wJnb6LfoCP6P9805`L,0*4A
$GPZDA,130736,01,06,2011,01,00*4C
$GPGLL,5012.794400,N,00806.879600,W,130736,A,D*56
$GPGGA,130736,5012.794400,N,00806.879600,W,2,,,,,,,*67
$GPVTG,2.6,T,,,0.50,N,,,D*11
$GPRMC,130736.00,A,5012.794400,N,00806.879600,W,0.5,2.6,010611,,A*60
$GPDTM,W84,C*52
$HEHDT,4.4,T*2F
$HEROT,0.0,A*2B
$PFEC,AIcmd,0,35,A,01062011,130737*01
!AIVDO,1,1,,B,13`kvwO005wJnb6LfoCh6h9:05`L,0*48
$GPZDA,130737,01,06,2011,01,00*4D
$GPGLL,5012.795000,N,00806.879600,W,130737,A,D*52
$GPGGA,130737,5012.795000,N,00806.879600,W,2,,,,,,,*63
$GPVTG,2.7,T,,,0.50,N,,,D*10
$GPRMC,130737.00,A,5012.795000,N,00806.879600,W,0.5,2.7,010611,,A*65
$GPDTM,W84,C*52
$HEHDT,4.4,T*2F
$HEROT,0.0,A*2B
$PFEC,AIcmd,0,35,A,01062011,130738*0E
!AIVDO,1,1,,B,13`kvwO005wJnb6LfoD@7@9<05`L,0*48
$GPZDA,130738,01,06,2011,01,00*42
$GPGLL,5012.795000,N,00806.879600,W,130738,A,D*5D
$GPGGA,130738,5012.795000,N,00806.879600,W,2,,,,,,,*6C
$GPVTG,2.9,T,,,0.50,N,,,D*1E
$GPRMC,130738.00,A,5012.795000,N,00806.879600,W,0.5,2.9,010611,,A*64
$GPDTM,W84,C*52
$HEHDT,4.4,T*2F
$HEROT,0.0,A*2B
$PFEC,AIcmd,0,35,A,01062011,130739*0F
!AIVDO,1,1,,B,13`kvwO005wJnb6LfoDP7P9>05`L,0*4A
$GPZDA,130739,01,06,2011,01,00*43
$GPGLL,5012.795000,N,00806.879600,W,130739,A,D*5C
$GPGGA,130739,5012.795000,N,00806.879600,W,2,,,,,,,*6D
$GPVTG,3.0,T,,,0.50,N,,,D*16
$GPRMC,130739.00,A,5012.795000,N,00806.879600,W,0.5,3.0,010611,,A*6D
$GPDTM,W84,C*52
$HEHDT,4.4,T*2F
$HEROT,0.0,A*2B
$PFEC,AIcmd,0,35,A,01062011,130740*01
!AIVDO,1,1,,B,13`kvwO005wJnb6LfoDh6h9@05`L,0*35
$GPZDA,130740,01,06,2011,01,00*4D
$GPGLL,5012.795000,N,00806.879600,W,130740,A,D*52
$GPGGA,130740,5012.795000,N,00806.879600,W,2,,,,,,,*63
$GPVTG,2.7,T,,,0.50,N,,,D*10
$GPRMC,130740.00,A,5012.795000,N,00806.879600,W,0.5,2.7,010611,,A*65
$GPDTM,W84,C*52
$HEHDT,4.4,T*2F
$HEROT,0.0,A*2B
!AIVDM,1,1,,B,13aGhtwwR<OJfktLgTRQd1GB05`L,0*0A
$PFEC,AIcmd,0,35,A,01062011,130741*00
!AIVDO,1,1,,B,13`kvwO005wJnb6LfoE@8P9B05`L,0*28
$GPZDA,130741,01,06,2011,01,00*4C
$GPGLL,5012.795600,N,00806.879600,W,130741,A,D*55
$GPGGA,130741,5012.795600,N,00806.879600,W,2,,,,,,,*64
$GPVTG,3.4,T,,,0.50,N,,,D*12
$GPRMC,130741.00,A,5012.795600,N,00806.879600,W,0.5,3.4,010611,,A*60
$GPDTM,W84,C*52
$HEHDT,4.4,T*2F
$HEROT,0.0,A*2B
$PFEC,AIcmd,0,35,A,01062011,130742*03
!AIVDO,1,1,,B,13`kvwO005wJnb6LfoEP8P9D05`L,0*3E
$GPZDA,130742,01,06,2011,01,00*4F
$GPGLL,5012.795600,N,00806.879600,W,130742,A,D*56
$GPGGA,130742,5012.795600,N,00806.879600,W,2,,,,,,,*67
$GPVTG,3.4,T,,,0.50,N,,,D*12
$GPRMC,130742.00,A,5012.795600,N,00806.879600,W,0.5,3.4,010611,,A*63
$GPDTM,W84,C*52
$HEHDT,4.5,T*2E
$HEROT,0.0,A*2B
$PFEC,AIcmd,0,35,A,01062011,130743*02
!AIVDO,1,1,,B,13`kvwO005wJnb6LfoF0809F05`L,0*3F
$GPZDA,130743,01,06,2011,01,00*4E
$GPGLL,5012.795600,N,00806.879600,W,130743,A,D*57
$GPGGA,130743,5012.795600,N,00806.879600,W,2,,,,,,,*66
$GPVTG,3.2,T,,,0.50,N,,,D*14
$GPRMC,130743.00,A,5012.795600,N,00806.879600,W,0.5,3.2,010611,,A*64
$GPDTM,W84,C*52
$HEHDT,4.5,T*2E
$HEROT,0.0,A*2B
$PFEC,AIcmd,0,35,A,01062011,130744*05
!AIVDO,1,1,,B,13`kvwO005wJnb8LfoF@8P9H05`L,0*2F
$GPZDA,130744,01,06,2011,01,00*49
$GPGLL,5012.795600,N,00806.879600,W,130744,A,D*50
$GPGGA,130744,5012.795600,N,00806.879600,W,2,,,,,,,*61
$GPVTG,3.4,T,,,0.50,N,,,D*12
$GPRMC,130744.00,A,5012.795600,N,00806.879600,W,0.5,3.4,010611,,A*65
$GPDTM,W84,C*52
$HEHDT,4.5,T*2E
$HEROT,0.0,A*2B
$PFEC,AIcmd,0,35,A,01062011,130745*04
!AIVDO,1,1,,B,13`kvwO005wJnb8LfoFh8P9J05`L,0*05
$GPZDA,130745,01,06,2011,01,00*48
$GPGLL,5012.796200,N,00806.879600,W,130745,A,D*56
$GPGGA,130745,5012.796200,N,00806.879600,W,2,,,,,,,*67
$GPVTG,3.4,T,,,0.50,N,,,D*12
$GPRMC,130745.00,A,5012.796200,N,00806.879600,W,0.5,3.4,010611,,A*63
$GPDTM,W84,C*52
$HEHDT,4.5,T*2E
$HEROT,0.0,A*2B
$PFEC,AIcmd,0,35,A,01062011,130746*07
!AIVDO,1,1,,B,13`kvwO005wJnb8LfoG090;L05`L,0*39
$GPZDA,130746,01,06,2011,01,00*4B
$GPGLL,5012.796200,N,00806.879600,W,130746,A,D*55
$GPGGA,130746,5012.796200,N,00806.879600,W,2,,,,,,,*64
$GPVTG,3.6,T,,,0.50,N,,,D*10
$GPRMC,130746.00,A,5012.796200,N,00806.879600,W,0.5,3.6,010611,,A*62
$GPDTM,W84,C*52
$HEHDT,4.5,T*2E
$HEROT,0.0,A*2B
!AIVDM,1,1,,B,13aGhtwwR<OJfsdLgU<id1GN05`L,0*59
$PFEC,AIcmd,0,35,A,01062011,130747*06
!AIVDO,1,1,,B,13`kvwO005wJnb8LfoG@7P;N05`L,0*25
$GPZDA,130747,01,06,2011,01,00*4A
$GPGLL,5012.796200,N,00806.879600,W,130747,A,D*54
$GPGGA,130747,5012.796200,N,00806.879600,W,2,,,,,,,*65
$GPVTG,3.0,T,,,0.50,N,,,D*16
$GPRMC,130747.00,A,5012.796200,N,00806.879600,W,0.5,3.0,010611,,A*65
$GPDTM,W84,C*52
$HEHDT,4.5,T*2E
$HEROT,0.0,A*2B
$PFEC,AIcmd,0,35,A,01062011,130748*09
!AIVDO,1,1,,B,13`kvwO005wJnb8LfoGh5h;P05`L,0*29
$GPZDA,130748,01,06,2011,01,00*45
$GPGLL,5012.796200,N,00806.879600,W,130748,A,D*5B
$GPGGA,130748,5012.796200,N,00806.879600,W,2,,,,,,,*6A
$GPVTG,2.3,T,,,0.50,N,,,D*14
$GPRMC,130748.00,A,5012.796200,N,00806.879600,W,0.5,2.3,010611,,A*68
$GPDTM,W84,C*52
$HEHDT,4.5,T*2E
$HEROT,0.0,A*2B
$PFEC,AIcmd,0,35,A,01062011,130749*08
!AIVDO,1,1,,B,13`kvwO005wJnb8LfoH060;R05`L,0*27
$GPZDA,130749,01,06,2011,01,00*44
$GPGLL,5012.796800,N,00806.879000,W,130749,A,D*56
$GPGGA,130749,5012.796800,N,00806.879000,W,2,,,,,,,*67
$GPVTG,2.4,T,,,0.50,N,,,D*13
$GPRMC,130749.00,A,5012.796800,N,00806.879000,W,0.5,2.4,010611,,A*62
$GPDTM,W84,C*52
$HEHDT,4.6,T*2D
$HEROT,0.0,A*2B
$PFEC,AIcmd,0,35,A,01062011,130750*00
!AIVDO,1,1,,B,13`kvwO005wJnb8LfoHP60;T05`L,0*41
$GPZDA,130750,01,06,2011,01,00*4C
$GPGLL,5012.796800,N,00806.879000,W,130750,A,D*5E
$GPGGA,130750,5012.796800,N,00806.879000,W,2,,,,,,,*6F
$GPVTG,2.4,T,,,0.50,N,,,D*13
$GPRMC,130750.00,A,5012.796800,N,00806.879000,W,0.5,2.4,010611,,A*6A
$GPDTM,W84,C*52
$HEHDT,4.6,T*2D
$HEROT,0.0,A*2B
$PFEC,AIcmd,0,35,A,01062011,130751*01
!AIVDO,1,1,,B,13`kvwO005wJnb8LfoHh7@;V05`L,0*0A
$GPZDA,130751,01,06,2011,01,00*4D
$GPGLL,5012.796800,N,00806.879000,W,130751,A,D*5F
$GPGGA,130751,5012.796800,N,00806.879000,W,2,,,,,,,*6E
$GPVTG,2.9,T,,,0.50,N,,,D*1E
$GPRMC,130751.00,A,5012.796800,N,00806.879000,W,0.5,2.9,010611,,A*66
$GPDTM,W84,C*52
$HEHDT,4.6,T*2D
$HEROT,0.0,A*2B
$PFEC,AIcmd,0,35,A,01062011,130752*02
