$SDDBT,7.7,f,2.3,M,1.3,F*05
{"class":"TPV","tag":"DBT","mode":3,"alt":-2.300}
$ECGLL,5119.881,N,00125.169,E,164326,A,D*52
$SDDBT,7.9,f,2.4,M,1.3,F*0C
{"class":"TPV","tag":"DBT","mode":3,"lat":51.331350000,"lon":1.419483333,"alt":-2.400}
$ECGLL,5119.881,N,00125.169,E,164328,A,D*5C
$SDDBT,7.9,f,2.4,M,1.3,F*0C
{"class":"TPV","tag":"DBT","mode":3,"lat":51.331350000,"lon":1.419483333,"alt":-2.400}
$ECGLL,5119.881,N,00125.169,E,164330,A,D*55
$SDDBT,7.9,f,2.4,M,1.3,F*0C
{"class":"TPV","tag":"DBT","mode":3,"lat":51.331350000,"lon":1.419483333,"alt":-2.400}
$ECGLL,5119.881,N,00125.169,E,164332,A,D*57
$SDDBT,7.9,f,2.4,M,1.3,F*0C
{"class":"TPV","tag":"DBT","mode":3,"lat":51.331350000,"lon":1.419483333,"alt":-2.400}
$ECGLL,5119.881,N,00125.169,E,164334,A,D*51
$SDDBT,7.7,f,2.3,M,1.3,F*05
{"class":"TPV","tag":"DBT","mode":3,"lat":51.331350000,"lon":1.419483333,"alt":-2.300}
$ECGLL,5119.881,N,00125.169,E,164336,A,D*53
$SDDBT,7.8,f,2.4,M,1.3,F*0D
{"class":"TPV","tag":"DBT","mode":3,"lat":51.331350000,"lon":1.419483333,"alt":-2.400}
$ECGLL,5119.881,N,00125.169,E,164338,A,D*5D
$SDDBT,7.8,f,2.4,M,1.3,F*0D
{"class":"TPV","tag":"DBT","mode":3,"lat":51.331350000,"lon":1.419483333,"alt":-2.400}
$ECGLL,5119.881,N,00125.169,E,164340,A,D*52
$SDDBT,7.7,f,2.3,M,1.3,F*05
{"class":"TPV","tag":"DBT","mode":3,"lat":51.331350000,"lon":1.419483333,"alt":-2.300}
$ECGLL,5119.881,N,00125.169,E,164342,A,D*50
$SDDBT,7.5,f,2.3,M,1.3,F*07
{"class":"TPV","tag":"DBT","mode":3,"lat":51.331350000,"lon":1.419483333,"alt":-2.300}
$ECGLL,5119.881,N,00125.169,E,164344,A,D*56
$SDDBT,7.5,f,2.3,M,1.3,F*07
{"class":"TPV","tag":"DBT","mode":3,"lat":51.331350000,"lon":1.419483333,"alt":-2.300}
$ECGLL,5119.881,N,00125.169,E,164346,A,D*54
$SDDBT,7.5,f,2.3,M,1.3,F*07
{"class":"TPV","tag":"DBT","mode":3,"lat":51.331350000,"lon":1.419483333,"alt":-2.300}
$ECGLL,5119.881,N,00125.169,E,164348,A,D*5A
$SDDBT,7.5,f,2.3,M,1.3,F*07
{"class":"TPV","tag":"DBT","mode":3,"lat":51.331350000,"lon":1.419483333,"alt":-2.300}
$ECGLL,5119.881,N,00125.169,E,164350,A,D*53
$SDDBT,7.5,f,2.3,M,1.3,F*07
{"class":"TPV","tag":"DBT","mode":3,"lat":51.331350000,"lon":1.419483333,"alt":-2.300}
$ECGLL,5119.881,N,00125.169,E,164352,A,D*51
$SDDBT,7.5,f,2.3,M,1.3,F*07
{"class":"TPV","tag":"DBT","mode":3,"lat":51.331350000,"lon":1.419483333,"alt":-2.300}
$ECGLL,5119.881,N,00125.169,E,164354,A,D*57
$SDDBT,7.5,f,2.3,M,1.3,F*07
{"class":"TPV","tag":"DBT","mode":3,"lat":51.331350000,"lon":1.419483333,"alt":-2.300}
$ECGLL,5119.881,N,00125.169,E,164356,A,D*55
$SDDBT,7.7,f,2.3,M,1.3,F*05
{"class":"TPV","tag":"DBT","mode":3,"lat":51.331350000,"lon":1.419483333,"alt":-2.300}
$ECGLL,5119.881,N,00125.169,E,164358,A,D*5B
$SDDBT,7.9,f,2.4,M,1.3,F*0C
{"class":"TPV","tag":"DBT","mode":3,"lat":51.331350000,"lon":1.419483333,"alt":-2.400}
$ECGLL,5119.881,N,00125.169,E,164400,A,D*51
$SDDBT,7.7,f,2.3,M,1.3,F*05
{"class":"TPV","tag":"DBT","mode":3,"lat":51.331350000,"lon":1.419483333,"alt":-2.300}
$ECGLL,5119.881,N,00125.169,E,164402,A,D*53
$SDDBT,7.5,f,2.3,M,1.3,F*07
{"class":"TPV","tag":"DBT","mode":3,"lat":51.331350000,"lon":1.419483333,"alt":-2.300}
$ECGLL,5119.881,N,00125.169,E,164404,A,D*55
$SDDBT,7.5,f,2.3,M,1.3,F*07
{"class":"TPV","tag":"DBT","mode":3,"lat":51.331350000,"lon":1.419483333,"alt":-2.300}
$ECGLL,5119.881,N,00125.169,E,164406,A,D*57
$SDDBT,7.6,f,2.3,M,1.3,F*04
{"class":"TPV","tag":"DBT","mode":3,"lat":51.331350000,"lon":1.419483333,"alt":-2.300}
$ECGLL,5119.881,N,00125.169,E,164408,A,D*59
$SDDBT,7.5,f,2.3,M,1.3,F*07
{"class":"TPV","tag":"DBT","mode":3,"lat":51.331350000,"lon":1.419483333,"alt":-2.300}
$ECGLL,5119.881,N,00125.169,E,164410,A,D*50
$SDDBT,7.5,f,2.3,M,1.3,F*07
{"class":"TPV","tag":"DBT","mode":3,"lat":51.331350000,"lon":1.419483333,"alt":-2.300}
$ECGLL,5119.881,N,00125.169,E,164412,A,D*52
$SDDBT,7.6,f,2.3,M,1.3,F*04
{"class":"TPV","tag":"DBT","mode":3,"lat":51.331350000,"lon":1.419483333,"alt":-2.300}
$ECGLL,5119.881,N,00125.169,E,164414,A,D*54
$SDDBT,7.5,f,2.3,M,1.3,F*07
{"class":"TPV","tag":"DBT","mode":3,"lat":51.331350000,"lon":1.419483333,"alt":-2.300}
$ECGLL,5119.881,N,00125.169,E,164416,A,D*56
$SDDBT,7.6,f,2.3,M,1.3,F*04
{"class":"TPV","tag":"DBT","mode":3,"lat":51.331350000,"lon":1.419483333,"alt":-2.300}
$ECGLL,5119.881,N,00125.169,E,164418,A,D*58
$SDDBT,7.6,f,2.3,M,1.3,F*04
{"class":"TPV","tag":"DBT","mode":3,"lat":51.331350000,"lon":1.419483333,"alt":-2.300}
$ECGLL,5119.881,N,00125.169,E,164420,A,D*53
$SDDBT,7.5,f,2.3,M,1.3,F*07
{"class":"TPV","tag":"DBT","mode":3,"lat":51.331350000,"lon":1.419483333,"alt":-2.300}
$ECGLL,5119.881,N,00125.169,E,164422,A,D*51
$SDDBT,7.5,f,2.3,M,1.3,F*07
{"class":"TPV","tag":"DBT","mode":3,"lat":51.331350000,"lon":1.419483333,"alt":-2.300}
$ECGLL,5119.881,N,00125.169,E,164424,A,D*57
$SDDBT,7.5,f,2.3,M,1.3,F*07
{"class":"TPV","tag":"DBT","mode":3,"lat":51.331350000,"lon":1.419483333,"alt":-2.300}
$ECGLL,5119.881,N,00125.169,E,164426,A,D*55
$SDDBT,7.6,f,2.3,M,1.3,F*04
{"class":"TPV","tag":"DBT","mode":3,"lat":51.331350000,"lon":1.419483333,"alt":-2.300}
$ECGLL,5119.881,N,00125.169,E,164428,A,D*5B
$SDDBT,7.6,f,2.3,M,1.3,F*04
{"class":"TPV","tag":"DBT","mode":3,"lat":51.331350000,"lon":1.419483333,"alt":-2.300}
$ECGLL,5119.881,N,00125.169,E,164430,A,D*52
$SDDBT,7.5,f,2.3,M,1.3,F*07
{"class":"TPV","tag":"DBT","mode":3,"lat":51.331350000,"lon":1.419483333,"alt":-2.300}
$ECGLL,5119.881,N,00125.169,E,164432,A,D*50
$SDDBT,7.7,f,2.3,M,1.3,F*05
{"class":"TPV","tag":"DBT","mode":3,"lat":51.331350000,"lon":1.419483333,"alt":-2.300}
$ECGLL,5119.881,N,00125.169,E,164434,A,D*56
$SDDBT,7.6,f,2.3,M,1.3,F*04
{"class":"TPV","tag":"DBT","mode":3,"lat":51.331350000,"lon":1.419483333,"alt":-2.300}
$ECGLL,5119.881,N,00125.169,E,164436,A,D*54
$SDDBT,7.8,f,2.4,M,1.3,F*0D
{"class":"TPV","tag":"DBT","mode":3,"lat":51.331350000,"lon":1.419483333,"alt":-2.400}
$ECGLL,5119.881,N,00125.169,E,164438,A,D*5A
$SDDBT,7.8,f,2.4,M,1.3,F*0D
{"class":"TPV","tag":"DBT","mode":3,"lat":51.331350000,"lon":1.419483333,"alt":-2.400}
$ECGLL,5119.881,N,00125.169,E,164440,A,D*55
$SDDBT,7.7,f,2.3,M,1.3,F*05
{"class":"TPV","tag":"DBT","mode":3,"lat":51.331350000,"lon":1.419483333,"alt":-2.300}
$ECGLL,5119.881,N,00125.169,E,164442,A,D*57
$SDDBT,7.6,f,2.3,M,1.3,F*04
{"class":"TPV","tag":"DBT","mode":3,"lat":51.331350000,"lon":1.419483333,"alt":-2.300}
$ECGLL,5119.881,N,00125.169,E,164444,A,D*51
$SDDBT,7.6,f,2.3,M,1.3,F*04
{"class":"TPV","tag":"DBT","mode":3,"lat":51.331350000,"lon":1.419483333,"alt":-2.300}
$ECGLL,5119.881,N,00125.169,E,164446,A,D*53
$SDDBT,7.5,f,2.3,M,1.3,F*07
{"class":"TPV","tag":"DBT","mode":3,"lat":51.331350000,"lon":1.419483333,"alt":-2.300}
$ECGLL,5119.881,N,00125.169,E,164448,A,D*5D
$SDDBT,7.5,f,2.3,M,1.3,F*07
{"class":"TPV","tag":"DBT","mode":3,"lat":51.331350000,"lon":1.419483333,"alt":-2.300}
$ECGLL,5119.881,N,00125.169,E,164450,A,D*54
$SDDBT,7.5,f,2.3,M,1.3,F*07
{"class":"TPV","tag":"DBT","mode":3,"lat":51.331350000,"lon":1.419483333,"alt":-2.300}
$ECGLL,5119.881,N,00125.169,E,164452,A,D*56
$SDDBT,7.5,f,2.3,M,1.3,F*07
{"class":"TPV","tag":"DBT","mode":3,"lat":51.331350000,"lon":1.419483333,"alt":-2.300}
$ECGLL,5119.881,N,00125.169,E,164454,A,D*50
$SDDBT,7.5,f,2.3,M,1.3,F*07
{"class":"TPV","tag":"DBT","mode":3,"lat":51.331350000,"lon":1.419483333,"alt":-2.300}
$ECGLL,5119.881,N,00125.169,E,164456,A,D*52
$SDDBT,7.9,f,2.4,M,1.3,F*0C
{"class":"TPV","tag":"DBT","mode":3,"lat":51.331350000,"lon":1.419483333,"alt":-2.400}
$ECGLL,5119.881,N,00125.169,E,164458,A,D*5C
$SDDBT,7.5,f,2.3,M,1.3,F*07
{"class":"TPV","tag":"DBT","mode":3,"lat":51.331350000,"lon":1.419483333,"alt":-2.300}
$ECGLL,5119.881,N,00125.169,E,164500,A,D*50
$SDDBT,7.5,f,2.3,M,1.3,F*07
{"class":"TPV","tag":"DBT","mode":3,"lat":51.331350000,"lon":1.419483333,"alt":-2.300}
$ECGLL,5119.881,N,00125.169,E,164502,A,D*52
$SDDBT,7.5,f,2.3,M,1.3,F*07
{"class":"TPV","tag":"DBT","mode":3,"lat":51.331350000,"lon":1.419483333,"alt":-2.300}
$ECGLL,5119.881,N,00125.169,E,164504,A,D*54
$SDDBT,7.5,f,2.3,M,1.3,F*07
{"class":"TPV","tag":"DBT","mode":3,"lat":51.331350000,"lon":1.419483333,"alt":-2.300}
$ECGLL,5119.881,N,00125.169,E,164506,A,D*56
$SDDBT,7.6,f,2.3,M,1.3,F*04
{"class":"TPV","tag":"DBT","mode":3,"lat":51.331350000,"lon":1.419483333,"alt":-2.300}
$ECGLL,5119.881,N,00125.169,E,164508,A,D*58
$SDDBT,7.5,f,2.3,M,1.3,F*07
{"class":"TPV","tag":"DBT","mode":3,"lat":51.331350000,"lon":1.419483333,"alt":-2.300}
$ECGLL,5119.881,N,00125.169,E,164510,A,D*51
$SDDBT,7.5,f,2.3,M,1.3,F*07
{"class":"TPV","tag":"DBT","mode":3,"lat":51.331350000,"lon":1.419483333,"alt":-2.300}
$ECGLL,5119.881,N,00125.169,E,164512,A,D*53
$SDDBT,7.5,f,2.3,M,1.3,F*07
{"class":"TPV","tag":"DBT","mode":3,"lat":51.331350000,"lon":1.419483333,"alt":-2.300}
$ECGLL,5119.881,N,00125.169,E,164514,A,D*55
$SDDBT,7.5,f,2.3,M,1.3,F*07
{"class":"TPV","tag":"DBT","mode":3,"lat":51.331350000,"lon":1.419483333,"alt":-2.300}
$ECGLL,5119.881,N,00125.169,E,164516,A,D*57
$SDDBT,7.5,f,2.3,M,1.3,F*07
{"class":"TPV","tag":"DBT","mode":3,"lat":51.331350000,"lon":1.419483333,"alt":-2.300}
$ECGLL,5119.881,N,00125.169,E,164518,A,D*59
$SDDBT,7.5,f,2.3,M,1.3,F*07
{"class":"TPV","tag":"DBT","mode":3,"lat":51.331350000,"lon":1.419483333,"alt":-2.300}
$ECGLL,5119.881,N,00125.169,E,164520,A,D*52
$SDDBT,7.5,f,2.3,M,1.3,F*07
{"class":"TPV","tag":"DBT","mode":3,"lat":51.331350000,"lon":1.419483333,"alt":-2.300}
$ECGLL,5119.881,N,00125.169,E,164522,A,D*50
$SDDBT,7.5,f,2.3,M,1.3,F*07
{"class":"TPV","tag":"DBT","mode":3,"lat":51.331350000,"lon":1.419483333,"alt":-2.300}
$ECGLL,5119.881,N,00125.169,E,164524,A,D*56
$SDDBT,7.5,f,2.3,M,1.3,F*07
{"class":"TPV","tag":"DBT","mode":3,"lat":51.331350000,"lon":1.419483333,"alt":-2.300}
$ECGLL,5119.881,N,00125.169,E,164526,A,D*54
$SDDBT,7.5,f,2.3,M,1.3,F*07
{"class":"TPV","tag":"DBT","mode":3,"lat":51.331350000,"lon":1.419483333,"alt":-2.300}
$ECGLL,5119.881,N,00125.169,E,164528,A,D*5A
$SDDBT,7.5,f,2.3,M,1.3,F*07
{"class":"TPV","tag":"DBT","mode":3,"lat":51.331350000,"lon":1.419483333,"alt":-2.300}
$ECGLL,5119.881,N,00125.169,E,164530,A,D*53
$SDDBT,7.5,f,2.3,M,1.3,F*07
{"class":"TPV","tag":"DBT","mode":3,"lat":51.331350000,"lon":1.419483333,"alt":-2.300}
$ECGLL,5119.881,N,00125.169,E,164532,A,D*51
$SDDBT,7.5,f,2.3,M,1.3,F*07
{"class":"TPV","tag":"DBT","mode":3,"lat":51.331350000,"lon":1.419483333,"alt":-2.300}
$ECGLL,5119.881,N,00125.169,E,164534,A,D*57
$SDDBT,7.5,f,2.3,M,1.3,F*07
{"class":"TPV","tag":"DBT","mode":3,"lat":51.331350000,"lon":1.419483333,"alt":-2.300}
$ECGLL,5119.881,N,00125.169,E,164536,A,D*55
$SDDBT,7.7,f,2.3,M,1.3,F*05
{"class":"TPV","tag":"DBT","mode":3,"lat":51.331350000,"lon":1.419483333,"alt":-2.300}
$ECGLL,5119.881,N,00125.169,E,164538,A,D*5B
$SDDBT,7.6,f,2.3,M,1.3,F*04
{"class":"TPV","tag":"DBT","mode":3,"lat":51.331350000,"lon":1.419483333,"alt":-2.300}
$ECGLL,5119.881,N,00125.169,E,164540,A,D*54
$SDDBT,8.1,f,2.5,M,1.4,F*0D
{"class":"TPV","tag":"DBT","mode":3,"lat":51.331350000,"lon":1.419483333,"alt":-2.500}
$ECGLL,5119.881,N,00125.169,E,164542,A,D*56
$SDDBT,7.6,f,2.3,M,1.3,F*04
{"class":"TPV","tag":"DBT","mode":3,"lat":51.331350000,"lon":1.419483333,"alt":-2.300}
$ECGLL,5119.881,N,00125.169,E,164544,A,D*50
$SDDBT,7.5,f,2.3,M,1.3,F*07
{"class":"TPV","tag":"DBT","mode":3,"lat":51.331350000,"lon":1.419483333,"alt":-2.300}
$ECGLL,5119.881,N,00125.169,E,164546,A,D*52
$SDDBT,7.5,f,2.3,M,1.3,F*07
{"class":"TPV","tag":"DBT","mode":3,"lat":51.331350000,"lon":1.419483333,"alt":-2.300}
$ECGLL,5119.881,N,00125.169,E,164548,A,D*5C
$SDDBT,7.5,f,2.3,M,1.3,F*07
{"class":"TPV","tag":"DBT","mode":3,"lat":51.331350000,"lon":1.419483333,"alt":-2.300}
$ECGLL,5119.881,N,00125.169,E,164550,A,D*55
$SDDBT,7.5,f,2.3,M,1.3,F*07
{"class":"TPV","tag":"DBT","mode":3,"lat":51.331350000,"lon":1.419483333,"alt":-2.300}
$ECGLL,5119.881,N,00125.169,E,164552,A,D*57
$SDDBT,7.5,f,2.3,M,1.3,F*07
{"class":"TPV","tag":"DBT","mode":3,"lat":51.331350000,"lon":1.419483333,"alt":-2.300}
$ECGLL,5119.881,N,00125.169,E,164554,A,D*51
$SDDBT,7.9,f,2.4,M,1.3,F*0C
{"class":"TPV","tag":"DBT","mode":3,"lat":51.331350000,"lon":1.419483333,"alt":-2.400}
$ECGLL,5119.881,N,00125.169,E,164556,A,D*53
$SDDBT,7.8,f,2.4,M,1.3,F*0D
{"class":"TPV","tag":"DBT","mode":3,"lat":51.331350000,"lon":1.419483333,"alt":-2.400}
$ECGLL,5119.881,N,00125.169,E,164558,A,D*5D
$SDDBT,7.5,f,2.3,M,1.3,F*07
{"class":"TPV","tag":"DBT","mode":3,"lat":51.331350000,"lon":1.419483333,"alt":-2.300}
$ECGLL,5119.881,N,00125.169,E,164600,A,D*53
$SDDBT,7.6,f,2.3,M,1.3,F*04
{"class":"TPV","tag":"DBT","mode":3,"lat":51.331350000,"lon":1.419483333,"alt":-2.300}
$ECGLL,5119.881,N,00125.169,E,164602,A,D*51
$SDDBT,7.5,f,2.3,M,1.3,F*07
{"class":"TPV","tag":"DBT","mode":3,"lat":51.331350000,"lon":1.419483333,"alt":-2.300}
$ECGLL,5119.881,N,00125.169,E,164604,A,D*57
$SDDBT,7.5,f,2.3,M,1.3,F*07
{"class":"TPV","tag":"DBT","mode":3,"lat":51.331350000,"lon":1.419483333,"alt":-2.300}
$ECGLL,5119.881,N,00125.169,E,164606,A,D*55
$SDDBT,7.5,f,2.3,M,1.3,F*07
{"class":"TPV","tag":"DBT","mode":3,"lat":51.331350000,"lon":1.419483333,"alt":-2.300}
$ECGLL,5119.881,N,00125.169,E,164608,A,D*5B
$SDDBT,7.5,f,2.3,M,1.3,F*07
{"class":"TPV","tag":"DBT","mode":3,"lat":51.331350000,"lon":1.419483333,"alt":-2.300}
$ECGLL,5119.881,N,00125.169,E,164610,A,D*52
$SDDBT,7.5,f,2.3,M,1.3,F*07
{"class":"TPV","tag":"DBT","mode":3,"lat":51.331350000,"lon":1.419483333,"alt":-2.300}
$ECGLL,5119.881,N,00125.169,E,164612,A,D*50
$SDDBT,7.5,f,2.3,M,1.3,F*07
{"class":"TPV","tag":"DBT","mode":3,"lat":51.331350000,"lon":1.419483333,"alt":-2.300}
$ECGLL,5119.881,N,00125.169,E,164614,A,D*56
$SDDBT,8.1,f,2.5,M,1.4,F*0D
{"class":"TPV","tag":"DBT","mode":3,"lat":51.331350000,"lon":1.419483333,"alt":-2.500}
$ECGLL,5119.881,N,00125.169,E,164616,A,D*54
$SDDBT,7.6,f,2.3,M,1.3,F*04
{"class":"TPV","tag":"DBT","mode":3,"lat":51.331350000,"lon":1.419483333,"alt":-2.300}
$ECGLL,5119.881,N,00125.169,E,164618,A,D*5A
$SDDBT,7.5,f,2.3,M,1.3,F*07
{"class":"TPV","tag":"DBT","mode":3,"lat":51.331350000,"lon":1.419483333,"alt":-2.300}
$ECGLL,5119.881,N,00125.169,E,164620,A,D*51
$SDDBT,7.5,f,2.3,M,1.3,F*07
{"class":"TPV","tag":"DBT","mode":3,"lat":51.331350000,"lon":1.419483333,"alt":-2.300}
$ECGLL,5119.881,N,00125.169,E,164622,A,D*53
$SDDBT,7.8,f,2.4,M,1.3,F*0D
{"class":"TPV","tag":"DBT","mode":3,"lat":51.331350000,"lon":1.419483333,"alt":-2.400}
$ECGLL,5119.881,N,00125.169,E,164624,A,D*55
$SDDBT,7.8,f,2.4,M,1.3,F*0D
{"class":"TPV","tag":"DBT","mode":3,"lat":51.331350000,"lon":1.419483333,"alt":-2.400}
$ECGLL,5119.881,N,00125.169,E,164626,A,D*57
$SDDBT,7.7,f,2.3,M,1.3,F*05
{"class":"TPV","tag":"DBT","mode":3,"lat":51.331350000,"lon":1.419483333,"alt":-2.300}
$ECGLL,5119.881,N,00125.169,E,164628,A,D*59
$SDDBT,7.6,f,2.3,M,1.3,F*04
{"class":"TPV","tag":"DBT","mode":3,"lat":51.331350000,"lon":1.419483333,"alt":-2.300}
$ECGLL,5119.881,N,00125.168,E,164630,A,D*51
$SDDBT,7.7,f,2.3,M,1.3,F*05
{"class":"TPV","tag":"DBT","mode":3,"lat":51.331350000,"lon":1.419466667,"alt":-2.300}
$ECGLL,5119.881,N,00125.168,E,164632,A,D*53
$SDDBT,7.6,f,2.3,M,1.3,F*04
{"class":"TPV","tag":"DBT","mode":3,"lat":51.331350000,"lon":1.419466667,"alt":-2.300}
$ECGLL,5119.881,N,00125.168,E,164634,A,D*55
$SDDBT,7.9,f,2.4,M,1.3,F*0C
{"class":"TPV","tag":"DBT","mode":3,"lat":51.331350000,"lon":1.419466667,"alt":-2.400}
$ECGLL,5119.881,N,00125.168,E,164636,A,D*57
$SDDBT,7.6,f,2.3,M,1.3,F*04
{"class":"TPV","tag":"DBT","mode":3,"lat":51.331350000,"lon":1.419466667,"alt":-2.300}
$ECGLL,5119.881,N,00125.168,E,164638,A,D*59
$SDDBT,7.6,f,2.3,M,1.3,F*04
{"class":"TPV","tag":"DBT","mode":3,"lat":51.331350000,"lon":1.419466667,"alt":-2.300}
$ECGLL,5119.881,N,00125.168,E,164640,A,D*56
$SDDBT,7.5,f,2.3,M,1.3,F*07
{"class":"TPV","tag":"DBT","mode":3,"lat":51.331350000,"lon":1.419466667,"alt":-2.300}
$ECGLL,5119.881,N,00125.168,E,164642,A,D*54
$SDDBT,7.6,f,2.3,M,1.3,F*04
{"class":"TPV","tag":"DBT","mode":3,"lat":51.331350000,"lon":1.419466667,"alt":-2.300}
$ECGLL,5119.881,N,00125.168,E,164644,A,D*52
$SDDBT,7.6,f,2.3,M,1.3,F*04
{"class":"TPV","tag":"DBT","mode":3,"lat":51.331350000,"lon":1.419466667,"alt":-2.300}
$ECGLL,5119.881,N,00125.168,E,164646,A,D*50
$SDDBT,7.6,f,2.3,M,1.3,F*04
{"class":"TPV","tag":"DBT","mode":3,"lat":51.331350000,"lon":1.419466667,"alt":-2.300}
$ECGLL,5119.881,N,00125.168,E,164648,A,D*5E
$SDDBT,7.5,f,2.3,M,1.3,F*07
{"class":"TPV","tag":"DBT","mode":3,"lat":51.331350000,"lon":1.419466667,"alt":-2.300}
$ECGLL,5119.881,N,00125.168,E,164650,A,D*57
$SDDBT,7.5,f,2.3,M,1.3,F*07
{"class":"TPV","tag":"DBT","mode":3,"lat":51.331350000,"lon":1.419466667,"alt":-2.300}
$ECGLL,5119.881,N,00125.168,E,164652,A,D*55
$SDDBT,7.5,f,2.3,M,1.3,F*07
{"class":"TPV","tag":"DBT","mode":3,"lat":51.331350000,"lon":1.419466667,"alt":-2.300}
$ECGLL,5119.881,N,00125.168,E,164654,A,D*53
$SDDBT,7.5,f,2.3,M,1.3,F*07
{"class":"TPV","tag":"DBT","mode":3,"lat":51.331350000,"lon":1.419466667,"alt":-2.300}
$ECGLL,5119.881,N,00125.168,E,164656,A,D*51
$SDDBT,7.5,f,2.3,M,1.3,F*07
{"class":"TPV","tag":"DBT","mode":3,"lat":51.331350000,"lon":1.419466667,"alt":-2.300}
$ECGLL,5119.881,N,00125.168,E,164658,A,D*5F
$SDDBT,7.7,f,2.3,M,1.3,F*05
{"class":"TPV","tag":"DBT","mode":3,"lat":51.331350000,"lon":1.419466667,"alt":-2.300}
$ECGLL,5119.881,N,00125.168,E,164700,A,D*53
$SDDBT,7.5,f,2.3,M,1.3,F*07
{"class":"TPV","tag":"DBT","mode":3,"lat":51.331350000,"lon":1.419466667,"alt":-2.300}
$ECGLL,5119.881,N,00125.168,E,164702,A,D*51
$SDDBT,7.8,f,2.4,M,1.3,F*0D
{"class":"TPV","tag":"DBT","mode":3,"lat":51.331350000,"lon":1.419466667,"alt":-2.400}
$ECGLL,5119.881,N,00125.168,E,164704,A,D*57
$SDDBT,7.7,f,2.3,M,1.3,F*05
{"class":"TPV","tag":"DBT","mode":3,"lat":51.331350000,"lon":1.419466667,"alt":-2.300}
$ECGLL,5119.882,N,00125.168,E,164706,A,D*56
$SDDBT,7.7,f,2.3,M,1.3,F*05
{"class":"TPV","tag":"DBT","mode":3,"lat":51.331366667,"lon":1.419466667,"alt":-2.300}
$ECGLL,5119.882,N,00125.168,E,164708,A,D*58
$SDDBT,7.7,f,2.3,M,1.3,F*05
{"class":"TPV","tag":"DBT","mode":3,"lat":51.331366667,"lon":1.419466667,"alt":-2.300}
$ECGLL,5119.882,N,00125.168,E,164710,A,D*51
$SDDBT,7.8,f,2.4,M,1.3,F*0D
{"class":"TPV","tag":"DBT","mode":3,"lat":51.331366667,"lon":1.419466667,"alt":-2.400}
$ECGLL,5119.882,N,00125.168,E,164712,A,D*53
$SDDBT,7.6,f,2.3,M,1.3,F*04
{"class":"TPV","tag":"DBT","mode":3,"lat":51.331366667,"lon":1.419466667,"alt":-2.300}
$ECGLL,5119.882,N,00125.168,E,164714,A,D*55
$SDDBT,7.6,f,2.3,M,1.3,F*04
{"class":"TPV","tag":"DBT","mode":3,"lat":51.331366667,"lon":1.419466667,"alt":-2.300}
$ECGLL,5119.882,N,00125.168,E,164716,A,D*57
$SDDBT,7.6,f,2.3,M,1.3,F*04
{"class":"TPV","tag":"DBT","mode":3,"lat":51.331366667,"lon":1.419466667,"alt":-2.300}
$ECGLL,5119.882,N,00125.168,E,164718,A,D*59
$SDDBT,7.5,f,2.3,M,1.3,F*07
{"class":"TPV","tag":"DBT","mode":3,"lat":51.331366667,"lon":1.419466667,"alt":-2.300}
$ECGLL,5119.882,N,00125.168,E,164720,A,D*52
$SDDBT,8.0,f,2.4,M,1.3,F*0A
{"class":"TPV","tag":"DBT","mode":3,"lat":51.331366667,"lon":1.419466667,"alt":-2.400}
$ECGLL,5119.882,N,00125.168,E,164722,A,D*50
$SDDBT,7.7,f,2.3,M,1.3,F*05
{"class":"TPV","tag":"DBT","mode":3,"lat":51.331366667,"lon":1.419466667,"alt":-2.300}
$ECGLL,5119.882,N,00125.168,E,164724,A,D*56
$SDDBT,7.7,f,2.3,M,1.3,F*05
{"class":"TPV","tag":"DBT","mode":3,"lat":51.331366667,"lon":1.419466667,"alt":-2.300}
$ECGLL,5119.882,N,00125.168,E,164726,A,D*54
$SDDBT,7.6,f,2.3,M,1.3,F*04
{"class":"TPV","tag":"DBT","mode":3,"lat":51.331366667,"lon":1.419466667,"alt":-2.300}
$ECGLL,5119.882,N,00125.168,E,164728,A,D*5A
