$GPGSV,3,1,12,01,76,110,50,11,67,212,50,29,55,030,39,03,41,063,36*7C
$GPGSV,3,2,12,28,22,023,37,09,18,156,00,30,15,073,00,23,14,223,00*72
$GPGSV,3,3,12,22,06,031,00,08,01,208,00,137,28,172,00,134,26,203,00*75
{"class":"SKY","tag":"SS2-33","xdop":2.10,"ydop":2.37,"vdop":4.13,"tdop":3.58,"hdop":3.16,"gdop":6.31,"pdop":5.20,"satellites":[{"PRN":1,"el":76,"az":110,"ss":50,"used":true},{"PRN":11,"el":67,"az":212,"ss":50,"used":true},{"PRN":29,"el":55,"az":30,"ss":39,"used":true},{"PRN":3,"el":41,"az":63,"ss":36,"used":true},{"PRN":28,"el":22,"az":23,"ss":37,"used":true},{"PRN":9,"el":18,"az":156,"ss":0,"used":false},{"PRN":30,"el":15,"az":73,"ss":0,"used":false},{"PRN":23,"el":14,"az":223,"ss":0,"used":false},{"PRN":22,"el":6,"az":31,"ss":0,"used":false},{"PRN":8,"el":1,"az":208,"ss":0,"used":false},{"PRN":137,"el":28,"az":172,"ss":0,"used":false},{"PRN":134,"el":26,"az":203,"ss":0,"used":false}]}
$GPZDA,055055.00,04,07,2009,00,00*6E
$GPGGA,055054,5333.7867,N,11326.3743,W,1,05,3.10,631.80,M,,,*29
$GPRMC,055054,A,5333.7867,N,11326.3743,W,0.0000,0.000,040709,,*38
$GPGSA,A,3,01,11,29,03,28,,,,,,,,5.2,3.1,3.3*34
$GPGBS,055054,31.47,M,35.54,M,75.90,M*02
{"class":"TPV","tag":"SS2-20","mode":3,"time":"2009-07-04T05:50:54.000Z","ept":0.005,"lat":53.563112132,"lon":-113.439571599,"alt":631.801,"epx":31.470,"epy":35.543,"epv":75.900,"track":0.0000,"speed":0.000,"climb":0.000}
$GPGSV,3,1,12,01,76,110,50,11,67,212,50,29,55,030,39,03,41,063,36*7C
$GPGSV,3,2,12,28,22,023,37,09,18,156,00,30,15,073,00,23,14,223,00*72
$GPGSV,3,3,12,22,06,031,00,08,01,208,00,137,28,172,00,134,26,203,00*75
{"class":"SKY","tag":"SS2-33","xdop":2.10,"ydop":2.37,"vdop":3.30,"tdop":3.58,"hdop":3.10,"gdop":6.31,"pdop":5.20,"satellites":[{"PRN":1,"el":76,"az":110,"ss":50,"used":true},{"PRN":11,"el":67,"az":212,"ss":50,"used":true},{"PRN":29,"el":55,"az":30,"ss":39,"used":true},{"PRN":3,"el":41,"az":63,"ss":36,"used":true},{"PRN":28,"el":22,"az":23,"ss":37,"used":true},{"PRN":9,"el":18,"az":156,"ss":0,"used":false},{"PRN":30,"el":15,"az":73,"ss":0,"used":false},{"PRN":23,"el":14,"az":223,"ss":0,"used":false},{"PRN":22,"el":6,"az":31,"ss":0,"used":false},{"PRN":8,"el":1,"az":208,"ss":0,"used":false},{"PRN":137,"el":28,"az":172,"ss":0,"used":false},{"PRN":134,"el":26,"az":203,"ss":0,"used":false}]}
$GPZDA,055056.00,04,07,2009,00,00*6D
$GPGGA,055055,5333.7867,N,11326.3743,W,1,05,3.10,631.87,M,,,*2F
$GPRMC,055055,A,5333.7867,N,11326.3743,W,0.0000,0.000,040709,,*39
$GPGSA,A,3,01,11,29,03,28,,,,,,,,5.2,3.1,3.3*34
$GPGBS,055055,31.47,M,35.54,M,75.90,M*03
{"class":"TPV","tag":"SS2-20","mode":3,"time":"2009-07-04T05:50:55.000Z","ept":0.005,"lat":53.563111922,"lon":-113.439572138,"alt":631.867,"epx":31.470,"epy":35.543,"epv":75.900,"track":0.0000,"speed":0.000,"climb":0.000,"eps":71.09}
$GPGSV,3,1,12,01,76,110,50,11,67,212,50,29,55,030,39,03,41,063,36*7C
$GPGSV,3,2,12,28,22,023,37,09,18,156,00,30,15,073,00,23,14,223,00*72
$GPGSV,3,3,12,22,06,031,00,08,01,208,00,137,28,172,00,134,26,203,00*75
{"class":"SKY","tag":"SS2-33","xdop":2.10,"ydop":2.37,"vdop":3.30,"tdop":3.58,"hdop":3.10,"gdop":6.31,"pdop":5.20,"satellites":[{"PRN":1,"el":76,"az":110,"ss":50,"used":true},{"PRN":11,"el":67,"az":212,"ss":50,"used":true},{"PRN":29,"el":55,"az":30,"ss":39,"used":true},{"PRN":3,"el":41,"az":63,"ss":36,"used":true},{"PRN":28,"el":22,"az":23,"ss":37,"used":true},{"PRN":9,"el":18,"az":156,"ss":0,"used":false},{"PRN":30,"el":15,"az":73,"ss":0,"used":false},{"PRN":23,"el":14,"az":223,"ss":0,"used":false},{"PRN":22,"el":6,"az":31,"ss":0,"used":false},{"PRN":8,"el":1,"az":208,"ss":0,"used":false},{"PRN":137,"el":28,"az":172,"ss":0,"used":false},{"PRN":134,"el":26,"az":203,"ss":0,"used":false}]}
$GPZDA,055057.00,04,07,2009,00,00*6C
$GPGGA,055056,5333.7867,N,11326.3744,W,1,05,3.10,631.94,M,,,*29
$GPRMC,055056,A,5333.7867,N,11326.3744,W,0.0000,0.000,040709,,*3D
$GPGSA,A,3,01,11,29,03,28,,,,,,,,5.2,3.1,3.3*34
$GPGBS,055056,31.47,M,35.54,M,75.90,M*00
{"class":"TPV","tag":"SS2-20","mode":3,"time":"2009-07-04T05:50:56.000Z","ept":0.005,"lat":53.563111644,"lon":-113.439572583,"alt":631.943,"epx":31.470,"epy":35.543,"epv":75.900,"track":0.0000,"speed":0.000,"climb":0.000,"eps":71.09}
$GPGSV,3,1,12,01,76,110,50,11,67,212,50,29,55,030,40,03,41,063,36*72
$GPGSV,3,2,12,28,22,023,37,09,18,156,00,30,15,073,00,23,14,223,00*72
$GPGSV,3,3,12,22,06,031,00,08,01,208,00,137,28,172,00,134,26,203,00*75
{"class":"SKY","tag":"SS2-33","xdop":2.10,"ydop":2.37,"vdop":3.30,"tdop":3.58,"hdop":3.10,"gdop":6.31,"pdop":5.20,"satellites":[{"PRN":1,"el":76,"az":110,"ss":50,"used":true},{"PRN":11,"el":67,"az":212,"ss":50,"used":true},{"PRN":29,"el":55,"az":30,"ss":40,"used":true},{"PRN":3,"el":41,"az":63,"ss":36,"used":true},{"PRN":28,"el":22,"az":23,"ss":37,"used":true},{"PRN":9,"el":18,"az":156,"ss":0,"used":false},{"PRN":30,"el":15,"az":73,"ss":0,"used":false},{"PRN":23,"el":14,"az":223,"ss":0,"used":false},{"PRN":22,"el":6,"az":31,"ss":0,"used":false},{"PRN":8,"el":1,"az":208,"ss":0,"used":false},{"PRN":137,"el":28,"az":172,"ss":0,"used":false},{"PRN":134,"el":26,"az":203,"ss":0,"used":false}]}
$GPZDA,055058.00,04,07,2009,00,00*63
$GPGGA,055057,5333.7867,N,11326.3744,W,1,05,3.10,632.00,M,,,*26
$GPRMC,055057,A,5333.7867,N,11326.3744,W,0.0000,0.000,040709,,*3C
$GPGSA,A,3,01,11,29,03,28,,,,,,,,5.2,3.1,3.3*34
$GPGBS,055057,31.47,M,35.54,M,75.90,M*01
{"class":"TPV","tag":"SS2-20","mode":3,"time":"2009-07-04T05:50:57.000Z","ept":0.005,"lat":53.563111100,"lon":-113.439573094,"alt":632.002,"epx":31.470,"epy":35.543,"epv":75.900,"track":0.0000,"speed":0.000,"climb":0.000,"eps":71.09}
$GPGSV,3,1,12,01,76,110,50,11,67,212,50,29,55,030,40,03,41,063,36*72
$GPGSV,3,2,12,28,22,023,36,09,18,156,00,30,15,073,00,23,14,223,00*73
$GPGSV,3,3,12,22,06,031,00,08,01,208,00,137,28,172,00,134,26,203,00*75
{"class":"SKY","tag":"SS2-33","xdop":2.10,"ydop":2.37,"vdop":3.30,"tdop":3.58,"hdop":3.10,"gdop":6.31,"pdop":5.20,"satellites":[{"PRN":1,"el":76,"az":110,"ss":50,"used":true},{"PRN":11,"el":67,"az":212,"ss":50,"used":true},{"PRN":29,"el":55,"az":30,"ss":40,"used":true},{"PRN":3,"el":41,"az":63,"ss":36,"used":true},{"PRN":28,"el":22,"az":23,"ss":36,"used":true},{"PRN":9,"el":18,"az":156,"ss":0,"used":false},{"PRN":30,"el":15,"az":73,"ss":0,"used":false},{"PRN":23,"el":14,"az":223,"ss":0,"used":false},{"PRN":22,"el":6,"az":31,"ss":0,"used":false},{"PRN":8,"el":1,"az":208,"ss":0,"used":false},{"PRN":137,"el":28,"az":172,"ss":0,"used":false},{"PRN":134,"el":26,"az":203,"ss":0,"used":false}]}
$GPZDA,055059.00,04,07,2009,00,00*62
$GPGGA,055058,5333.7866,N,11326.3744,W,1,05,3.10,632.09,M,,,*21
$GPRMC,055058,A,5333.7866,N,11326.3744,W,0.0000,0.000,040709,,*32
$GPGSA,A,3,01,11,29,03,28,,,,,,,,5.2,3.1,3.3*34
$GPGBS,055058,31.47,M,35.54,M,75.90,M*0E
{"class":"TPV","tag":"SS2-20","mode":3,"time":"2009-07-04T05:50:58.000Z","ept":0.005,"lat":53.563110659,"lon":-113.439573808,"alt":632.093,"epx":31.470,"epy":35.543,"epv":75.900,"track":0.0000,"speed":0.000,"climb":0.000,"eps":71.09}
$GPGSV,3,1,12,01,76,110,50,11,67,212,50,29,55,030,39,03,41,063,36*7C
$GPGSV,3,2,12,28,22,023,37,09,18,156,00,30,15,073,00,23,14,223,00*72
$GPGSV,3,3,12,22,06,031,00,08,01,208,00,137,28,172,00,134,26,203,00*75
{"class":"SKY","tag":"SS2-33","xdop":2.10,"ydop":2.37,"vdop":3.30,"tdop":3.58,"hdop":3.10,"gdop":6.31,"pdop":5.20,"satellites":[{"PRN":1,"el":76,"az":110,"ss":50,"used":true},{"PRN":11,"el":67,"az":212,"ss":50,"used":true},{"PRN":29,"el":55,"az":30,"ss":39,"used":true},{"PRN":3,"el":41,"az":63,"ss":36,"used":true},{"PRN":28,"el":22,"az":23,"ss":37,"used":true},{"PRN":9,"el":18,"az":156,"ss":0,"used":false},{"PRN":30,"el":15,"az":73,"ss":0,"used":false},{"PRN":23,"el":14,"az":223,"ss":0,"used":false},{"PRN":22,"el":6,"az":31,"ss":0,"used":false},{"PRN":8,"el":1,"az":208,"ss":0,"used":false},{"PRN":137,"el":28,"az":172,"ss":0,"used":false},{"PRN":134,"el":26,"az":203,"ss":0,"used":false}]}
$GPZDA,055060.00,04,07,2009,00,00*68
$GPGGA,055059,5333.7866,N,11326.3745,W,1,05,3.10,632.20,M,,,*2A
$GPRMC,055059,A,5333.7866,N,11326.3745,W,0.0000,0.000,040709,,*32
$GPGSA,A,3,01,11,29,03,28,,,,,,,,5.2,3.1,3.3*34
$GPGBS,055059,31.47,M,35.54,M,75.90,M*0F
{"class":"TPV","tag":"SS2-20","mode":3,"time":"2009-07-04T05:50:59.000Z","ept":0.005,"lat":53.563110309,"lon":-113.439574638,"alt":632.204,"epx":31.470,"epy":35.543,"epv":75.900,"track":0.0000,"speed":0.000,"climb":0.000,"eps":71.09}
$GPGSV,3,1,12,01,76,110,50,11,67,212,50,29,55,030,40,03,41,063,36*72
$GPGSV,3,2,12,28,22,023,36,09,18,156,00,30,15,073,00,23,14,223,00*73
$GPGSV,3,3,12,22,06,031,00,08,01,208,00,137,28,172,00,134,26,203,00*75
{"class":"SKY","tag":"SS2-33","xdop":2.10,"ydop":2.37,"vdop":3.30,"tdop":3.58,"hdop":3.10,"gdop":6.31,"pdop":5.20,"satellites":[{"PRN":1,"el":76,"az":110,"ss":50,"used":true},{"PRN":11,"el":67,"az":212,"ss":50,"used":true},{"PRN":29,"el":55,"az":30,"ss":40,"used":true},{"PRN":3,"el":41,"az":63,"ss":36,"used":true},{"PRN":28,"el":22,"az":23,"ss":36,"used":true},{"PRN":9,"el":18,"az":156,"ss":0,"used":false},{"PRN":30,"el":15,"az":73,"ss":0,"used":false},{"PRN":23,"el":14,"az":223,"ss":0,"used":false},{"PRN":22,"el":6,"az":31,"ss":0,"used":false},{"PRN":8,"el":1,"az":208,"ss":0,"used":false},{"PRN":137,"el":28,"az":172,"ss":0,"used":false},{"PRN":134,"el":26,"az":203,"ss":0,"used":false}]}
$GPZDA,055101.00,04,07,2009,00,00*6E
$GPGGA,055100,5333.7866,N,11326.3745,W,1,05,3.10,632.27,M,,,*20
$GPRMC,055100,A,5333.7866,N,11326.3745,W,0.0000,0.000,040709,,*3F
$GPGSA,A,3,01,11,29,03,28,,,,,,,,5.2,3.1,3.3*34
$GPGBS,055100,31.47,M,35.54,M,75.90,M*02
{"class":"TPV","tag":"SS2-20","mode":3,"time":"2009-07-04T05:51:00.000Z","ept":0.005,"lat":53.563109836,"lon":-113.439575270,"alt":632.266,"epx":31.470,"epy":35.543,"epv":75.900,"track":0.0000,"speed":0.000,"climb":0.000,"eps":71.09}
$GPGSV,3,1,12,01,76,110,50,11,67,212,50,29,55,030,40,03,41,063,36*72
$GPGSV,3,2,12,28,22,023,36,09,18,156,00,30,15,073,00,23,14,223,00*73
$GPGSV,3,3,12,22,06,031,00,08,01,208,00,137,28,172,00,134,26,203,00*75
{"class":"SKY","tag":"SS2-33","xdop":2.10,"ydop":2.37,"vdop":3.30,"tdop":3.58,"hdop":3.10,"gdop":6.31,"pdop":5.20,"satellites":[{"PRN":1,"el":76,"az":110,"ss":50,"used":true},{"PRN":11,"el":67,"az":212,"ss":50,"used":true},{"PRN":29,"el":55,"az":30,"ss":40,"used":true},{"PRN":3,"el":41,"az":63,"ss":36,"used":true},{"PRN":28,"el":22,"az":23,"ss":36,"used":true},{"PRN":9,"el":18,"az":156,"ss":0,"used":false},{"PRN":30,"el":15,"az":73,"ss":0,"used":false},{"PRN":23,"el":14,"az":223,"ss":0,"used":false},{"PRN":22,"el":6,"az":31,"ss":0,"used":false},{"PRN":8,"el":1,"az":208,"ss":0,"used":false},{"PRN":137,"el":28,"az":172,"ss":0,"used":false},{"PRN":134,"el":26,"az":203,"ss":0,"used":false}]}
$GPZDA,055102.00,04,07,2009,00,00*6D
$GPGGA,055101,5333.7866,N,11326.3745,W,1,05,3.10,632.29,M,,,*2F
$GPRMC,055101,A,5333.7866,N,11326.3745,W,0.0000,0.000,040709,,*3E
$GPGSA,A,3,01,11,29,03,28,,,,,,,,5.2,3.1,3.4*33
$GPGBS,055101,31.47,M,35.54,M,78.20,M*05
{"class":"TPV","tag":"SS2-20","mode":3,"time":"2009-07-04T05:51:01.000Z","ept":0.005,"lat":53.563109239,"lon":-113.439575706,"alt":632.286,"epx":31.470,"epy":35.543,"epv":78.200,"track":0.0000,"speed":0.000,"climb":0.000,"eps":71.09}
$GPGSV,3,1,12,01,76,110,49,11,67,212,50,29,55,030,41,03,41,063,37*7A
$GPGSV,3,2,12,28,22,023,37,09,18,156,00,30,15,073,00,23,14,223,00*72
$GPGSV,3,3,12,22,06,031,00,08,01,208,00,137,28,172,00,134,26,203,00*75
{"class":"SKY","tag":"SS2-33","xdop":2.10,"ydop":2.37,"vdop":3.40,"tdop":3.58,"hdop":3.10,"gdop":6.31,"pdop":5.20,"satellites":[{"PRN":1,"el":76,"az":110,"ss":49,"used":true},{"PRN":11,"el":67,"az":212,"ss":50,"used":true},{"PRN":29,"el":55,"az":30,"ss":41,"used":true},{"PRN":3,"el":41,"az":63,"ss":37,"used":true},{"PRN":28,"el":22,"az":23,"ss":37,"used":true},{"PRN":9,"el":18,"az":156,"ss":0,"used":false},{"PRN":30,"el":15,"az":73,"ss":0,"used":false},{"PRN":23,"el":14,"az":223,"ss":0,"used":false},{"PRN":22,"el":6,"az":31,"ss":0,"used":false},{"PRN":8,"el":1,"az":208,"ss":0,"used":false},{"PRN":137,"el":28,"az":172,"ss":0,"used":false},{"PRN":134,"el":26,"az":203,"ss":0,"used":false}]}
$GPZDA,055103.00,04,07,2009,00,00*6C
$GPGGA,055102,5333.7865,N,11326.3746,W,1,05,3.10,632.27,M,,,*22
$GPRMC,055102,A,5333.7865,N,11326.3746,W,0.0000,0.000,040709,,*3D
$GPGSA,A,3,01,11,29,03,28,,,,,,,,5.2,3.1,3.4*33
$GPGBS,055102,31.47,M,35.54,M,78.20,M*06
{"class":"TPV","tag":"SS2-20","mode":3,"time":"2009-07-04T05:51:02.000Z","ept":0.005,"lat":53.563108537,"lon":-113.439576170,"alt":632.275,"epx":31.470,"epy":35.543,"epv":78.200,"track":0.0000,"speed":0.000,"climb":0.000,"eps":71.09}
$GPGSV,3,1,12,01,76,110,50,11,67,212,50,29,55,030,41,03,41,063,37*72
$GPGSV,3,2,12,28,22,023,36,09,18,156,00,30,15,073,00,23,14,223,00*73
$GPGSV,3,3,12,22,06,031,00,08,01,208,00,137,28,172,00,134,26,203,00*75
{"class":"SKY","tag":"SS2-33","xdop":2.10,"ydop":2.37,"vdop":3.40,"tdop":3.58,"hdop":3.10,"gdop":6.31,"pdop":5.20,"satellites":[{"PRN":1,"el":76,"az":110,"ss":50,"used":true},{"PRN":11,"el":67,"az":212,"ss":50,"used":true},{"PRN":29,"el":55,"az":30,"ss":41,"used":true},{"PRN":3,"el":41,"az":63,"ss":37,"used":true},{"PRN":28,"el":22,"az":23,"ss":36,"used":true},{"PRN":9,"el":18,"az":156,"ss":0,"used":false},{"PRN":30,"el":15,"az":73,"ss":0,"used":false},{"PRN":23,"el":14,"az":223,"ss":0,"used":false},{"PRN":22,"el":6,"az":31,"ss":0,"used":false},{"PRN":8,"el":1,"az":208,"ss":0,"used":false},{"PRN":137,"el":28,"az":172,"ss":0,"used":false},{"PRN":134,"el":26,"az":203,"ss":0,"used":false}]}
$GPZDA,055104.00,04,07,2009,00,00*6B
$GPGGA,055103,5333.7865,N,11326.3746,W,1,05,3.10,632.22,M,,,*26
$GPRMC,055103,A,5333.7865,N,11326.3746,W,0.0000,0.000,040709,,*3C
$GPGSA,A,3,01,11,29,03,28,,,,,,,,5.2,3.1,3.4*33
$GPGBS,055103,31.47,M,35.54,M,78.20,M*07
{"class":"TPV","tag":"SS2-20","mode":3,"time":"2009-07-04T05:51:03.000Z","ept":0.005,"lat":53.563107673,"lon":-113.439576457,"alt":632.222,"epx":31.470,"epy":35.543,"epv":78.200,"track":0.0000,"speed":0.000,"climb":0.000,"eps":71.09}
$GPGSV,3,1,12,01,76,110,50,11,67,212,50,29,55,030,41,03,41,063,37*72
$GPGSV,3,2,12,28,22,023,36,09,18,156,00,30,15,073,00,23,14,223,00*73
$GPGSV,3,3,12,22,06,031,00,08,01,208,00,137,28,172,00,134,26,203,00*75
{"class":"SKY","tag":"SS2-33","xdop":2.10,"ydop":2.37,"vdop":3.40,"tdop":3.58,"hdop":3.10,"gdop":6.31,"pdop":5.20,"satellites":[{"PRN":1,"el":76,"az":110,"ss":50,"used":true},{"PRN":11,"el":67,"az":212,"ss":50,"used":true},{"PRN":29,"el":55,"az":30,"ss":41,"used":true},{"PRN":3,"el":41,"az":63,"ss":37,"used":true},{"PRN":28,"el":22,"az":23,"ss":36,"used":true},{"PRN":9,"el":18,"az":156,"ss":0,"used":false},{"PRN":30,"el":15,"az":73,"ss":0,"used":false},{"PRN":23,"el":14,"az":223,"ss":0,"used":false},{"PRN":22,"el":6,"az":31,"ss":0,"used":false},{"PRN":8,"el":1,"az":208,"ss":0,"used":false},{"PRN":137,"el":28,"az":172,"ss":0,"used":false},{"PRN":134,"el":26,"az":203,"ss":0,"used":false}]}
$GPZDA,055105.00,04,07,2009,00,00*6A
$GPGGA,055104,5333.7864,N,11326.3746,W,1,05,3.10,632.11,M,,,*20
$GPRMC,055104,A,5333.7864,N,11326.3746,W,0.0000,0.000,040709,,*3A
$GPGSA,A,3,01,11,29,03,28,,,,,,,,5.2,3.1,3.4*33
$GPGBS,055104,31.47,M,35.54,M,78.20,M*00
{"class":"TPV","tag":"SS2-20","mode":3,"time":"2009-07-04T05:51:04.000Z","ept":0.005,"lat":53.563106648,"lon":-113.439576625,"alt":632.115,"epx":31.470,"epy":35.543,"epv":78.200,"track":0.0000,"speed":0.000,"climb":0.000,"eps":71.09}
$GPGSV,3,1,12,01,76,110,49,11,67,212,50,29,55,030,41,03,41,063,37*7A
$GPGSV,3,2,12,28,22,023,37,09,18,156,00,30,15,073,00,23,14,223,00*72
$GPGSV,3,3,12,22,06,031,00,08,01,208,00,137,28,172,00,134,26,203,00*75
{"class":"SKY","tag":"SS2-33","xdop":2.10,"ydop":2.37,"vdop":3.40,"tdop":3.58,"hdop":3.10,"gdop":6.31,"pdop":5.20,"satellites":[{"PRN":1,"el":76,"az":110,"ss":49,"used":true},{"PRN":11,"el":67,"az":212,"ss":50,"used":true},{"PRN":29,"el":55,"az":30,"ss":41,"used":true},{"PRN":3,"el":41,"az":63,"ss":37,"used":true},{"PRN":28,"el":22,"az":23,"ss":37,"used":true},{"PRN":9,"el":18,"az":156,"ss":0,"used":false},{"PRN":30,"el":15,"az":73,"ss":0,"used":false},{"PRN":23,"el":14,"az":223,"ss":0,"used":false},{"PRN":22,"el":6,"az":31,"ss":0,"used":false},{"PRN":8,"el":1,"az":208,"ss":0,"used":false},{"PRN":137,"el":28,"az":172,"ss":0,"used":false},{"PRN":134,"el":26,"az":203,"ss":0,"used":false}]}
$GPZDA,055106.00,04,07,2009,00,00*69
$GPGGA,055105,5333.7863,N,11326.3746,W,1,05,3.10,631.96,M,,,*2A
$GPRMC,055105,A,5333.7863,N,11326.3746,W,0.0000,0.000,040709,,*3C
$GPGSA,A,3,01,11,29,03,28,,,,,,,,5.2,3.1,3.4*33
$GPGBS,055105,31.47,M,35.54,M,78.20,M*01
{"class":"TPV","tag":"SS2-20","mode":3,"time":"2009-07-04T05:51:05.000Z","ept":0.005,"lat":53.563105560,"lon":-113.439576682,"alt":631.959,"epx":31.470,"epy":35.543,"epv":78.200,"track":0.0000,"speed":0.000,"climb":0.000,"eps":71.09}
$GPGSV,3,1,12,01,76,110,50,11,67,212,50,29,55,030,41,03,41,063,37*72
$GPGSV,3,2,12,28,22,023,37,09,18,156,00,30,15,073,00,23,14,223,00*72
$GPGSV,3,3,12,22,06,031,00,08,01,208,00,137,28,172,00,134,26,203,00*75
{"class":"SKY","tag":"SS2-33","xdop":2.10,"ydop":2.37,"vdop":3.40,"tdop":3.58,"hdop":3.10,"gdop":6.31,"pdop":5.20,"satellites":[{"PRN":1,"el":76,"az":110,"ss":50,"used":true},{"PRN":11,"el":67,"az":212,"ss":50,"used":true},{"PRN":29,"el":55,"az":30,"ss":41,"used":true},{"PRN":3,"el":41,"az":63,"ss":37,"used":true},{"PRN":28,"el":22,"az":23,"ss":37,"used":true},{"PRN":9,"el":18,"az":156,"ss":0,"used":false},{"PRN":30,"el":15,"az":73,"ss":0,"used":false},{"PRN":23,"el":14,"az":223,"ss":0,"used":false},{"PRN":22,"el":6,"az":31,"ss":0,"used":false},{"PRN":8,"el":1,"az":208,"ss":0,"used":false},{"PRN":137,"el":28,"az":172,"ss":0,"used":false},{"PRN":134,"el":26,"az":203,"ss":0,"used":false}]}
$GPZDA,055107.00,04,07,2009,00,00*68
$GPGGA,055106,5333.7863,N,11326.3746,W,1,05,3.10,631.78,M,,,*29
$GPRMC,055106,A,5333.7863,N,11326.3746,W,0.0000,0.000,040709,,*3F
$GPGSA,A,3,01,11,29,03,28,,,,,,,,5.2,3.1,3.4*33
$GPGBS,055106,31.47,M,35.54,M,78.20,M*02
{"class":"TPV","tag":"SS2-20","mode":3,"time":"2009-07-04T05:51:06.000Z","ept":0.005,"lat":53.563104408,"lon":-113.439576625,"alt":631.784,"epx":31.470,"epy":35.543,"epv":78.200,"track":0.0000,"speed":0.000,"climb":0.000,"eps":71.09}
$GPGSV,3,1,12,01,76,110,50,11,67,212,50,29,55,030,41,03,41,063,37*72
$GPGSV,3,2,12,28,22,023,37,09,18,156,00,30,15,073,00,23,14,223,00*72
$GPGSV,3,3,12,22,06,031,00,08,01,208,00,137,28,172,00,134,26,203,00*75
{"class":"SKY","tag":"SS2-33","xdop":2.10,"ydop":2.37,"vdop":3.40,"tdop":3.58,"hdop":3.10,"gdop":6.31,"pdop":5.20,"satellites":[{"PRN":1,"el":76,"az":110,"ss":50,"used":true},{"PRN":11,"el":67,"az":212,"ss":50,"used":true},{"PRN":29,"el":55,"az":30,"ss":41,"used":true},{"PRN":3,"el":41,"az":63,"ss":37,"used":true},{"PRN":28,"el":22,"az":23,"ss":37,"used":true},{"PRN":9,"el":18,"az":156,"ss":0,"used":false},{"PRN":30,"el":15,"az":73,"ss":0,"used":false},{"PRN":23,"el":14,"az":223,"ss":0,"used":false},{"PRN":22,"el":6,"az":31,"ss":0,"used":false},{"PRN":8,"el":1,"az":208,"ss":0,"used":false},{"PRN":137,"el":28,"az":172,"ss":0,"used":false},{"PRN":134,"el":26,"az":203,"ss":0,"used":false}]}
$GPZDA,055108.00,04,07,2009,00,00*67
$GPGGA,055107,5333.7862,N,11326.3746,W,1,05,3.10,631.63,M,,,*23
$GPRMC,055107,A,5333.7862,N,11326.3746,W,0.0000,0.000,040709,,*3F
$GPGSA,A,3,01,11,29,03,28,,,,,,,,5.2,3.1,3.4*33
$GPGBS,055107,31.47,M,35.54,M,78.20,M*03
{"class":"TPV","tag":"SS2-20","mode":3,"time":"2009-07-04T05:51:07.000Z","ept":0.005,"lat":53.563103469,"lon":-113.439576547,"alt":631.627,"epx":31.470,"epy":35.543,"epv":78.200,"track":0.0000,"speed":0.000,"climb":0.000,"eps":71.09}
$GPGSV,3,1,12,01,76,110,50,11,67,212,50,29,55,030,41,03,41,063,38*7D
$GPGSV,3,2,12,28,22,023,37,09,18,156,00,30,15,073,00,23,14,223,00*72
$GPGSV,3,3,12,22,06,031,00,08,01,208,00,137,28,172,00,134,26,203,00*75
{"class":"SKY","tag":"SS2-33","xdop":2.10,"ydop":2.37,"vdop":3.40,"tdop":3.58,"hdop":3.10,"gdop":6.31,"pdop":5.20,"satellites":[{"PRN":1,"el":76,"az":110,"ss":50,"used":true},{"PRN":11,"el":67,"az":212,"ss":50,"used":true},{"PRN":29,"el":55,"az":30,"ss":41,"used":true},{"PRN":3,"el":41,"az":63,"ss":38,"used":true},{"PRN":28,"el":22,"az":23,"ss":37,"used":true},{"PRN":9,"el":18,"az":156,"ss":0,"used":false},{"PRN":30,"el":15,"az":73,"ss":0,"used":false},{"PRN":23,"el":14,"az":223,"ss":0,"used":false},{"PRN":22,"el":6,"az":31,"ss":0,"used":false},{"PRN":8,"el":1,"az":208,"ss":0,"used":false},{"PRN":137,"el":28,"az":172,"ss":0,"used":false},{"PRN":134,"el":26,"az":203,"ss":0,"used":false}]}
$GPZDA,055109.00,04,07,2009,00,00*66
$GPGGA,055108,5333.7862,N,11326.3746,W,1,05,3.10,631.50,M,,,*2C
$GPRMC,055108,A,5333.7862,N,11326.3746,W,0.0000,0.000,040709,,*30
$GPGSA,A,3,01,11,29,03,28,,,,,,,,5.2,3.1,3.4*33
$GPGBS,055108,31.47,M,35.54,M,78.20,M*0C
{"class":"TPV","tag":"SS2-20","mode":3,"time":"2009-07-04T05:51:08.000Z","ept":0.005,"lat":53.563102745,"lon":-113.439576417,"alt":631.497,"epx":31.470,"epy":35.543,"epv":78.200,"track":0.0000,"speed":0.000,"climb":0.000,"eps":71.09}
$GPGSV,3,1,12,01,76,110,50,11,67,212,50,29,55,030,40,03,41,063,38*7C
$GPGSV,3,2,12,28,22,023,37,09,18,156,00,30,15,073,34,23,14,223,00*75
$GPGSV,3,3,12,22,06,031,00,08,01,208,00,137,28,172,00,134,26,203,00*75
{"class":"SKY","tag":"SS2-33","xdop":2.10,"ydop":2.37,"vdop":3.40,"tdop":3.58,"hdop":3.10,"gdop":6.31,"pdop":5.20,"satellites":[{"PRN":1,"el":76,"az":110,"ss":50,"used":true},{"PRN":11,"el":67,"az":212,"ss":50,"used":true},{"PRN":29,"el":55,"az":30,"ss":40,"used":true},{"PRN":3,"el":41,"az":63,"ss":38,"used":true},{"PRN":28,"el":22,"az":23,"ss":37,"used":true},{"PRN":9,"el":18,"az":156,"ss":0,"used":false},{"PRN":30,"el":15,"az":73,"ss":34,"used":false},{"PRN":23,"el":14,"az":223,"ss":0,"used":false},{"PRN":22,"el":6,"az":31,"ss":0,"used":false},{"PRN":8,"el":1,"az":208,"ss":0,"used":false},{"PRN":137,"el":28,"az":172,"ss":0,"used":false},{"PRN":134,"el":26,"az":203,"ss":0,"used":false}]}
$GPZDA,055110.00,04,07,2009,00,00*6E
$GPGGA,055109,5333.7861,N,11326.3746,W,1,05,3.10,631.39,M,,,*21
$GPRMC,055109,A,5333.7861,N,11326.3746,W,0.0000,0.000,040709,,*32
$GPGSA,A,3,01,11,29,03,28,,,,,,,,5.2,3.1,3.4*33
$GPGBS,055109,31.47,M,35.54,M,78.20,M*0D
{"class":"TPV","tag":"SS2-20","mode":3,"time":"2009-07-04T05:51:09.000Z","ept":0.005,"lat":53.563102075,"lon":-113.439576213,"alt":631.388,"epx":31.470,"epy":35.543,"epv":78.200,"track":0.0000,"speed":0.000,"climb":0.000,"eps":71.09}
$GPGSV,3,1,12,01,76,110,49,11,67,212,50,29,55,030,41,03,41,063,38*75
$GPGSV,3,2,12,28,22,023,37,09,18,156,00,30,15,073,34,23,14,223,00*75
$GPGSV,3,3,12,22,06,031,00,08,01,208,00,137,28,172,00,134,26,203,00*75
{"class":"SKY","tag":"SS2-33","xdop":2.10,"ydop":2.37,"vdop":3.40,"tdop":3.58,"hdop":3.10,"gdop":6.31,"pdop":5.20,"satellites":[{"PRN":1,"el":76,"az":110,"ss":49,"used":true},{"PRN":11,"el":67,"az":212,"ss":50,"used":true},{"PRN":29,"el":55,"az":30,"ss":41,"used":true},{"PRN":3,"el":41,"az":63,"ss":38,"used":true},{"PRN":28,"el":22,"az":23,"ss":37,"used":true},{"PRN":9,"el":18,"az":156,"ss":0,"used":false},{"PRN":30,"el":15,"az":73,"ss":34,"used":false},{"PRN":23,"el":14,"az":223,"ss":0,"used":false},{"PRN":22,"el":6,"az":31,"ss":0,"used":false},{"PRN":8,"el":1,"az":208,"ss":0,"used":false},{"PRN":137,"el":28,"az":172,"ss":0,"used":false},{"PRN":134,"el":26,"az":203,"ss":0,"used":false}]}
$GPZDA,055111.00,04,07,2009,00,00*6F
$GPGGA,055110,5333.7861,N,11326.3746,W,1,05,3.10,631.30,M,,,*20
$GPRMC,055110,A,5333.7861,N,11326.3746,W,0.0000,0.000,040709,,*3A
$GPGSA,A,3,01,11,29,03,28,,,,,,,,5.2,3.1,3.4*33
$GPGBS,055110,31.47,M,35.54,M,78.20,M*05
{"class":"TPV","tag":"SS2-20","mode":3,"time":"2009-07-04T05:51:10.000Z","ept":0.005,"lat":53.563101528,"lon":-113.439576072,"alt":631.303,"epx":31.470,"epy":35.543,"epv":78.200,"track":0.0000,"speed":0.000,"climb":0.000,"eps":71.09}
$GPGSV,3,1,12,01,76,110,49,11,67,212,50,29,55,030,41,03,41,063,38*75
$GPGSV,3,2,12,28,22,023,37,09,18,156,00,30,15,073,34,23,14,223,00*75
$GPGSV,3,3,12,22,06,031,00,08,01,208,00,137,28,172,00,134,26,203,00*75
{"class":"SKY","tag":"SS2-33","xdop":2.10,"ydop":2.37,"vdop":3.40,"tdop":3.58,"hdop":3.10,"gdop":6.31,"pdop":5.20,"satellites":[{"PRN":1,"el":76,"az":110,"ss":49,"used":true},{"PRN":11,"el":67,"az":212,"ss":50,"used":true},{"PRN":29,"el":55,"az":30,"ss":41,"used":true},{"PRN":3,"el":41,"az":63,"ss":38,"used":true},{"PRN":28,"el":22,"az":23,"ss":37,"used":true},{"PRN":9,"el":18,"az":156,"ss":0,"used":false},{"PRN":30,"el":15,"az":73,"ss":34,"used":false},{"PRN":23,"el":14,"az":223,"ss":0,"used":false},{"PRN":22,"el":6,"az":31,"ss":0,"used":false},{"PRN":8,"el":1,"az":208,"ss":0,"used":false},{"PRN":137,"el":28,"az":172,"ss":0,"used":false},{"PRN":134,"el":26,"az":203,"ss":0,"used":false}]}
$GPZDA,055112.00,04,07,2009,00,00*6C
$GPGGA,055111,5333.7861,N,11326.3746,W,1,05,3.10,631.22,M,,,*22
$GPRMC,055111,A,5333.7861,N,11326.3746,W,0.0000,0.000,040709,,*3B
$GPGSA,A,3,01,11,29,03,28,,,,,,,,5.2,3.1,3.4*33
$GPGBS,055111,31.47,M,35.54,M,78.20,M*04
{"class":"TPV","tag":"SS2-20","mode":3,"time":"2009-07-04T05:51:11.000Z","ept":0.005,"lat":53.563101008,"lon":-113.439575973,"alt":631.222,"epx":31.470,"epy":35.543,"epv":78.200,"track":0.0000,"speed":0.000,"climb":0.000,"eps":71.09}
$GPGSV,3,1,12,01,76,110,50,11,67,212,50,29,55,030,40,03,41,063,38*7C
$GPGSV,3,2,12,28,22,023,37,09,18,156,00,30,15,073,34,23,14,223,00*75
$GPGSV,3,3,12,22,06,031,00,08,01,208,00,137,28,172,00,134,26,203,00*75
{"class":"SKY","tag":"SS2-33","xdop":2.10,"ydop":2.37,"vdop":3.40,"tdop":3.58,"hdop":3.10,"gdop":6.31,"pdop":5.20,"satellites":[{"PRN":1,"el":76,"az":110,"ss":50,"used":true},{"PRN":11,"el":67,"az":212,"ss":50,"used":true},{"PRN":29,"el":55,"az":30,"ss":40,"used":true},{"PRN":3,"el":41,"az":63,"ss":38,"used":true},{"PRN":28,"el":22,"az":23,"ss":37,"used":true},{"PRN":9,"el":18,"az":156,"ss":0,"used":false},{"PRN":30,"el":15,"az":73,"ss":34,"used":false},{"PRN":23,"el":14,"az":223,"ss":0,"used":false},{"PRN":22,"el":6,"az":31,"ss":0,"used":false},{"PRN":8,"el":1,"az":208,"ss":0,"used":false},{"PRN":137,"el":28,"az":172,"ss":0,"used":false},{"PRN":134,"el":26,"az":203,"ss":0,"used":false}]}
$GPZDA,055113.00,04,07,2009,00,00*6D
$GPGGA,055112,5333.7860,N,11326.3746,W,1,05,3.10,631.13,M,,,*22
$GPRMC,055112,A,5333.7860,N,11326.3746,W,0.0000,0.000,040709,,*39
$GPGSA,A,3,01,11,29,03,28,,,,,,,,5.2,3.1,3.4*33
$GPGBS,055112,31.47,M,35.54,M,78.20,M*07
{"class":"TPV","tag":"SS2-20","mode":3,"time":"2009-07-04T05:51:12.000Z","ept":0.005,"lat":53.563100377,"lon":-113.439575894,"alt":631.132,"epx":31.470,"epy":35.543,"epv":78.200,"track":0.0000,"speed":0.000,"climb":0.000,"eps":71.09}
$GPGSV,3,1,12,01,76,110,50,11,67,212,50,29,55,030,40,03,41,063,38*7C
$GPGSV,3,2,12,28,22,023,37,09,18,156,00,30,15,073,34,23,14,223,00*75
$GPGSV,3,3,12,22,06,031,00,08,01,208,00,137,28,172,00,134,26,203,00*75
{"class":"SKY","tag":"SS2-33","xdop":2.10,"ydop":2.37,"vdop":3.40,"tdop":3.58,"hdop":3.10,"gdop":6.31,"pdop":5.20,"satellites":[{"PRN":1,"el":76,"az":110,"ss":50,"used":true},{"PRN":11,"el":67,"az":212,"ss":50,"used":true},{"PRN":29,"el":55,"az":30,"ss":40,"used":true},{"PRN":3,"el":41,"az":63,"ss":38,"used":true},{"PRN":28,"el":22,"az":23,"ss":37,"used":true},{"PRN":9,"el":18,"az":156,"ss":0,"used":false},{"PRN":30,"el":15,"az":73,"ss":34,"used":false},{"PRN":23,"el":14,"az":223,"ss":0,"used":false},{"PRN":22,"el":6,"az":31,"ss":0,"used":false},{"PRN":8,"el":1,"az":208,"ss":0,"used":false},{"PRN":137,"el":28,"az":172,"ss":0,"used":false},{"PRN":134,"el":26,"az":203,"ss":0,"used":false}]}
$GPZDA,055114.00,04,07,2009,00,00*6A
$GPGGA,055113,5333.7860,N,11326.3745,W,1,05,3.10,631.04,M,,,*26
$GPRMC,055113,A,5333.7860,N,11326.3745,W,0.0000,0.000,040709,,*3B
$GPGSA,A,3,01,11,29,03,28,,,,,,,,5.2,3.1,3.4*33
$GPGBS,055113,31.47,M,35.54,M,78.20,M*06
{"class":"TPV","tag":"SS2-20","mode":3,"time":"2009-07-04T05:51:13.000Z","ept":0.005,"lat":53.563099621,"lon":-113.439575605,"alt":631.038,"epx":31.470,"epy":35.543,"epv":78.200,"track":0.0000,"speed":0.000,"climb":0.000,"eps":71.09}
$GPGSV,3,1,12,01,76,110,50,11,67,212,50,29,55,030,40,03,41,063,38*7C
$GPGSV,3,2,12,28,22,023,37,09,18,156,00,30,15,073,34,23,14,223,00*75
$GPGSV,3,3,12,22,06,031,00,08,01,208,00,137,28,172,00,134,26,203,00*75
{"class":"SKY","tag":"SS2-33","xdop":2.10,"ydop":2.37,"vdop":3.40,"tdop":3.58,"hdop":3.10,"gdop":6.31,"pdop":5.20,"satellites":[{"PRN":1,"el":76,"az":110,"ss":50,"used":true},{"PRN":11,"el":67,"az":212,"ss":50,"used":true},{"PRN":29,"el":55,"az":30,"ss":40,"used":true},{"PRN":3,"el":41,"az":63,"ss":38,"used":true},{"PRN":28,"el":22,"az":23,"ss":37,"used":true},{"PRN":9,"el":18,"az":156,"ss":0,"used":false},{"PRN":30,"el":15,"az":73,"ss":34,"used":false},{"PRN":23,"el":14,"az":223,"ss":0,"used":false},{"PRN":22,"el":6,"az":31,"ss":0,"used":false},{"PRN":8,"el":1,"az":208,"ss":0,"used":false},{"PRN":137,"el":28,"az":172,"ss":0,"used":false},{"PRN":134,"el":26,"az":203,"ss":0,"used":false}]}
$GPZDA,055115.00,04,07,2009,00,00*6B
$GPGGA,055114,5333.7859,N,11326.3745,W,1,05,3.10,630.98,M,,,*2F
$GPRMC,055114,A,5333.7859,N,11326.3745,W,0.0000,0.000,040709,,*36
$GPGSA,A,3,01,11,29,03,28,,,,,,,,5.2,3.1,3.4*33
$GPGBS,055114,31.47,M,35.54,M,78.20,M*01
{"class":"TPV","tag":"SS2-20","mode":3,"time":"2009-07-04T05:51:14.000Z","ept":0.005,"lat":53.563099084,"lon":-113.439575256,"alt":630.983,"epx":31.470,"epy":35.543,"epv":78.200,"track":0.0000,"speed":0.000,"climb":0.000,"eps":71.09}
$GPGSV,3,1,12,01,76,110,50,11,67,212,50,29,55,030,41,03,41,063,39*7C
$GPGSV,3,2,12,28,22,023,37,09,18,156,00,30,15,073,33,23,14,223,00*72
$GPGSV,3,3,12,22,06,031,00,08,01,208,00,137,28,172,00,134,26,203,00*75
{"class":"SKY","tag":"SS2-33","xdop":2.10,"ydop":2.37,"vdop":3.40,"tdop":3.58,"hdop":3.10,"gdop":6.31,"pdop":5.20,"satellites":[{"PRN":1,"el":76,"az":110,"ss":50,"used":true},{"PRN":11,"el":67,"az":212,"ss":50,"used":true},{"PRN":29,"el":55,"az":30,"ss":41,"used":true},{"PRN":3,"el":41,"az":63,"ss":39,"used":true},{"PRN":28,"el":22,"az":23,"ss":37,"used":true},{"PRN":9,"el":18,"az":156,"ss":0,"used":false},{"PRN":30,"el":15,"az":73,"ss":33,"used":false},{"PRN":23,"el":14,"az":223,"ss":0,"used":false},{"PRN":22,"el":6,"az":31,"ss":0,"used":false},{"PRN":8,"el":1,"az":208,"ss":0,"used":false},{"PRN":137,"el":28,"az":172,"ss":0,"used":false},{"PRN":134,"el":26,"az":203,"ss":0,"used":false}]}
$GPZDA,055116.00,04,07,2009,00,00*68
$GPGGA,055115,5333.7859,N,11326.3745,W,1,05,3.10,630.95,M,,,*23
$GPRMC,055115,A,5333.7859,N,11326.3745,W,0.0000,0.000,040709,,*37
$GPGSA,A,3,01,11,29,03,28,,,,,,,,5.2,3.1,3.4*33
$GPGBS,055115,31.47,M,35.54,M,78.20,M*00
{"class":"TPV","tag":"SS2-20","mode":3,"time":"2009-07-04T05:51:15.000Z","ept":0.005,"lat":53.563098573,"lon":-113.439574925,"alt":630.952,"epx":31.470,"epy":35.543,"epv":78.200,"track":0.0000,"speed":0.000,"climb":0.000,"eps":71.09}
$GPGSV,3,1,12,01,75,109,49,11,67,211,50,29,55,030,40,03,41,063,39*7D
$GPGSV,3,2,12,28,22,023,37,09,18,156,00,30,16,073,33,23,14,223,00*71
$GPGSV,3,3,12,22,06,031,00,08,01,208,00,137,28,172,00,134,26,203,00*75
{"class":"SKY","tag":"SS2-33","xdop":2.10,"ydop":2.37,"vdop":3.40,"tdop":3.58,"hdop":3.10,"gdop":6.31,"pdop":5.20,"satellites":[{"PRN":1,"el":75,"az":109,"ss":49,"used":true},{"PRN":11,"el":67,"az":211,"ss":50,"used":true},{"PRN":29,"el":55,"az":30,"ss":40,"used":true},{"PRN":3,"el":41,"az":63,"ss":39,"used":true},{"PRN":28,"el":22,"az":23,"ss":37,"used":true},{"PRN":9,"el":18,"az":156,"ss":0,"used":false},{"PRN":30,"el":16,"az":73,"ss":33,"used":false},{"PRN":23,"el":14,"az":223,"ss":0,"used":false},{"PRN":22,"el":6,"az":31,"ss":0,"used":false},{"PRN":8,"el":1,"az":208,"ss":0,"used":false},{"PRN":137,"el":28,"az":172,"ss":0,"used":false},{"PRN":134,"el":26,"az":203,"ss":0,"used":false}]}
$GPZDA,055117.00,04,07,2009,00,00*69
$GPGGA,055116,5333.7859,N,11326.3745,W,1,05,3.10,630.96,M,,,*23
$GPRMC,055116,A,5333.7859,N,11326.3745,W,0.0000,0.000,040709,,*34
$GPGSA,A,3,01,11,29,03,28,,,,,,,,5.2,3.1,3.4*33
$GPGBS,055116,31.47,M,35.54,M,78.20,M*03
{"class":"TPV","tag":"SS2-20","mode":3,"time":"2009-07-04T05:51:16.000Z","ept":0.005,"lat":53.563098187,"lon":-113.439574627,"alt":630.959,"epx":31.470,"epy":35.543,"epv":78.200,"track":0.0000,"speed":0.000,"climb":0.000,"eps":71.09}
$GPGSV,3,1,12,01,75,109,49,11,67,211,50,29,55,030,41,03,41,063,39*7C
$GPGSV,3,2,12,28,22,023,37,09,18,156,00,30,16,073,33,23,14,223,00*71
$GPGSV,3,3,12,22,06,031,00,08,01,208,00,137,28,172,00,134,26,203,00*75
{"class":"SKY","tag":"SS2-33","xdop":2.10,"ydop":2.37,"vdop":3.40,"tdop":3.58,"hdop":3.10,"gdop":6.31,"pdop":5.20,"satellites":[{"PRN":1,"el":75,"az":109,"ss":49,"used":true},{"PRN":11,"el":67,"az":211,"ss":50,"used":true},{"PRN":29,"el":55,"az":30,"ss":41,"used":true},{"PRN":3,"el":41,"az":63,"ss":39,"used":true},{"PRN":28,"el":22,"az":23,"ss":37,"used":true},{"PRN":9,"el":18,"az":156,"ss":0,"used":false},{"PRN":30,"el":16,"az":73,"ss":33,"used":false},{"PRN":23,"el":14,"az":223,"ss":0,"used":false},{"PRN":22,"el":6,"az":31,"ss":0,"used":false},{"PRN":8,"el":1,"az":208,"ss":0,"used":false},{"PRN":137,"el":28,"az":172,"ss":0,"used":false},{"PRN":134,"el":26,"az":203,"ss":0,"used":false}]}
$GPZDA,055118.00,04,07,2009,00,00*66
$GPGGA,055117,5333.7859,N,11326.3745,W,1,06,3.10,630.99,M,,,*2E
$GPRMC,055117,A,5333.7859,N,11326.3745,W,0.0000,0.000,040709,,*35
$GPGSA,A,3,01,11,29,03,28,,,,,,,,5.2,3.1,3.4*33
$GPGBS,055117,31.47,M,35.54,M,78.20,M*02
{"class":"TPV","tag":"SS2-20","mode":3,"time":"2009-07-04T05:51:17.000Z","ept":0.005,"lat":53.563098045,"lon":-113.439574382,"alt":630.990,"epx":31.470,"epy":35.543,"epv":78.200,"track":0.0000,"speed":0.000,"climb":0.000,"eps":71.09}
$GPGSV,3,1,12,01,75,109,49,11,67,211,50,29,55,030,40,03,41,063,39*7D
$GPGSV,3,2,12,28,22,023,37,09,18,156,00,30,16,073,33,23,14,223,00*71
$GPGSV,3,3,12,22,06,031,00,08,01,208,00,137,28,172,00,134,26,203,00*75
{"class":"SKY","tag":"SS2-33","xdop":2.10,"ydop":2.37,"vdop":3.40,"tdop":3.58,"hdop":3.10,"gdop":6.31,"pdop":5.20,"satellites":[{"PRN":1,"el":75,"az":109,"ss":49,"used":true},{"PRN":11,"el":67,"az":211,"ss":50,"used":true},{"PRN":29,"el":55,"az":30,"ss":40,"used":true},{"PRN":3,"el":41,"az":63,"ss":39,"used":true},{"PRN":28,"el":22,"az":23,"ss":37,"used":true},{"PRN":9,"el":18,"az":156,"ss":0,"used":false},{"PRN":30,"el":16,"az":73,"ss":33,"used":true},{"PRN":23,"el":14,"az":223,"ss":0,"used":false},{"PRN":22,"el":6,"az":31,"ss":0,"used":false},{"PRN":8,"el":1,"az":208,"ss":0,"used":false},{"PRN":137,"el":28,"az":172,"ss":0,"used":false},{"PRN":134,"el":26,"az":203,"ss":0,"used":false}]}
$GPZDA,055119.00,04,07,2009,00,00*67
$GPGGA,055118,5333.7859,N,11326.3744,W,1,06,3.10,631.00,M,,,*21
$GPRMC,055118,A,5333.7859,N,11326.3744,W,0.0000,0.000,040709,,*3B
$GPGSA,A,3,01,11,29,03,28,30,,,,,,,5.2,3.1,3.4*30
$GPGBS,055118,31.47,M,35.54,M,78.20,M*0D
{"class":"TPV","tag":"SS2-20","mode":3,"time":"2009-07-04T05:51:18.000Z","ept":0.005,"lat":53.563097539,"lon":-113.439574013,"alt":630.999,"epx":31.470,"epy":35.543,"epv":78.200,"track":0.0000,"speed":0.000,"climb":0.000,"eps":71.09}
$GPGSV,3,1,12,01,75,109,50,11,67,211,50,29,55,030,40,03,41,063,39*75
$GPGSV,3,2,12,28,22,023,38,09,18,156,00,30,16,073,33,23,14,223,00*7E
$GPGSV,3,3,12,22,06,031,00,08,01,208,00,137,28,172,00,134,26,203,00*75
{"class":"SKY","tag":"SS2-33","xdop":2.10,"ydop":2.37,"vdop":3.40,"tdop":3.58,"hdop":3.10,"gdop":6.31,"pdop":5.20,"satellites":[{"PRN":1,"el":75,"az":109,"ss":50,"used":true},{"PRN":11,"el":67,"az":211,"ss":50,"used":true},{"PRN":29,"el":55,"az":30,"ss":40,"used":true},{"PRN":3,"el":41,"az":63,"ss":39,"used":true},{"PRN":28,"el":22,"az":23,"ss":38,"used":true},{"PRN":9,"el":18,"az":156,"ss":0,"used":false},{"PRN":30,"el":16,"az":73,"ss":33,"used":true},{"PRN":23,"el":14,"az":223,"ss":0,"used":false},{"PRN":22,"el":6,"az":31,"ss":0,"used":false},{"PRN":8,"el":1,"az":208,"ss":0,"used":false},{"PRN":137,"el":28,"az":172,"ss":0,"used":false},{"PRN":134,"el":26,"az":203,"ss":0,"used":false}]}
$GPZDA,055120.00,04,07,2009,00,00*6D
$GPGGA,055119,5333.7858,N,11326.3744,W,1,06,3.10,631.04,M,,,*25
$GPRMC,055119,A,5333.7858,N,11326.3744,W,0.0000,0.000,040709,,*3B
$GPGSA,A,3,01,11,29,03,28,30,,,,,,,5.2,3.1,3.4*30
$GPGBS,055119,31.47,M,35.54,M,78.20,M*0C
{"class":"TPV","tag":"SS2-20","mode":3,"time":"2009-07-04T05:51:19.000Z","ept":0.005,"lat":53.563097061,"lon":-113.439573664,"alt":631.037,"epx":31.470,"epy":35.543,"epv":78.200,"track":0.0000,"speed":0.000,"climb":0.000,"eps":71.09}
$GPGSV,3,1,12,01,75,109,50,11,67,211,50,29,55,030,40,03,41,063,39*75
$GPGSV,3,2,12,28,22,023,37,09,18,156,00,30,16,073,33,23,14,223,00*71
$GPGSV,3,3,12,22,06,031,00,08,01,208,00,137,28,172,00,134,26,203,00*75
{"class":"SKY","tag":"SS2-33","xdop":2.10,"ydop":2.37,"vdop":3.40,"tdop":3.58,"hdop":3.10,"gdop":6.31,"pdop":5.20,"satellites":[{"PRN":1,"el":75,"az":109,"ss":50,"used":true},{"PRN":11,"el":67,"az":211,"ss":50,"used":true},{"PRN":29,"el":55,"az":30,"ss":40,"used":true},{"PRN":3,"el":41,"az":63,"ss":39,"used":true},{"PRN":28,"el":22,"az":23,"ss":37,"used":true},{"PRN":9,"el":18,"az":156,"ss":0,"used":false},{"PRN":30,"el":16,"az":73,"ss":33,"used":true},{"PRN":23,"el":14,"az":223,"ss":0,"used":false},{"PRN":22,"el":6,"az":31,"ss":0,"used":false},{"PRN":8,"el":1,"az":208,"ss":0,"used":false},{"PRN":137,"el":28,"az":172,"ss":0,"used":false},{"PRN":134,"el":26,"az":203,"ss":0,"used":false}]}
$GPZDA,055121.00,04,07,2009,00,00*6C
$GPGGA,055120,5333.7858,N,11326.3744,W,1,06,3.10,631.09,M,,,*22
$GPRMC,055120,A,5333.7858,N,11326.3744,W,0.0000,0.000,040709,,*31
$GPGSA,A,3,01,11,29,03,28,30,,,,,,,5.2,3.1,3.4*30
$GPGBS,055120,31.47,M,35.54,M,78.20,M*06
{"class":"TPV","tag":"SS2-20","mode":3,"time":"2009-07-04T05:51:20.000Z","ept":0.005,"lat":53.563096658,"lon":-113.439573296,"alt":631.094,"epx":31.470,"epy":35.543,"epv":78.200,"track":0.0000,"speed":0.000,"climb":0.000,"eps":71.09}
$GPGSV,3,1,12,01,75,109,50,11,67,211,50,29,55,030,40,03,41,063,39*75
$GPGSV,3,2,12,28,22,023,38,09,18,156,00,30,16,073,33,23,14,223,00*7E
$GPGSV,3,3,12,22,06,031,00,08,01,208,00,137,28,172,00,134,26,203,00*75
{"class":"SKY","tag":"SS2-33","xdop":2.10,"ydop":2.37,"vdop":3.40,"tdop":3.58,"hdop":3.10,"gdop":6.31,"pdop":5.20,"satellites":[{"PRN":1,"el":75,"az":109,"ss":50,"used":true},{"PRN":11,"el":67,"az":211,"ss":50,"used":true},{"PRN":29,"el":55,"az":30,"ss":40,"used":true},{"PRN":3,"el":41,"az":63,"ss":39,"used":true},{"PRN":28,"el":22,"az":23,"ss":38,"used":true},{"PRN":9,"el":18,"az":156,"ss":0,"used":false},{"PRN":30,"el":16,"az":73,"ss":33,"used":true},{"PRN":23,"el":14,"az":223,"ss":0,"used":false},{"PRN":22,"el":6,"az":31,"ss":0,"used":false},{"PRN":8,"el":1,"az":208,"ss":0,"used":false},{"PRN":137,"el":28,"az":172,"ss":0,"used":false},{"PRN":134,"el":26,"az":203,"ss":0,"used":false}]}
$GPZDA,055122.00,04,07,2009,00,00*6F
$GPGGA,055121,5333.7858,N,11326.3744,W,1,06,3.10,631.18,M,,,*23
$GPRMC,055121,A,5333.7858,N,11326.3744,W,0.0000,0.000,040709,,*30
$GPGSA,A,3,01,11,29,03,28,30,,,,,,,5.2,3.1,3.4*30
$GPGBS,055121,31.47,M,35.54,M,78.20,M*07
{"class":"TPV","tag":"SS2-20","mode":3,"time":"2009-07-04T05:51:21.000Z","ept":0.005,"lat":53.563096380,"lon":-113.439572984,"alt":631.182,"epx":31.470,"epy":35.543,"epv":78.200,"track":0.0000,"speed":0.000,"climb":0.000,"eps":71.09}
$GPGSV,3,1,12,01,75,109,49,11,67,211,50,29,55,030,40,03,41,063,39*7D
$GPGSV,3,2,12,28,22,023,37,09,18,156,00,30,16,073,32,23,14,223,00*70
$GPGSV,3,3,12,22,06,031,00,08,01,208,00,137,28,172,00,134,26,203,00*75
{"class":"SKY","tag":"SS2-33","xdop":2.10,"ydop":2.37,"vdop":3.40,"tdop":3.58,"hdop":3.10,"gdop":6.31,"pdop":5.20,"satellites":[{"PRN":1,"el":75,"az":109,"ss":49,"used":true},{"PRN":11,"el":67,"az":211,"ss":50,"used":true},{"PRN":29,"el":55,"az":30,"ss":40,"used":true},{"PRN":3,"el":41,"az":63,"ss":39,"used":true},{"PRN":28,"el":22,"az":23,"ss":37,"used":true},{"PRN":9,"el":18,"az":156,"ss":0,"used":false},{"PRN":30,"el":16,"az":73,"ss":32,"used":true},{"PRN":23,"el":14,"az":223,"ss":0,"used":false},{"PRN":22,"el":6,"az":31,"ss":0,"used":false},{"PRN":8,"el":1,"az":208,"ss":0,"used":false},{"PRN":137,"el":28,"az":172,"ss":0,"used":false},{"PRN":134,"el":26,"az":203,"ss":0,"used":false}]}
$GPZDA,055123.00,04,07,2009,00,00*6E
$GPGGA,055122,5333.7857,N,11326.3744,W,1,06,3.10,631.27,M,,,*23
$GPRMC,055122,A,5333.7857,N,11326.3744,W,0.0000,0.000,040709,,*3C
$GPGSA,A,3,01,11,29,03,28,30,,,,,,,5.2,3.1,3.4*30
$GPGBS,055122,31.47,M,35.54,M,78.20,M*04
{"class":"TPV","tag":"SS2-20","mode":3,"time":"2009-07-04T05:51:22.000Z","ept":0.005,"lat":53.563095833,"lon":-113.439572578,"alt":631.274,"epx":31.470,"epy":35.543,"epv":78.200,"track":0.0000,"speed":0.000,"climb":0.000,"eps":71.09}
$GPGSV,3,1,12,01,75,109,49,11,67,211,50,29,55,030,41,03,41,063,40*72
$GPGSV,3,2,12,28,22,023,38,09,18,156,00,30,16,073,33,23,14,223,00*7E
$GPGSV,3,3,12,22,06,031,00,08,01,208,00,137,28,172,00,134,26,203,00*75
{"class":"SKY","tag":"SS2-33","xdop":2.10,"ydop":2.37,"vdop":3.40,"tdop":3.58,"hdop":3.10,"gdop":6.31,"pdop":5.20,"satellites":[{"PRN":1,"el":75,"az":109,"ss":49,"used":true},{"PRN":11,"el":67,"az":211,"ss":50,"used":true},{"PRN":29,"el":55,"az":30,"ss":41,"used":true},{"PRN":3,"el":41,"az":63,"ss":40,"used":true},{"PRN":28,"el":22,"az":23,"ss":38,"used":true},{"PRN":9,"el":18,"az":156,"ss":0,"used":false},{"PRN":30,"el":16,"az":73,"ss":33,"used":true},{"PRN":23,"el":14,"az":223,"ss":0,"used":false},{"PRN":22,"el":6,"az":31,"ss":0,"used":false},{"PRN":8,"el":1,"az":208,"ss":0,"used":false},{"PRN":137,"el":28,"az":172,"ss":0,"used":false},{"PRN":134,"el":26,"az":203,"ss":0,"used":false}]}
$GPZDA,055124.00,04,07,2009,00,00*69
$GPGGA,055123,5333.7857,N,11326.3743,W,1,06,2.70,631.36,M,,,*22
$GPRMC,055123,A,5333.7857,N,11326.3743,W,0.0000,0.000,040709,,*3A
$GPGSA,A,3,01,11,29,03,28,30,,,,,,,5.2,2.7,3.3*30
$GPGBS,055123,31.47,M,35.54,M,75.90,M*03
{"class":"TPV","tag":"SS2-20","mode":3,"time":"2009-07-04T05:51:23.000Z","ept":0.005,"lat":53.563095071,"lon":-113.439572079,"alt":631.359,"epx":31.470,"epy":35.543,"epv":75.900,"track":0.0000,"speed":0.000,"climb":0.000,"eps":71.09}
$GPGSV,3,1,12,01,75,109,49,11,67,211,50,29,55,030,41,03,41,063,40*72
$GPGSV,3,2,12,28,22,023,37,09,18,156,00,30,16,073,32,23,14,223,00*70
$GPGSV,3,3,12,22,06,031,00,08,01,208,00,137,28,172,00,134,26,203,00*75
{"class":"SKY","tag":"SS2-33","xdop":2.10,"ydop":2.37,"vdop":3.30,"tdop":3.58,"hdop":2.70,"gdop":6.31,"pdop":5.20,"satellites":[{"PRN":1,"el":75,"az":109,"ss":49,"used":true},{"PRN":11,"el":67,"az":211,"ss":50,"used":true},{"PRN":29,"el":55,"az":30,"ss":41,"used":true},{"PRN":3,"el":41,"az":63,"ss":40,"used":true},{"PRN":28,"el":22,"az":23,"ss":37,"used":true},{"PRN":9,"el":18,"az":156,"ss":0,"used":false},{"PRN":30,"el":16,"az":73,"ss":32,"used":true},{"PRN":23,"el":14,"az":223,"ss":0,"used":false},{"PRN":22,"el":6,"az":31,"ss":0,"used":false},{"PRN":8,"el":1,"az":208,"ss":0,"used":false},{"PRN":137,"el":28,"az":172,"ss":0,"used":false},{"PRN":134,"el":26,"az":203,"ss":0,"used":false}]}
$GPZDA,055125.00,04,07,2009,00,00*68
$GPGGA,055124,5333.7857,N,11326.3743,W,1,06,2.70,631.42,M,,,*26
$GPRMC,055124,A,5333.7857,N,11326.3743,W,0.0000,0.000,040709,,*3D
$GPGSA,A,3,01,11,29,03,28,30,,,,,,,5.2,2.7,3.3*30
$GPGBS,055124,31.47,M,35.54,M,75.90,M*04
{"class":"TPV","tag":"SS2-20","mode":3,"time":"2009-07-04T05:51:24.000Z","ept":0.005,"lat":53.563094246,"lon":-113.439571676,"alt":631.419,"epx":31.470,"epy":35.543,"epv":75.900,"track":0.0000,"speed":0.000,"climb":0.000,"eps":71.09}
$GPGSV,3,1,12,01,75,109,49,11,67,211,50,29,55,030,40,03,41,063,39*7D
$GPGSV,3,2,12,28,22,023,37,09,18,156,00,30,16,073,32,23,14,223,00*70
$GPGSV,3,3,12,22,06,031,00,08,01,208,00,137,28,172,00,134,26,203,00*75
{"class":"SKY","tag":"SS2-33","xdop":2.10,"ydop":2.37,"vdop":3.30,"tdop":3.58,"hdop":2.70,"gdop":6.31,"pdop":5.20,"satellites":[{"PRN":1,"el":75,"az":109,"ss":49,"used":true},{"PRN":11,"el":67,"az":211,"ss":50,"used":true},{"PRN":29,"el":55,"az":30,"ss":40,"used":true},{"PRN":3,"el":41,"az":63,"ss":39,"used":true},{"PRN":28,"el":22,"az":23,"ss":37,"used":true},{"PRN":9,"el":18,"az":156,"ss":0,"used":false},{"PRN":30,"el":16,"az":73,"ss":32,"used":true},{"PRN":23,"el":14,"az":223,"ss":0,"used":false},{"PRN":22,"el":6,"az":31,"ss":0,"used":false},{"PRN":8,"el":1,"az":208,"ss":0,"used":false},{"PRN":137,"el":28,"az":172,"ss":0,"used":false},{"PRN":134,"el":26,"az":203,"ss":0,"used":false}]}
$GPZDA,055126.00,04,07,2009,00,00*6B
$GPGGA,055125,5333.7856,N,11326.3743,W,1,06,2.70,631.47,M,,,*23
$GPRMC,055125,A,5333.7856,N,11326.3743,W,0.0000,0.000,040709,,*3D
$GPGSA,A,3,01,11,29,03,28,30,,,,,,,5.2,2.7,3.3*30
$GPGBS,055125,31.47,M,35.54,M,75.90,M*05
{"class":"TPV","tag":"SS2-20","mode":3,"time":"2009-07-04T05:51:25.000Z","ept":0.005,"lat":53.563093606,"lon":-113.439571327,"alt":631.472,"epx":31.470,"epy":35.543,"epv":75.900,"track":0.0000,"speed":0.000,"climb":0.000,"eps":71.09}
$GPGSV,3,1,12,01,75,109,49,11,67,211,50,29,55,030,40,03,41,063,39*7D
$GPGSV,3,2,12,28,22,023,37,09,18,156,00,30,16,073,32,23,14,223,00*70
$GPGSV,3,3,12,22,06,031,00,08,01,208,00,137,28,172,00,134,26,203,00*75
{"class":"SKY","tag":"SS2-33","xdop":2.10,"ydop":2.37,"vdop":3.30,"tdop":3.58,"hdop":2.70,"gdop":6.31,"pdop":5.20,"satellites":[{"PRN":1,"el":75,"az":109,"ss":49,"used":true},{"PRN":11,"el":67,"az":211,"ss":50,"used":true},{"PRN":29,"el":55,"az":30,"ss":40,"used":true},{"PRN":3,"el":41,"az":63,"ss":39,"used":true},{"PRN":28,"el":22,"az":23,"ss":37,"used":true},{"PRN":9,"el":18,"az":156,"ss":0,"used":false},{"PRN":30,"el":16,"az":73,"ss":32,"used":true},{"PRN":23,"el":14,"az":223,"ss":0,"used":false},{"PRN":22,"el":6,"az":31,"ss":0,"used":false},{"PRN":8,"el":1,"az":208,"ss":0,"used":false},{"PRN":137,"el":28,"az":172,"ss":0,"used":false},{"PRN":134,"el":26,"az":203,"ss":0,"used":false}]}
$GPZDA,055127.00,04,07,2009,00,00*6A
$GPGGA,055126,5333.7856,N,11326.3743,W,1,06,2.70,631.52,M,,,*24
$GPRMC,055126,A,5333.7856,N,11326.3743,W,0.0000,0.000,040709,,*3E
$GPGSA,A,3,01,11,29,03,28,30,,,,,,,5.2,2.7,3.3*30
$GPGBS,055126,31.47,M,35.54,M,75.90,M*06
{"class":"TPV","tag":"SS2-20","mode":3,"time":"2009-07-04T05:51:26.000Z","ept":0.005,"lat":53.563093093,"lon":-113.439571004,"alt":631.525,"epx":31.470,"epy":35.543,"epv":75.900,"track":0.0000,"speed":0.000,"climb":0.000,"eps":71.09}
$GPGSV,3,1,12,01,75,109,49,11,67,211,50,29,55,030,40,03,41,063,39*7D
$GPGSV,3,2,12,28,22,023,37,09,18,156,00,30,16,073,32,23,14,223,00*70
$GPGSV,3,3,12,22,06,031,00,08,01,208,00,137,28,172,00,134,26,203,00*75
{"class":"SKY","tag":"SS2-33","xdop":2.10,"ydop":2.37,"vdop":3.30,"tdop":3.58,"hdop":2.70,"gdop":6.31,"pdop":5.20,"satellites":[{"PRN":1,"el":75,"az":109,"ss":49,"used":true},{"PRN":11,"el":67,"az":211,"ss":50,"used":true},{"PRN":29,"el":55,"az":30,"ss":40,"used":true},{"PRN":3,"el":41,"az":63,"ss":39,"used":true},{"PRN":28,"el":22,"az":23,"ss":37,"used":true},{"PRN":9,"el":18,"az":156,"ss":0,"used":false},{"PRN":30,"el":16,"az":73,"ss":32,"used":true},{"PRN":23,"el":14,"az":223,"ss":0,"used":false},{"PRN":22,"el":6,"az":31,"ss":0,"used":false},{"PRN":8,"el":1,"az":208,"ss":0,"used":false},{"PRN":137,"el":28,"az":172,"ss":0,"used":false},{"PRN":134,"el":26,"az":203,"ss":0,"used":false}]}
$GPZDA,055128.00,04,07,2009,00,00*65
$GPGGA,055127,5333.7855,N,11326.3742,W,1,06,2.70,631.54,M,,,*21
$GPRMC,055127,A,5333.7855,N,11326.3742,W,0.0000,0.000,040709,,*3D
$GPGSA,A,3,01,11,29,03,28,30,,,,,,,5.2,2.7,3.3*30
$GPGBS,055127,31.47,M,35.54,M,75.90,M*07
{"class":"TPV","tag":"SS2-20","mode":3,"time":"2009-07-04T05:51:27.000Z","ept":0.005,"lat":53.563092169,"lon":-113.439570647,"alt":631.538,"epx":31.470,"epy":35.543,"epv":75.900,"track":0.0000,"speed":0.000,"climb":0.000,"eps":71.09}
$GPGSV,3,1,12,01,75,109,49,11,67,211,50,29,55,030,40,03,41,063,39*7D
$GPGSV,3,2,12,28,22,023,37,09,18,156,00,30,16,073,31,23,14,223,00*73
$GPGSV,3,3,12,22,06,031,00,08,01,208,00,137,28,172,00,134,26,203,00*75
{"class":"SKY","tag":"SS2-33","xdop":2.10,"ydop":2.37,"vdop":3.30,"tdop":3.58,"hdop":2.70,"gdop":6.31,"pdop":5.20,"satellites":[{"PRN":1,"el":75,"az":109,"ss":49,"used":true},{"PRN":11,"el":67,"az":211,"ss":50,"used":true},{"PRN":29,"el":55,"az":30,"ss":40,"used":true},{"PRN":3,"el":41,"az":63,"ss":39,"used":true},{"PRN":28,"el":22,"az":23,"ss":37,"used":true},{"PRN":9,"el":18,"az":156,"ss":0,"used":false},{"PRN":30,"el":16,"az":73,"ss":31,"used":true},{"PRN":23,"el":14,"az":223,"ss":0,"used":false},{"PRN":22,"el":6,"az":31,"ss":0,"used":false},{"PRN":8,"el":1,"az":208,"ss":0,"used":false},{"PRN":137,"el":28,"az":172,"ss":0,"used":false},{"PRN":134,"el":26,"az":203,"ss":0,"used":false}]}
$GPZDA,055129.00,04,07,2009,00,00*64
$GPGGA,055128,5333.7855,N,11326.3742,W,1,06,2.70,631.55,M,,,*2F
$GPRMC,055128,A,5333.7855,N,11326.3742,W,0.0000,0.000,040709,,*32
$GPGSA,A,3,01,11,29,03,28,30,,,,,,,5.2,2.7,3.3*30
$GPGBS,055128,31.47,M,35.54,M,75.90,M*08
{"class":"TPV","tag":"SS2-20","mode":3,"time":"2009-07-04T05:51:28.000Z","ept":0.005,"lat":53.563090982,"lon":-113.439570130,"alt":631.549,"epx":31.470,"epy":35.543,"epv":75.900,"track":0.0000,"speed":0.000,"climb":0.000,"eps":71.09}
$GPGSV,3,1,12,01,75,109,49,11,67,211,50,29,55,030,40,03,41,063,39*7D
$GPGSV,3,2,12,28,22,023,37,09,18,156,00,30,16,073,31,23,14,223,00*73
$GPGSV,3,3,12,22,06,031,00,08,01,208,00,137,28,172,00,134,26,203,00*75
{"class":"SKY","tag":"SS2-33","xdop":2.10,"ydop":2.37,"vdop":3.30,"tdop":3.58,"hdop":2.70,"gdop":6.31,"pdop":5.20,"satellites":[{"PRN":1,"el":75,"az":109,"ss":49,"used":true},{"PRN":11,"el":67,"az":211,"ss":50,"used":true},{"PRN":29,"el":55,"az":30,"ss":40,"used":true},{"PRN":3,"el":41,"az":63,"ss":39,"used":true},{"PRN":28,"el":22,"az":23,"ss":37,"used":true},{"PRN":9,"el":18,"az":156,"ss":0,"used":false},{"PRN":30,"el":16,"az":73,"ss":31,"used":true},{"PRN":23,"el":14,"az":223,"ss":0,"used":false},{"PRN":22,"el":6,"az":31,"ss":0,"used":false},{"PRN":8,"el":1,"az":208,"ss":0,"used":false},{"PRN":137,"el":28,"az":172,"ss":0,"used":false},{"PRN":134,"el":26,"az":203,"ss":0,"used":false}]}
$GPZDA,055130.00,04,07,2009,00,00*6C
$GPGGA,055129,5333.7854,N,11326.3742,W,1,06,2.70,631.56,M,,,*2C
$GPRMC,055129,A,5333.7854,N,11326.3742,W,0.0000,0.000,040709,,*32
$GPGSA,A,3,01,11,29,03,28,30,,,,,,,5.2,2.7,3.3*30
$GPGBS,055129,31.47,M,35.54,M,75.90,M*09
{"class":"TPV","tag":"SS2-20","mode":3,"time":"2009-07-04T05:51:29.000Z","ept":0.005,"lat":53.563089873,"lon":-113.439569560,"alt":631.560,"epx":31.470,"epy":35.543,"epv":75.900,"track":0.0000,"speed":0.000,"climb":0.000,"eps":71.09}
$GPGSV,3,1,12,01,75,109,49,11,67,211,50,29,55,030,39,03,41,063,39*73
$GPGSV,3,2,12,28,22,023,37,09,18,156,00,30,16,073,30,23,14,223,00*72
$GPGSV,3,3,12,22,06,031,00,08,01,208,00,137,28,172,00,134,26,203,00*75
{"class":"SKY","tag":"SS2-33","xdop":2.10,"ydop":2.37,"vdop":3.30,"tdop":3.58,"hdop":2.70,"gdop":6.31,"pdop":5.20,"satellites":[{"PRN":1,"el":75,"az":109,"ss":49,"used":true},{"PRN":11,"el":67,"az":211,"ss":50,"used":true},{"PRN":29,"el":55,"az":30,"ss":39,"used":true},{"PRN":3,"el":41,"az":63,"ss":39,"used":true},{"PRN":28,"el":22,"az":23,"ss":37,"used":true},{"PRN":9,"el":18,"az":156,"ss":0,"used":false},{"PRN":30,"el":16,"az":73,"ss":30,"used":true},{"PRN":23,"el":14,"az":223,"ss":0,"used":false},{"PRN":22,"el":6,"az":31,"ss":0,"used":false},{"PRN":8,"el":1,"az":208,"ss":0,"used":false},{"PRN":137,"el":28,"az":172,"ss":0,"used":false},{"PRN":134,"el":26,"az":203,"ss":0,"used":false}]}
$GPZDA,055131.00,04,07,2009,00,00*6D
$GPGGA,055130,5333.7853,N,11326.3741,W,1,06,2.70,631.57,M,,,*21
$GPRMC,055130,A,5333.7853,N,11326.3741,W,0.0000,0.000,040709,,*3E
$GPGSA,A,3,01,11,29,03,28,30,,,,,,,5.2,2.7,3.3*30
$GPGBS,055130,31.47,M,35.54,M,75.90,M*01
{"class":"TPV","tag":"SS2-20","mode":3,"time":"2009-07-04T05:51:30.000Z","ept":0.005,"lat":53.563088792,"lon":-113.439568970,"alt":631.566,"epx":31.470,"epy":35.543,"epv":75.900,"track":0.0000,"speed":0.000,"climb":0.000,"eps":71.09}
$GPGSV,3,1,12,01,75,109,49,11,67,211,50,29,55,030,40,03,41,063,39*7D
$GPGSV,3,2,12,28,22,023,37,09,18,156,00,30,16,073,30,23,14,223,00*72
$GPGSV,3,3,12,22,06,031,00,08,01,208,00,137,28,172,00,134,26,203,00*75
{"class":"SKY","tag":"SS2-33","xdop":2.10,"ydop":2.37,"vdop":3.30,"tdop":3.58,"hdop":2.70,"gdop":6.31,"pdop":5.20,"satellites":[{"PRN":1,"el":75,"az":109,"ss":49,"used":true},{"PRN":11,"el":67,"az":211,"ss":50,"used":true},{"PRN":29,"el":55,"az":30,"ss":40,"used":true},{"PRN":3,"el":41,"az":63,"ss":39,"used":true},{"PRN":28,"el":22,"az":23,"ss":37,"used":true},{"PRN":9,"el":18,"az":156,"ss":0,"used":false},{"PRN":30,"el":16,"az":73,"ss":30,"used":true},{"PRN":23,"el":14,"az":223,"ss":0,"used":false},{"PRN":22,"el":6,"az":31,"ss":0,"used":false},{"PRN":8,"el":1,"az":208,"ss":0,"used":false},{"PRN":137,"el":28,"az":172,"ss":0,"used":false},{"PRN":134,"el":26,"az":203,"ss":0,"used":false}]}
$GPZDA,055132.00,04,07,2009,00,00*6E
$GPGGA,055131,5333.7853,N,11326.3741,W,1,05,3.10,631.59,M,,,*2A
$GPRMC,055131,A,5333.7853,N,11326.3741,W,0.0000,0.000,040709,,*3F
$GPGSA,A,3,01,11,29,03,28,30,,,,,,,5.2,3.1,3.4*30
$GPGBS,055131,31.47,M,35.54,M,78.20,M*06
{"class":"TPV","tag":"SS2-20","mode":3,"time":"2009-07-04T05:51:31.000Z","ept":0.005,"lat":53.563088066,"lon":-113.439568562,"alt":631.590,"epx":31.470,"epy":35.543,"epv":78.200,"track":0.0000,"speed":0.000,"climb":0.000,"eps":71.09}
$GPGSV,3,1,12,01,75,109,49,11,67,211,50,29,55,030,39,03,41,063,39*73
$GPGSV,3,2,12,28,22,023,37,09,18,156,00,30,16,073,29,23,14,223,00*7A
$GPGSV,3,3,12,22,06,031,00,08,01,208,00,137,28,172,00,134,26,203,00*75
{"class":"SKY","tag":"SS2-33","xdop":2.10,"ydop":2.37,"vdop":3.40,"tdop":3.58,"hdop":3.10,"gdop":6.31,"pdop":5.20,"satellites":[{"PRN":1,"el":75,"az":109,"ss":49,"used":true},{"PRN":11,"el":67,"az":211,"ss":50,"used":true},{"PRN":29,"el":55,"az":30,"ss":39,"used":true},{"PRN":3,"el":41,"az":63,"ss":39,"used":true},{"PRN":28,"el":22,"az":23,"ss":37,"used":true},{"PRN":9,"el":18,"az":156,"ss":0,"used":false},{"PRN":30,"el":16,"az":73,"ss":29,"used":false},{"PRN":23,"el":14,"az":223,"ss":0,"used":false},{"PRN":22,"el":6,"az":31,"ss":0,"used":false},{"PRN":8,"el":1,"az":208,"ss":0,"used":false},{"PRN":137,"el":28,"az":172,"ss":0,"used":false},{"PRN":134,"el":26,"az":203,"ss":0,"used":false}]}
$GPZDA,055133.00,04,07,2009,00,00*6F
$GPGGA,055132,5333.7853,N,11326.3741,W,1,05,3.10,631.62,M,,,*21
$GPRMC,055132,A,5333.7853,N,11326.3741,W,0.0000,0.000,040709,,*3C
$GPGSA,A,3,01,11,29,03,28,30,,,,,,,5.2,3.1,3.4*30
$GPGBS,055132,31.47,M,35.54,M,78.20,M*05
{"class":"TPV","tag":"SS2-20","mode":3,"time":"2009-07-04T05:51:32.000Z","ept":0.005,"lat":53.563088488,"lon":-113.439568610,"alt":631.624,"epx":31.470,"epy":35.543,"epv":78.200,"track":0.0000,"speed":0.000,"climb":0.000,"eps":71.09}
$GPGSV,3,1,12,01,75,109,49,11,67,211,50,29,55,030,39,03,41,063,38*72
$GPGSV,3,2,12,28,22,023,37,09,18,156,00,30,16,073,29,23,14,223,00*7A
$GPGSV,3,3,12,22,06,031,00,08,01,208,00,137,28,172,00,134,26,203,00*75
{"class":"SKY","tag":"SS2-33","xdop":2.10,"ydop":2.37,"vdop":3.40,"tdop":3.58,"hdop":3.10,"gdop":6.31,"pdop":5.20,"satellites":[{"PRN":1,"el":75,"az":109,"ss":49,"used":true},{"PRN":11,"el":67,"az":211,"ss":50,"used":true},{"PRN":29,"el":55,"az":30,"ss":39,"used":true},{"PRN":3,"el":41,"az":63,"ss":38,"used":true},{"PRN":28,"el":22,"az":23,"ss":37,"used":true},{"PRN":9,"el":18,"az":156,"ss":0,"used":false},{"PRN":30,"el":16,"az":73,"ss":29,"used":false},{"PRN":23,"el":14,"az":223,"ss":0,"used":false},{"PRN":22,"el":6,"az":31,"ss":0,"used":false},{"PRN":8,"el":1,"az":208,"ss":0,"used":false},{"PRN":137,"el":28,"az":172,"ss":0,"used":false},{"PRN":134,"el":26,"az":203,"ss":0,"used":false}]}
$GPZDA,055134.00,04,07,2009,00,00*68
$GPGGA,055133,5333.7853,N,11326.3741,W,1,05,3.10,631.66,M,,,*24
$GPRMC,055133,A,5333.7853,N,11326.3741,W,0.0000,0.000,040709,,*3D
$GPGSA,A,3,01,11,29,03,28,30,,,,,,,5.2,3.1,3.4*30
$GPGBS,055133,31.47,M,35.54,M,78.20,M*04
{"class":"TPV","tag":"SS2-20","mode":3,"time":"2009-07-04T05:51:33.000Z","ept":0.005,"lat":53.563088876,"lon":-113.439568718,"alt":631.662,"epx":31.470,"epy":35.543,"epv":78.200,"track":0.0000,"speed":0.000,"climb":0.000,"eps":71.09}
$GPGSV,3,1,12,01,75,109,49,11,67,211,50,29,55,030,40,03,41,063,39*7D
$GPGSV,3,2,12,28,22,023,37,09,18,156,00,30,16,073,28,23,14,223,00*7B
$GPGSV,3,3,12,22,06,031,00,08,01,208,00,137,28,172,00,134,26,203,00*75
{"class":"SKY","tag":"SS2-33","xdop":2.10,"ydop":2.37,"vdop":3.40,"tdop":3.58,"hdop":3.10,"gdop":6.31,"pdop":5.20,"satellites":[{"PRN":1,"el":75,"az":109,"ss":49,"used":true},{"PRN":11,"el":67,"az":211,"ss":50,"used":true},{"PRN":29,"el":55,"az":30,"ss":40,"used":true},{"PRN":3,"el":41,"az":63,"ss":39,"used":true},{"PRN":28,"el":22,"az":23,"ss":37,"used":true},{"PRN":9,"el":18,"az":156,"ss":0,"used":false},{"PRN":30,"el":16,"az":73,"ss":28,"used":false},{"PRN":23,"el":14,"az":223,"ss":0,"used":false},{"PRN":22,"el":6,"az":31,"ss":0,"used":false},{"PRN":8,"el":1,"az":208,"ss":0,"used":false},{"PRN":137,"el":28,"az":172,"ss":0,"used":false},{"PRN":134,"el":26,"az":203,"ss":0,"used":false}]}
$GPZDA,055135.00,04,07,2009,00,00*69
$GPGGA,055134,5333.7854,N,11326.3741,W,1,05,3.10,631.68,M,,,*2A
$GPRMC,055134,A,5333.7854,N,11326.3741,W,0.0000,0.000,040709,,*3D
$GPGSA,A,3,01,11,29,03,28,30,,,,,,,5.2,3.1,3.4*30
$GPGBS,055134,31.47,M,35.54,M,78.20,M*03
{"class":"TPV","tag":"SS2-20","mode":3,"time":"2009-07-04T05:51:34.000Z","ept":0.005,"lat":53.563089191,"lon":-113.439568753,"alt":631.683,"epx":31.470,"epy":35.543,"epv":78.200,"track":0.0000,"speed":0.000,"climb":0.000,"eps":71.09}
$GPGSV,3,1,12,01,75,109,49,11,67,211,50,29,55,030,40,03,41,063,39*7D
$GPGSV,3,2,12,28,22,023,37,09,18,156,00,30,16,073,27,23,14,223,00*74
$GPGSV,3,3,12,22,06,031,00,08,01,208,00,137,28,172,00,134,26,203,00*75
{"class":"SKY","tag":"SS2-33","xdop":2.10,"ydop":2.37,"vdop":3.40,"tdop":3.58,"hdop":3.10,"gdop":6.31,"pdop":5.20,"satellites":[{"PRN":1,"el":75,"az":109,"ss":49,"used":true},{"PRN":11,"el":67,"az":211,"ss":50,"used":true},{"PRN":29,"el":55,"az":30,"ss":40,"used":true},{"PRN":3,"el":41,"az":63,"ss":39,"used":true},{"PRN":28,"el":22,"az":23,"ss":37,"used":true},{"PRN":9,"el":18,"az":156,"ss":0,"used":false},{"PRN":30,"el":16,"az":73,"ss":27,"used":false},{"PRN":23,"el":14,"az":223,"ss":0,"used":false},{"PRN":22,"el":6,"az":31,"ss":0,"used":false},{"PRN":8,"el":1,"az":208,"ss":0,"used":false},{"PRN":137,"el":28,"az":172,"ss":0,"used":false},{"PRN":134,"el":26,"az":203,"ss":0,"used":false}]}
$GPZDA,055136.00,04,07,2009,00,00*6A
$GPGGA,055135,5333.7854,N,11326.3741,W,1,05,3.10,631.69,M,,,*2A
$GPRMC,055135,A,5333.7854,N,11326.3741,W,0.0000,0.000,040709,,*3C
$GPGSA,A,3,01,11,29,03,28,30,,,,,,,5.2,3.1,3.4*30
$GPGBS,055135,31.47,M,35.54,M,78.20,M*02
{"class":"TPV","tag":"SS2-20","mode":3,"time":"2009-07-04T05:51:35.000Z","ept":0.005,"lat":53.563089528,"lon":-113.439568785,"alt":631.691,"epx":31.470,"epy":35.543,"epv":78.200,"track":0.0000,"speed":0.000,"climb":0.000,"eps":71.09}
$GPGSV,3,1,12,01,75,109,49,11,67,211,50,29,55,030,39,03,41,063,38*72
$GPGSV,3,2,12,28,22,023,37,09,18,156,00,30,16,073,27,23,14,223,00*74
$GPGSV,3,3,12,22,06,031,00,08,01,208,00,137,28,172,00,134,26,203,00*75
{"class":"SKY","tag":"SS2-33","xdop":2.10,"ydop":2.37,"vdop":3.40,"tdop":3.58,"hdop":3.10,"gdop":6.31,"pdop":5.20,"satellites":[{"PRN":1,"el":75,"az":109,"ss":49,"used":true},{"PRN":11,"el":67,"az":211,"ss":50,"used":true},{"PRN":29,"el":55,"az":30,"ss":39,"used":true},{"PRN":3,"el":41,"az":63,"ss":38,"used":true},{"PRN":28,"el":22,"az":23,"ss":37,"used":true},{"PRN":9,"el":18,"az":156,"ss":0,"used":false},{"PRN":30,"el":16,"az":73,"ss":27,"used":false},{"PRN":23,"el":14,"az":223,"ss":0,"used":false},{"PRN":22,"el":6,"az":31,"ss":0,"used":false},{"PRN":8,"el":1,"az":208,"ss":0,"used":false},{"PRN":137,"el":28,"az":172,"ss":0,"used":false},{"PRN":134,"el":26,"az":203,"ss":0,"used":false}]}
