$GPGGA,000452.981,0000.0000,N,00000.0000,E,0,00,50.0,0.0,M,0.0,M,0.0,0000*75
$GPGLL,36000.0000,N,72000.0000,E,000452.981,V*10
$GPGSA,A,1,,,,,,,,,,,,,50.0,50.0,50.0*05
{"class":"TPV","tag":"GSA","mode":1}
$GPRMC,000452.981,V,36000.0000,N,72000.0000,E,0.000000,,190120,,*32
$GPVTG,,T,,M,0.000000,N,0.000000,K*4E
$GPMSS,0,0,0.000000,200,*5A
$GPGGA,000453.981,0000.0000,N,00000.0000,E,0,00,50.0,0.0,M,0.0,M,0.0,0000*74
$GPGLL,36000.0000,N,72000.0000,E,000453.981,V*11
$GPGSA,A,1,,,,,,,,,,,,,50.0,50.0,50.0*05
$GPRMC,000453.981,V,36000.0000,N,72000.0000,E,0.000000,,190120,,*33
$GPVTG,,T,,M,0.000000,N,0.000000,K*4E
$GPMSS,0,0,0.000000,200,*5A
$GPGGA,000454.981,0000.0000,N,00000.0000,E,0,00,50.0,0.0,M,0.0,M,0.0,0000*73
$GPGLL,36000.0000,N,72000.0000,E,000454.981,V*16
$GPGSA,A,1,,,,,,,,,,,,,50.0,50.0,50.0*05
$GPRMC,000454.981,V,36000.0000,N,72000.0000,E,0.000000,,190120,,*34
$GPVTG,,T,,M,0.000000,N,0.000000,K*4E
$GPMSS,0,0,0.000000,200,*5A
$GPGGA,000455.981,0000.0000,N,00000.0000,E,0,00,50.0,0.0,M,0.0,M,0.0,0000*72
$GPGLL,36000.0000,N,72000.0000,E,000455.981,V*17
$GPGSA,A,1,,,,,,,,,,,,,50.0,50.0,50.0*05
$GPRMC,000455.981,V,36000.0000,N,72000.0000,E,0.000000,,190120,,*35
$GPVTG,,T,,M,0.000000,N,0.000000,K*4E
$GPMSS,0,0,0.000000,200,*5A
$GPGGA,000456.981,0000.0000,N,00000.0000,E,0,00,50.0,0.0,M,0.0,M,0.0,0000*71
$GPGLL,36000.0000,N,72000.0000,E,000456.981,V*14
$GPGSA,A,1,,,,,,,,,,,,,50.0,50.0,50.0*05
$GPRMC,000456.981,V,36000.0000,N,72000.0000,E,0.000000,,190120,,*36
$GPVTG,,T,,M,0.000000,N,0.000000,K*4E
$GPMSS,0,0,0.000000,200,*5A
$GPGGA,000457.981,0000.0000,N,00000.0000,E,0,00,50.0,0.0,M,0.0,M,0.0,0000*70
$GPGLL,36000.0000,N,72000.0000,E,000457.981,V*15
$GPGSA,A,1,,,,,,,,,,,,,50.0,50.0,50.0*05
$GPGSV,3,1,12,01,90,000,00,13,77,000,00,08,71,000,,22,65,000,00*7F
$GPGSV,3,2,12,09,65,000,00,26,40,000,,24,33,000,00,04,28,000,00*79
$GPGSV,3,3,12,27,25,000,00,16,23,000,00,15,21,000,00,11,13,000,00*7B
$GPRMC,000457.981,V,36000.0000,N,72000.0000,E,0.000000,,190120,,*37
$GPVTG,,T,,M,0.000000,N,0.000000,K*4E
$GPMSS,0,0,0.000000,200,*5A
$GPGGA,000458.981,0000.0000,N,00000.0000,E,0,00,50.0,0.0,M,0.0,M,0.0,0000*7F
$GPGLL,36000.0000,N,72000.0000,E,000458.981,V*1A
$GPGSA,A,1,,,,,,,,,,,,,50.0,50.0,50.0*05
$GPGSV,3,1,12,01,90,000,48,13,77,000,00,08,71,000,,22,65,000,00*73
$GPGSV,3,2,12,09,65,000,00,26,40,000,,24,33,000,00,04,28,000,00*79
$GPGSV,3,3,12,27,25,000,00,16,23,000,00,15,21,000,00,11,13,000,31*79
$GPRMC,000458.981,V,36000.0000,N,72000.0000,E,0.000000,,190120,,*38
$GPVTG,,T,,M,0.000000,N,0.000000,K*4E
$GPMSS,0,0,0.000000,200,*5A
$GPGGA,000459.981,0000.0000,N,00000.0000,E,0,00,50.0,0.0,M,0.0,M,0.0,0000*7E
$GPGLL,36000.0000,N,72000.0000,E,000459.981,V*1B
$GPGSA,A,1,,,,,,,,,,,,,50.0,50.0,50.0*05
$GPGSV,3,1,12,01,90,000,47,13,77,000,00,08,71,000,,22,65,000,00*7C
$GPGSV,3,2,12,09,65,000,00,26,40,000,,24,33,000,00,04,28,000,00*79
$GPGSV,3,3,12,27,25,000,00,16,23,000,00,15,21,000,00,11,13,000,31*79
$GPRMC,000459.981,V,36000.0000,N,72000.0000,E,0.000000,,190120,,*39
$GPVTG,,T,,M,0.000000,N,0.000000,K*4E
$GPMSS,0,0,0.000000,200,*5A
$GPGGA,000500.981,0000.0000,N,00000.0000,E,0,00,50.0,0.0,M,0.0,M,0.0,0000*73
$GPGLL,36000.0000,N,72000.0000,E,000500.981,V*16
$GPGSA,A,1,,,,,,,,,,,,,50.0,50.0,50.0*05
$GPGSV,3,1,12,01,90,000,48,13,77,000,00,08,71,000,,22,65,000,00*73
$GPGSV,3,2,12,09,65,000,00,26,40,000,,24,33,000,00,04,28,000,00*79
$GPGSV,3,3,12,27,25,000,00,16,23,000,00,15,21,000,00,11,13,000,31*79
$GPRMC,000500.981,V,36000.0000,N,72000.0000,E,0.000000,,190120,,*34
$GPVTG,,T,,M,0.000000,N,0.000000,K*4E
$GPMSS,0,0,0.000000,200,*5A
$GPGGA,000501.981,0000.0000,N,00000.0000,E,0,00,50.0,0.0,M,0.0,M,0.0,0000*72
$GPGLL,36000.0000,N,72000.0000,E,000501.981,V*17
$GPGSA,A,1,,,,,,,,,,,,,50.0,50.0,50.0*05
$GPGSV,3,1,12,01,90,000,48,13,77,000,00,08,71,000,,22,65,000,00*73
$GPGSV,3,2,12,09,65,000,00,26,40,000,,24,33,000,00,04,28,000,00*79
$GPGSV,3,3,12,27,25,000,00,16,23,000,00,15,21,000,00,11,13,000,31*79
$GPRMC,000501.981,V,36000.0000,N,72000.0000,E,0.000000,,190120,,*35
$GPVTG,,T,,M,0.000000,N,0.000000,K*4E
$GPMSS,0,0,0.000000,200,*5A
$GPGGA,000502.981,0000.0000,N,00000.0000,E,0,00,50.0,0.0,M,0.0,M,0.0,0000*71
$GPGLL,36000.0000,N,72000.0000,E,000502.981,V*14
$GPGSA,A,1,,,,,,,,,,,,,50.0,50.0,50.0*05
$GPGSV,3,1,12,01,90,000,48,13,77,000,00,08,71,000,,22,65,000,00*73
$GPGSV,3,2,12,09,65,000,00,26,40,000,,24,33,000,00,04,28,000,00*79
$GPGSV,3,3,12,27,25,000,00,16,23,000,00,15,21,000,00,11,13,000,31*79
$GPRMC,000502.981,V,36000.0000,N,72000.0000,E,0.000000,,190120,,*36
$GPVTG,,T,,M,0.000000,N,0.000000,K*4E
$GPMSS,0,0,0.000000,200,*5A
$GPGGA,000503.981,0000.0000,N,00000.0000,E,0,00,50.0,0.0,M,0.0,M,0.0,0000*70
$GPGLL,36000.0000,N,72000.0000,E,000503.981,V*15
$GPGSA,A,1,,,,,,,,,,,,,50.0,50.0,50.0*05
$GPGSV,3,1,12,01,90,000,47,13,77,000,00,08,71,000,,22,65,000,00*7C
$GPGSV,3,2,12,09,65,000,00,26,40,000,,24,33,000,00,04,28,000,00*79
$GPGSV,3,3,12,27,25,000,00,16,23,000,00,15,21,000,00,11,13,000,*7B
$GPRMC,000503.981,V,36000.0000,N,72000.0000,E,0.000000,,190120,,*37
$GPVTG,,T,,M,0.000000,N,0.000000,K*4E
$GPMSS,0,0,0.000000,200,*5A
$GPGGA,000504.981,0000.0000,N,00000.0000,E,0,00,50.0,0.0,M,0.0,M,0.0,0000*77
$GPGLL,36000.0000,N,72000.0000,E,000504.981,V*12
$GPGSA,A,1,,,,,,,,,,,,,50.0,50.0,50.0*05
$GPGSV,3,1,12,01,90,000,47,13,77,000,00,08,71,000,,22,65,000,00*7C
$GPGSV,3,2,12,09,65,000,00,26,40,000,,24,33,000,00,04,28,000,00*79
$GPGSV,3,3,12,27,25,000,00,16,23,000,00,15,21,000,00,11,13,000,*7B
$GPRMC,000504.981,V,36000.0000,N,72000.0000,E,0.000000,,190120,,*30
$GPVTG,,T,,M,0.000000,N,0.000000,K*4E
$GPMSS,0,0,0.000000,200,*5A
$GPGGA,204300.329,0000.0000,N,00000.0000,E,0,00,50.0,0.0,M,0.0,M,0.0,0000*7B
$GPGLL,36000.0000,N,72000.0000,E,204300.329,V*1E
$GPGSA,A,1,,,,,,,,,,,,,50.0,50.0,50.0*05
$GPGSV,3,1,12,01,90,000,47,13,77,000,00,08,71,000,,22,65,000,00*7C
$GPGSV,3,2,12,09,65,000,00,26,40,000,,24,33,000,00,04,28,000,00*79
$GPGSV,3,3,12,27,25,000,00,16,23,000,00,15,21,000,00,11,13,000,*7B
$GPRMC,204300.329,V,36000.0000,N,72000.0000,E,0.000000,,220120,,*34
$GPVTG,,T,,M,0.000000,N,0.000000,K*4E
$GPMSS,0,0,0.000000,200,*5A
$GPGGA,204301.329,0000.0000,N,00000.0000,E,0,00,50.0,0.0,M,0.0,M,0.0,0000*7A
$GPGLL,36000.0000,N,72000.0000,E,204301.329,V*1F
$GPGSA,A,1,,,,,,,,,,,,,50.0,50.0,50.0*05
$GPGSV,3,1,12,01,90,000,47,13,77,000,00,08,71,000,,22,65,000,00*7C
$GPGSV,3,2,12,09,65,000,00,26,40,000,,24,33,000,00,04,28,000,00*79
$GPGSV,3,3,12,27,25,000,00,16,23,000,00,15,21,000,00,11,13,000,*7B
$GPRMC,204301.329,V,36000.0000,N,72000.0000,E,0.000000,,220120,,*35
$GPVTG,,T,,M,0.000000,N,0.000000,K*4E
$GPMSS,0,0,0.000000,200,*5A
$GPGGA,204302.329,0000.0000,N,00000.0000,E,0,00,50.0,0.0,M,0.0,M,0.0,0000*79
$GPGLL,36000.0000,N,72000.0000,E,204302.329,V*1C
$GPGSA,A,1,,,,,,,,,,,,,50.0,50.0,50.0*05
$GPGSV,3,1,12,01,90,000,47,13,77,000,00,08,71,000,,22,65,000,00*7C
$GPGSV,3,2,12,09,65,000,00,26,40,000,,24,33,000,00,04,28,000,00*79
$GPGSV,3,3,12,27,25,000,00,16,23,000,00,15,21,000,00,11,13,000,*7B
$GPRMC,204302.329,V,36000.0000,N,72000.0000,E,0.000000,,220120,,*36
$GPVTG,,T,,M,0.000000,N,0.000000,K*4E
$GPMSS,0,0,0.000000,200,*5A
$GPGGA,204303.329,0000.0000,N,00000.0000,E,0,00,50.0,0.0,M,0.0,M,0.0,0000*78
$GPGLL,36000.0000,N,72000.0000,E,204303.329,V*1D
$GPGSA,A,1,,,,,,,,,,,,,50.0,50.0,50.0*05
$GPGSV,3,1,12,01,90,000,47,13,77,000,00,08,71,000,,22,65,000,00*7C
$GPGSV,3,2,12,09,65,000,00,26,40,000,,24,33,000,00,04,28,000,00*79
$GPGSV,3,3,12,27,25,000,00,16,23,000,00,15,21,000,00,11,13,000,*7B
$GPRMC,204303.329,V,36000.0000,N,72000.0000,E,0.000000,,220120,,*37
$GPVTG,,T,,M,0.000000,N,0.000000,K*4E
$GPMSS,0,0,0.000000,200,*5A
$GPGGA,204304.329,0000.0000,N,00000.0000,E,0,00,50.0,0.0,M,0.0,M,0.0,0000*7F
$GPGLL,36000.0000,N,72000.0000,E,204304.329,V*1A
$GPGSA,A,1,,,,,,,,,,,,,50.0,50.0,50.0*05
$GPGSV,3,1,12,01,90,000,47,13,77,000,00,08,71,000,,22,65,000,00*7C
$GPGSV,3,2,12,09,65,000,00,26,40,000,,24,33,000,00,04,28,000,00*79
$GPGSV,3,3,12,27,25,000,00,16,23,000,00,15,21,000,00,11,13,000,*7B
$GPRMC,204304.329,V,36000.0000,N,72000.0000,E,0.000000,,220120,,*30
$GPVTG,,T,,M,0.000000,N,0.000000,K*4E
$GPMSS,0,0,0.000000,200,*5A
$GPGGA,204305.329,0000.0000,N,00000.0000,E,0,00,50.0,0.0,M,0.0,M,0.0,0000*7E
$GPGLL,36000.0000,N,72000.0000,E,204305.329,V*1B
$GPGSA,A,1,,,,,,,,,,,,,50.0,50.0,50.0*05
$GPGSV,3,1,12,01,90,000,47,13,77,000,00,08,71,000,,22,65,000,00*7C
$GPGSV,3,2,12,09,65,000,00,26,40,000,,24,33,000,00,04,28,000,00*79
$GPGSV,3,3,12,27,25,000,00,16,23,000,00,15,21,000,00,11,13,000,*7B
$GPRMC,204305.329,V,36000.0000,N,72000.0000,E,0.000000,,220120,,*31
$GPVTG,,T,,M,0.000000,N,0.000000,K*4E
$GPMSS,0,0,0.000000,200,*5A
$GPGGA,204306.329,0000.0000,N,00000.0000,E,0,00,50.0,0.0,M,0.0,M,0.0,0000*7D
$GPGLL,36000.0000,N,72000.0000,E,204306.329,V*18
$GPGSA,A,1,,,,,,,,,,,,,50.0,50.0,50.0*05
$GPGSV,3,1,12,01,90,000,47,13,77,000,00,08,71,000,,22,65,000,00*7C
$GPGSV,3,2,12,09,65,000,00,26,40,000,,24,33,000,00,04,28,000,00*79
$GPGSV,3,3,12,27,25,000,00,16,23,000,00,15,21,000,00,11,13,000,*7B
$GPRMC,204306.329,V,36000.0000,N,72000.0000,E,0.000000,,220120,,*32
$GPVTG,,T,,M,0.000000,N,0.000000,K*4E
$GPMSS,0,0,0.000000,200,*5A
$GPGGA,204307.329,0000.0000,N,00000.0000,E,0,00,50.0,0.0,M,0.0,M,0.0,0000*7C
$GPGLL,36000.0000,N,72000.0000,E,204307.329,V*19
$GPGSA,A,1,,,,,,,,,,,,,50.0,50.0,50.0*05
$GPGSV,3,1,12,01,90,000,47,13,77,000,00,08,71,000,,22,65,000,00*7C
$GPGSV,3,2,12,09,65,000,00,26,40,000,,24,33,000,00,04,28,000,00*79
$GPGSV,3,3,12,27,25,000,00,16,23,000,00,15,21,000,00,11,13,000,*7B
$GPRMC,204307.329,V,36000.0000,N,72000.0000,E,0.000000,,220120,,*33
$GPVTG,,T,,M,0.000000,N,0.000000,K*4E
$GPMSS,0,0,0.000000,200,*5A
$GPGGA,204308.328,0000.0000,N,00000.0000,E,0,00,50.0,0.0,M,0.0,M,0.0,0000*72
$GPGLL,36000.0000,N,72000.0000,E,204308.328,V*17
$GPGSA,A,1,,,,,,,,,,,,,50.0,50.0,50.0*05
$GPGSV,3,1,12,01,90,000,48,13,77,000,00,08,71,000,,22,65,000,00*73
$GPGSV,3,2,12,09,65,000,00,26,40,000,,24,33,000,00,04,28,000,00*79
$GPGSV,3,3,12,27,25,000,00,16,23,000,00,15,21,000,00,11,13,000,*7B
$GPRMC,204308.328,V,36000.0000,N,72000.0000,E,0.000000,,220120,,*3D
$GPVTG,,T,,M,0.000000,N,0.000000,K*4E
$GPMSS,0,0,0.000000,200,*5A
$GPGGA,204309.328,0000.0000,N,00000.0000,E,0,00,50.0,0.0,M,0.0,M,0.0,0000*73
$GPGLL,36000.0000,N,72000.0000,E,204309.328,V*16
$GPGSA,A,1,,,,,,,,,,,,,50.0,50.0,50.0*05
$GPGSV,3,1,12,01,90,000,48,13,77,000,00,08,71,000,,22,65,000,00*73
$GPGSV,3,2,12,09,65,000,00,26,40,000,,24,33,000,00,04,28,000,00*79
$GPGSV,3,3,12,27,25,000,00,16,23,000,00,15,21,000,00,11,13,000,*7B
$GPRMC,204309.328,V,36000.0000,N,72000.0000,E,0.000000,,220120,,*3C
$GPVTG,,T,,M,0.000000,N,0.000000,K*4E
$GPMSS,0,0,0.000000,200,*5A
$GPGGA,204310.328,0000.0000,N,00000.0000,E,0,00,50.0,0.0,M,0.0,M,0.0,0000*7B
$GPGLL,36000.0000,N,72000.0000,E,204310.328,V*1E
$GPGSA,A,1,,,,,,,,,,,,,50.0,50.0,50.0*05
$GPGSV,3,1,12,01,90,000,47,13,77,000,00,08,71,000,,22,65,000,00*7C
$GPGSV,3,2,12,09,65,000,00,26,40,000,,24,33,000,00,04,28,000,00*79
$GPGSV,3,3,12,27,25,000,00,16,23,000,00,15,21,000,00,11,13,000,*7B
$GPRMC,204310.328,V,36000.0000,N,72000.0000,E,0.000000,,220120,,*34
$GPVTG,,T,,M,0.000000,N,0.000000,K*4E
$GPMSS,0,0,0.000000,200,*5A
$GPGGA,204311.328,0000.0000,N,00000.0000,E,0,00,50.0,0.0,M,0.0,M,0.0,0000*7A
$GPGLL,36000.0000,N,72000.0000,E,204311.328,V*1F
$GPGSA,A,1,,,,,,,,,,,,,50.0,50.0,50.0*05
$GPGSV,3,1,12,01,90,000,47,13,77,000,00,08,71,000,,22,65,000,00*7C
$GPGSV,3,2,12,09,65,000,00,26,40,000,,24,33,000,00,04,28,000,00*79
$GPGSV,3,3,12,27,25,000,00,16,23,000,00,15,21,000,00,11,13,000,*7B
$GPRMC,204311.328,V,36000.0000,N,72000.0000,E,0.000000,,220120,,*35
$GPVTG,,T,,M,0.000000,N,0.000000,K*4E
$GPMSS,0,0,0.000000,200,*5A
$GPGGA,204312.328,0000.0000,N,00000.0000,E,0,00,50.0,0.0,M,0.0,M,0.0,0000*79
$GPGLL,36000.0000,N,72000.0000,E,204312.328,V*1C
$GPGSA,A,1,,,,,,,,,,,,,50.0,50.0,50.0*05
$GPGSV,3,1,12,01,90,000,47,13,77,000,00,08,71,000,,22,65,000,00*7C
$GPGSV,3,2,12,09,65,000,00,26,40,000,,24,33,000,00,04,28,000,00*79
$GPGSV,3,3,12,27,25,000,00,16,23,000,00,15,21,000,00,11,13,000,*7B
$GPRMC,204312.328,V,36000.0000,N,72000.0000,E,0.000000,,220120,,*36
$GPVTG,,T,,M,0.000000,N,0.000000,K*4E
$GPMSS,0,0,0.000000,200,*5A
$GPGGA,204313.328,0000.0000,N,00000.0000,E,0,00,50.0,0.0,M,0.0,M,0.0,0000*78
$GPGLL,36000.0000,N,72000.0000,E,204313.328,V*1D
$GPGSA,A,1,,,,,,,,,,,,,50.0,50.0,50.0*05
$GPGSV,3,1,12,01,90,000,47,13,77,000,00,08,71,000,,22,65,000,00*7C
$GPGSV,3,2,12,09,65,000,00,26,40,000,,24,33,000,00,04,28,000,00*79
$GPGSV,3,3,12,27,25,000,00,16,23,000,00,15,21,000,00,11,13,000,*7B
$GPRMC,204313.328,V,36000.0000,N,72000.0000,E,0.000000,,220120,,*37
$GPVTG,,T,,M,0.000000,N,0.000000,K*4E
$GPMSS,0,0,0.000000,200,*5A
$GPGGA,204314.328,0000.0000,N,00000.0000,E,0,00,50.0,0.0,M,0.0,M,0.0,0000*7F
$GPGLL,36000.0000,N,72000.0000,E,204314.328,V*1A
$GPGSA,A,1,,,,,,,,,,,,,50.0,50.0,50.0*05
$GPGSV,3,1,12,01,90,000,48,13,77,000,00,08,71,000,,22,65,000,00*73
$GPGSV,3,2,12,09,65,000,00,26,40,000,,24,33,000,00,04,28,000,00*79
$GPGSV,3,3,12,27,25,000,00,16,23,000,00,15,21,000,00,11,13,000,*7B
$GPRMC,204314.328,V,36000.0000,N,72000.0000,E,0.000000,,220120,,*30
$GPVTG,,T,,M,0.000000,N,0.000000,K*4E
$GPMSS,0,0,0.000000,200,*5A
$GPGGA,204315.328,0000.0000,N,00000.0000,E,0,00,50.0,0.0,M,0.0,M,0.0,0000*7E
$GPGLL,36000.0000,N,72000.0000,E,204315.328,V*1B
$GPGSA,A,1,,,,,,,,,,,,,50.0,50.0,50.0*05
$GPGSV,3,1,12,01,90,000,48,13,77,000,00,08,71,000,,22,65,000,00*73
$GPGSV,3,2,12,09,65,000,00,26,40,000,,24,33,000,00,04,28,000,00*79
$GPGSV,3,3,12,27,25,000,00,16,23,000,00,15,21,000,00,11,13,000,*7B
$GPRMC,204315.328,V,36000.0000,N,72000.0000,E,0.000000,,220120,,*31
$GPVTG,,T,,M,0.000000,N,0.000000,K*4E
$GPMSS,0,0,0.000000,200,*5A
$GPGGA,204316.328,0000.0000,N,00000.0000,E,0,00,50.0,0.0,M,0.0,M,0.0,0000*7D
$GPGLL,36000.0000,N,72000.0000,E,204316.328,V*18
$GPGSA,A,1,,,,,,,,,,,,,50.0,50.0,50.0*05
$GPGSV,3,1,12,01,90,000,48,13,77,000,00,08,71,000,,22,65,000,00*73
$GPGSV,3,2,12,09,65,000,00,26,40,000,,24,33,000,00,04,28,000,00*79
$GPGSV,3,3,12,27,25,000,00,16,23,000,00,15,21,000,00,11,13,000,*7B
$GPRMC,204316.328,V,36000.0000,N,72000.0000,E,0.000000,,220120,,*32
$GPVTG,,T,,M,0.000000,N,0.000000,K*4E
$GPMSS,0,0,0.000000,200,*5A
$GPGGA,204317.328,0000.0000,N,00000.0000,E,0,00,50.0,0.0,M,0.0,M,0.0,0000*7C
$GPGLL,36000.0000,N,72000.0000,E,204317.328,V*19
$GPGSA,A,1,,,,,,,,,,,,,50.0,50.0,50.0*05
$GPGSV,3,1,12,01,90,000,48,13,77,000,00,08,71,000,,22,65,000,00*73
$GPGSV,3,2,12,09,65,000,00,26,40,000,,24,33,000,00,04,28,000,00*79
$GPGSV,3,3,12,27,25,000,00,16,23,000,00,15,21,000,00,11,13,000,*7B
$GPRMC,204317.328,V,36000.0000,N,72000.0000,E,0.000000,,220120,,*33
$GPVTG,,T,,M,0.000000,N,0.000000,K*4E
$GPMSS,0,0,0.000000,200,*5A
$GPGGA,204318.328,0000.0000,N,00000.0000,E,0,00,50.0,0.0,M,0.0,M,0.0,0000*73
$GPGLL,36000.0000,N,72000.0000,E,204318.328,V*16
$GPGSA,A,1,,,,,,,,,,,,,50.0,50.0,50.0*05
$GPGSV,3,1,12,01,90,000,47,13,77,000,00,08,71,000,,22,65,000,00*7C
$GPGSV,3,2,12,09,65,000,00,26,40,000,,24,33,000,00,04,28,000,00*79
$GPGSV,3,3,12,27,25,000,00,16,23,000,00,15,21,000,00,11,13,000,*7B
$GPRMC,204318.328,V,36000.0000,N,72000.0000,E,0.000000,,220120,,*3C
$GPVTG,,T,,M,0.000000,N,0.000000,K*4E
$GPMSS,0,0,0.000000,200,*5A
$GPGGA,204319.328,0000.0000,N,00000.0000,E,0,00,50.0,0.0,M,0.0,M,0.0,0000*72
$GPGLL,36000.0000,N,72000.0000,E,204319.328,V*17
$GPGSA,A,1,,,,,,,,,,,,,50.0,50.0,50.0*05
$GPGSV,3,1,12,01,90,000,47,13,77,000,00,08,71,000,,22,65,000,00*7C
$GPGSV,3,2,12,09,65,000,00,26,40,000,,24,33,000,00,04,28,000,00*79
$GPGSV,3,3,12,27,25,000,00,16,23,000,00,15,21,000,00,11,13,000,*7B
$GPRMC,204319.328,V,36000.0000,N,72000.0000,E,0.000000,,220120,,*3D
$GPVTG,,T,,M,0.000000,N,0.000000,K*4E
$GPMSS,0,0,0.000000,200,*5A
$GPGGA,204320.328,0000.0000,N,00000.0000,E,0,00,50.0,0.0,M,0.0,M,0.0,0000*78
$GPGLL,36000.0000,N,72000.0000,E,204320.328,V*1D
$GPGSA,A,1,,,,,,,,,,,,,50.0,50.0,50.0*05
$GPGSV,3,1,12,01,90,000,47,13,77,000,00,08,71,000,,22,65,000,00*7C
$GPGSV,3,2,12,09,65,000,00,26,40,000,,24,33,000,00,04,28,000,00*79
$GPGSV,3,3,12,27,25,000,00,16,23,000,00,15,21,000,00,11,13,000,*7B
$GPRMC,204320.328,V,36000.0000,N,72000.0000,E,0.000000,,220120,,*37
$GPVTG,,T,,M,0.000000,N,0.000000,K*4E
$GPMSS,0,0,0.000000,200,*5A
$GPGGA,204321.328,0000.0000,N,00000.0000,E,0,00,50.0,0.0,M,0.0,M,0.0,0000*79
$GPGLL,36000.0000,N,72000.0000,E,204321.328,V*1C
$GPGSA,A,1,,,,,,,,,,,,,50.0,50.0,50.0*05
$GPGSV,3,1,12,01,90,000,47,13,77,000,00,08,71,000,,22,65,000,00*7C
$GPGSV,3,2,12,09,65,000,00,26,40,000,,24,33,000,00,04,28,000,00*79
$GPGSV,3,3,12,27,25,000,00,16,23,000,00,15,21,000,00,11,13,000,*7B
$GPRMC,204321.328,V,36000.0000,N,72000.0000,E,0.000000,,220120,,*36
$GPVTG,,T,,M,0.000000,N,0.000000,K*4E
$GPMSS,0,0,0.000000,200,*5A
$GPGGA,204322.328,0000.0000,N,00000.0000,E,0,00,50.0,0.0,M,0.0,M,0.0,0000*7A
$GPGLL,36000.0000,N,72000.0000,E,204322.328,V*1F
$GPGSA,A,1,,,,,,,,,,,,,50.0,50.0,50.0*05
$GPGSV,3,1,12,01,90,000,47,13,77,000,00,08,71,000,,22,65,000,00*7C
$GPGSV,3,2,12,09,65,000,00,26,40,000,,24,33,000,00,04,28,000,00*79
$GPGSV,3,3,12,27,25,000,00,16,23,000,00,15,21,000,00,11,13,000,*7B
$GPRMC,204322.328,V,36000.0000,N,72000.0000,E,0.000000,,220120,,*35
$GPVTG,,T,,M,0.000000,N,0.000000,K*4E
$GPMSS,0,0,0.000000,200,*5A
$GPGGA,204323.328,0000.0000,N,00000.0000,E,0,00,50.0,0.0,M,0.0,M,0.0,0000*7B
$GPGLL,36000.0000,N,72000.0000,E,204323.328,V*1E
$GPGSA,A,1,,,,,,,,,,,,,50.0,50.0,50.0*05
$GPGSV,3,1,12,01,90,000,47,13,77,000,00,08,71,000,,22,65,000,00*7C
$GPGSV,3,2,12,09,65,000,00,26,40,000,,24,33,000,00,04,28,000,00*79
$GPGSV,3,3,12,27,25,000,00,16,23,000,00,15,21,000,00,11,13,000,*7B
$GPRMC,204323.328,V,36000.0000,N,72000.0000,E,0.000000,,080605,,*3C
$GPVTG,,T,,M,0.000000,N,0.000000,K*4E
$GPMSS,0,0,0.000000,200,*5A
$GPGGA,204324.327,0000.0000,N,00000.0000,E,0,00,50.0,0.0,M,0.0,M,0.0,0000*73
$GPGLL,36000.0000,N,72000.0000,E,204324.327,V*16
$GPGSA,A,1,,,,,,,,,,,,,50.0,50.0,50.0*05
$GPGSV,3,1,12,01,89,000,47,11,56,000,,14,47,000,,25,41,000,*7C
$GPGSV,3,2,12,19,21,000,00,20,21,000,,22,18,000,00,03,05,000,*7E
$GPGSV,3,3,12,23,02,000,,15,00,000,00,07,00,000,00,24,-01,000,00*50
$GPRMC,204324.327,V,36000.0000,N,72000.0000,E,0.000000,,080605,,*34
$GPVTG,,T,,M,0.000000,N,0.000000,K*4E
$GPMSS,0,0,0.000000,200,*5A
$GPGGA,204325.327,0000.0000,N,00000.0000,E,0,00,50.0,0.0,M,0.0,M,0.0,0000*72
$GPGLL,36000.0000,N,72000.0000,E,204325.327,V*17
$GPGSA,A,1,,,,,,,,,,,,,50.0,50.0,50.0*05
$GPGSV,3,1,12,01,89,000,48,11,56,000,,14,47,000,00,25,41,000,*73
$GPGSV,3,2,12,19,21,000,00,20,21,000,,22,18,000,00,03,05,000,*7E
$GPGSV,3,3,12,23,02,000,00,15,00,000,00,07,00,000,00,24,-01,000,00*50
$GPRMC,204325.327,V,36000.0000,N,72000.0000,E,0.000000,,080605,,*35
$GPVTG,,T,,M,0.000000,N,0.000000,K*4E
$GPMSS,0,0,0.000000,200,*5A
$GPGGA,204326.327,0000.0000,N,00000.0000,E,0,00,50.0,0.0,M,0.0,M,0.0,0000*71
$GPGLL,36000.0000,N,72000.0000,E,204326.327,V*14
$GPGSA,A,1,,,,,,,,,,,,,50.0,50.0,50.0*05
$GPGSV,3,1,12,01,89,000,47,11,56,000,,14,47,000,00,25,41,000,*7C
$GPGSV,3,2,12,19,21,000,00,20,21,000,,22,18,000,00,03,05,000,*7E
$GPGSV,3,3,12,23,02,000,00,15,00,000,00,07,00,000,00,24,-01,000,00*50
$GPRMC,204326.327,V,36000.0000,N,72000.0000,E,0.000000,,080605,,*36
$GPVTG,,T,,M,0.000000,N,0.000000,K*4E
$GPMSS,0,0,0.000000,200,*5A
$GPGGA,204327.327,0000.0000,N,00000.0000,E,0,00,50.0,0.0,M,0.0,M,0.0,0000*70
$GPGLL,36000.0000,N,72000.0000,E,204327.327,V*15
$GPGSA,A,1,,,,,,,,,,,,,50.0,50.0,50.0*05
$GPGSV,3,1,12,01,89,000,47,11,56,000,,14,47,000,00,25,41,000,*7C
$GPGSV,3,2,12,19,21,000,00,20,21,000,,22,18,000,00,03,05,000,*7E
$GPGSV,3,3,12,23,02,000,00,15,00,000,00,07,00,000,00,24,-01,000,00*50
$GPRMC,204327.327,V,36000.0000,N,72000.0000,E,0.000000,,080605,,*37
$GPVTG,,T,,M,0.000000,N,0.000000,K*4E
$GPMSS,0,0,0.000000,200,*5A
$GPGGA,204328.327,0000.0000,N,00000.0000,E,0,00,50.0,0.0,M,0.0,M,0.0,0000*7F
$GPGLL,36000.0000,N,72000.0000,E,204328.327,V*1A
$GPGSA,A,1,,,,,,,,,,,,,50.0,50.0,50.0*05
$GPGSV,3,1,12,01,89,000,47,11,56,000,,14,47,000,00,25,41,000,*7C
$GPGSV,3,2,12,19,21,000,00,20,21,000,,22,18,000,00,03,05,000,*7E
$GPGSV,3,3,12,23,02,000,00,15,00,000,00,07,00,000,00,24,-01,000,00*50
$GPRMC,204328.327,V,36000.0000,N,72000.0000,E,0.000000,,080605,,*38
$GPVTG,,T,,M,0.000000,N,0.000000,K*4E
$GPMSS,0,0,0.000000,200,*5A
$GPGGA,204329.327,0000.0000,N,00000.0000,E,0,00,50.0,0.0,M,0.0,M,0.0,0000*7E
$GPGLL,36000.0000,N,72000.0000,E,204329.327,V*1B
$GPGSA,A,1,,,,,,,,,,,,,50.0,50.0,50.0*05
$GPGSV,3,1,12,01,89,000,47,11,56,000,,14,47,000,00,25,41,000,*7C
$GPGSV,3,2,12,19,21,000,00,20,21,000,,22,18,000,00,03,05,000,*7E
$GPGSV,3,3,12,23,02,000,00,15,00,000,00,07,00,000,00,24,-01,000,00*50
$GPRMC,204329.327,V,36000.0000,N,72000.0000,E,0.000000,,080605,,*39
$GPVTG,,T,,M,0.000000,N,0.000000,K*4E
$GPMSS,0,0,0.000000,200,*5A
$GPGGA,204330.327,0000.0000,N,00000.0000,E,0,00,50.0,0.0,M,0.0,M,0.0,0000*76
$GPGLL,36000.0000,N,72000.0000,E,204330.327,V*13
$GPGSA,A,1,,,,,,,,,,,,,50.0,50.0,50.0*05
$GPGSV,3,1,12,01,89,000,47,11,56,000,,14,47,000,00,25,41,000,*7C
$GPGSV,3,2,12,19,21,000,00,20,21,000,,22,18,000,00,03,05,000,*7E
$GPGSV,3,3,12,23,02,000,00,15,00,000,00,07,00,000,00,24,-01,000,00*50
$GPRMC,204330.327,V,36000.0000,N,72000.0000,E,0.000000,,080605,,*31
$GPVTG,,T,,M,0.000000,N,0.000000,K*4E
$GPMSS,0,0,0.000000,200,*5A
$GPGGA,204331.327,0000.0000,N,00000.0000,E,0,00,50.0,0.0,M,0.0,M,0.0,0000*77
$GPGLL,36000.0000,N,72000.0000,E,204331.327,V*12
$GPGSA,A,1,,,,,,,,,,,,,50.0,50.0,50.0*05
$GPGSV,3,1,12,01,89,000,47,11,56,000,,14,47,000,40,25,41,000,*78
$GPGSV,3,2,12,19,21,000,00,20,21,000,,22,18,000,00,03,05,000,*7E
$GPGSV,3,3,12,23,02,000,00,15,00,000,00,07,00,000,00,24,-01,000,00*50
$GPRMC,204331.327,V,36000.0000,N,72000.0000,E,0.000000,,080605,,*30
$GPVTG,,T,,M,0.000000,N,0.000000,K*4E
$GPMSS,0,0,0.000000,200,*5A
$GPGGA,204332.327,0000.0000,N,00000.0000,E,0,00,50.0,0.0,M,0.0,M,0.0,0000*74
$GPGLL,36000.0000,N,72000.0000,E,204332.327,V*11
$GPGSA,A,1,,,,,,,,,,,,,50.0,50.0,50.0*05
$GPGSV,3,1,12,01,89,000,47,11,56,000,,14,47,000,41,25,41,000,*79
$GPGSV,3,2,12,19,21,000,00,20,21,000,,22,18,000,00,03,05,000,*7E
$GPGSV,3,3,12,23,02,000,00,15,00,000,00,07,00,000,00,24,-01,000,00*50
$GPRMC,204332.327,V,36000.0000,N,72000.0000,E,0.000000,,080605,,*33
$GPVTG,,T,,M,0.000000,N,0.000000,K*4E
$GPMSS,0,0,0.000000,200,*5A
$GPGGA,204333.327,0000.0000,N,00000.0000,E,0,00,50.0,0.0,M,0.0,M,0.0,0000*75
$GPGLL,36000.0000,N,72000.0000,E,204333.327,V*10
$GPGSA,A,1,,,,,,,,,,,,,50.0,50.0,50.0*05
$GPGSV,3,1,12,01,89,000,47,11,56,000,,14,47,000,40,25,41,000,*78
$GPGSV,3,2,12,19,21,000,00,20,21,000,,22,18,000,00,03,05,000,*7E
$GPGSV,3,3,12,23,02,000,00,15,00,000,00,07,00,000,00,24,-01,000,00*50
$GPRMC,204333.327,V,36000.0000,N,72000.0000,E,0.000000,,080605,,*32
$GPVTG,,T,,M,0.000000,N,0.000000,K*4E
$GPMSS,0,0,0.000000,200,*5A
