$PTNTHTM,14223,N,169,N,-43,N,13641,2454*15
{"class":"ATT","tag":"PTNTHTM","heading":14223.00,"mag_st":"N","pitch":169.00,"pitch_st":"N","roll":-43.00,"roll_st":"N","dip":13641.000,"mag_x":2454.000}
$PTNTHTM,14091,N,171,N,-43,N,13599,2454*11
{"class":"ATT","tag":"PTNTHTM","heading":14091.00,"mag_st":"N","pitch":171.00,"pitch_st":"N","roll":-43.00,"roll_st":"N","dip":13599.000,"mag_x":2454.000}
$PTNTHTM,14287,N,172,N,-39,N,13652,2452*18
{"class":"ATT","tag":"PTNTHTM","heading":14287.00,"mag_st":"N","pitch":172.00,"pitch_st":"N","roll":-39.00,"roll_st":"N","dip":13652.000,"mag_x":2452.000}
$PTNTHTM,14150,N,171,N,-40,N,13605,2452*1E
{"class":"ATT","tag":"PTNTHTM","heading":14150.00,"mag_st":"N","pitch":171.00,"pitch_st":"N","roll":-40.00,"roll_st":"N","dip":13605.000,"mag_x":2452.000}
$PTNTHTM,14199,N,171,N,-40,N,13614,2452*1B
{"class":"ATT","tag":"PTNTHTM","heading":14199.00,"mag_st":"N","pitch":171.00,"pitch_st":"N","roll":-40.00,"roll_st":"N","dip":13614.000,"mag_x":2452.000}
$HCXDR,A,171,D,PITCH,A,-37,D,ROLL,G,367,,MAGX,G,2420,,MAGY,G,-8984,,MAGZ*41
$PTNTHTM,14168,N,171,N,-37,N,13615,2451*17
{"class":"ATT","tag":"PTNTHTM","heading":14168.00,"mag_st":"N","pitch":171.00,"pitch_st":"N","roll":-37.00,"roll_st":"N","dip":13615.000,"mag_x":2451.000}
$PTNTHTM,14359,N,172,N,-33,N,13647,2450*16
{"class":"ATT","tag":"PTNTHTM","heading":14359.00,"mag_st":"N","pitch":172.00,"pitch_st":"N","roll":-33.00,"roll_st":"N","dip":13647.000,"mag_x":2450.000}
$PTNTHTM,14243,N,172,N,-33,N,13608,2450*17
{"class":"ATT","tag":"PTNTHTM","heading":14243.00,"mag_st":"N","pitch":172.00,"pitch_st":"N","roll":-33.00,"roll_st":"N","dip":13608.000,"mag_x":2450.000}
$PTNTHTM,14340,N,176,N,-37,N,13616,2451*1B
{"class":"ATT","tag":"PTNTHTM","heading":14340.00,"mag_st":"N","pitch":176.00,"pitch_st":"N","roll":-37.00,"roll_st":"N","dip":13616.000,"mag_x":2451.000}
$PTNTHTM,14230,N,175,N,-37,N,13597,2451*14
{"class":"ATT","tag":"PTNTHTM","heading":14230.00,"mag_st":"N","pitch":175.00,"pitch_st":"N","roll":-37.00,"roll_st":"N","dip":13597.000,"mag_x":2451.000}
$HCXDR,A,180,D,PITCH,A,-39,D,ROLL,G,389,,MAGX,G,2473,,MAGY,G,-9007,,MAGZ*44
$PTNTHTM,14224,N,178,N,-42,N,13599,2452*13
{"class":"ATT","tag":"PTNTHTM","heading":14224.00,"mag_st":"N","pitch":178.00,"pitch_st":"N","roll":-42.00,"roll_st":"N","dip":13599.000,"mag_x":2452.000}
$PTNTHTM,14156,N,179,N,-42,N,13600,2452*17
{"class":"ATT","tag":"PTNTHTM","heading":14156.00,"mag_st":"N","pitch":179.00,"pitch_st":"N","roll":-42.00,"roll_st":"N","dip":13600.000,"mag_x":2452.000}
$PTNTHTM,14157,N,175,N,-42,N,13585,2454*12
{"class":"ATT","tag":"PTNTHTM","heading":14157.00,"mag_st":"N","pitch":175.00,"pitch_st":"N","roll":-42.00,"roll_st":"N","dip":13585.000,"mag_x":2454.000}
$PTNTHTM,14159,N,175,N,-42,N,13598,2454*10
{"class":"ATT","tag":"PTNTHTM","heading":14159.00,"mag_st":"N","pitch":175.00,"pitch_st":"N","roll":-42.00,"roll_st":"N","dip":13598.000,"mag_x":2454.000}
$PTNTHTM,14159,N,170,N,-40,N,13569,2455*18
{"class":"ATT","tag":"PTNTHTM","heading":14159.00,"mag_st":"N","pitch":170.00,"pitch_st":"N","roll":-40.00,"roll_st":"N","dip":13569.000,"mag_x":2455.000}
$HCXDR,A,170,D,PITCH,A,-40,D,ROLL,G,360,,MAGX,G,2419,,MAGY,G,-8947,,MAGZ*42
$PTNTHTM,14199,N,170,N,-40,N,13610,2454*18
{"class":"ATT","tag":"PTNTHTM","heading":14199.00,"mag_st":"N","pitch":170.00,"pitch_st":"N","roll":-40.00,"roll_st":"N","dip":13610.000,"mag_x":2454.000}
$PTNTHTM,14094,N,167,N,-40,N,13571,2455*17
{"class":"ATT","tag":"PTNTHTM","heading":14094.00,"mag_st":"N","pitch":167.00,"pitch_st":"N","roll":-40.00,"roll_st":"N","dip":13571.000,"mag_x":2455.000}
$PTNTHTM,14185,N,167,N,-43,N,13626,2454*15
{"class":"ATT","tag":"PTNTHTM","heading":14185.00,"mag_st":"N","pitch":167.00,"pitch_st":"N","roll":-43.00,"roll_st":"N","dip":13626.000,"mag_x":2454.000}
$PTNTHTM,14043,N,169,N,-42,N,13592,2454*1D
{"class":"ATT","tag":"PTNTHTM","heading":14043.00,"mag_st":"N","pitch":169.00,"pitch_st":"N","roll":-42.00,"roll_st":"N","dip":13592.000,"mag_x":2454.000}
$PTNTHTM,14236,N,169,N,-45,N,13644,2453*15
{"class":"ATT","tag":"PTNTHTM","heading":14236.00,"mag_st":"N","pitch":169.00,"pitch_st":"N","roll":-45.00,"roll_st":"N","dip":13644.000,"mag_x":2453.000}
$HCXDR,A,169,D,PITCH,A,-45,D,ROLL,G,352,,MAGX,G,2382,,MAGY,G,-8909,,MAGZ*41
$PTNTHTM,14061,N,172,N,-45,N,13599,2452*1D
{"class":"ATT","tag":"PTNTHTM","heading":14061.00,"mag_st":"N","pitch":172.00,"pitch_st":"N","roll":-45.00,"roll_st":"N","dip":13599.000,"mag_x":2452.000}
$PTNTHTM,14299,N,171,N,-42,N,13652,2450*1A
{"class":"ATT","tag":"PTNTHTM","heading":14299.00,"mag_st":"N","pitch":171.00,"pitch_st":"N","roll":-42.00,"roll_st":"N","dip":13652.000,"mag_x":2450.000}
$PTNTHTM,14149,N,170,N,-43,N,13605,2450*16
{"class":"ATT","tag":"PTNTHTM","heading":14149.00,"mag_st":"N","pitch":170.00,"pitch_st":"N","roll":-43.00,"roll_st":"N","dip":13605.000,"mag_x":2450.000}
$PTNTHTM,14243,N,170,N,-39,N,13622,2450*17
{"class":"ATT","tag":"PTNTHTM","heading":14243.00,"mag_st":"N","pitch":170.00,"pitch_st":"N","roll":-39.00,"roll_st":"N","dip":13622.000,"mag_x":2450.000}
$PTNTHTM,14155,N,172,N,-35,N,13611,2449*15
{"class":"ATT","tag":"PTNTHTM","heading":14155.00,"mag_st":"N","pitch":172.00,"pitch_st":"N","roll":-35.00,"roll_st":"N","dip":13611.000,"mag_x":2449.000}
$HCXDR,A,172,D,PITCH,A,-37,D,ROLL,G,359,,MAGX,G,2433,,MAGY,G,-9009,,MAGZ*40
$PTNTHTM,14330,N,172,N,-32,N,13647,2448*11
{"class":"ATT","tag":"PTNTHTM","heading":14330.00,"mag_st":"N","pitch":172.00,"pitch_st":"N","roll":-32.00,"roll_st":"N","dip":13647.000,"mag_x":2448.000}
$PTNTHTM,14239,N,171,N,-33,N,13612,2448*1B
{"class":"ATT","tag":"PTNTHTM","heading":14239.00,"mag_st":"N","pitch":171.00,"pitch_st":"N","roll":-33.00,"roll_st":"N","dip":13612.000,"mag_x":2448.000}
$PTNTHTM,14182,N,174,N,-34,N,13581,2449*12
{"class":"ATT","tag":"PTNTHTM","heading":14182.00,"mag_st":"N","pitch":174.00,"pitch_st":"N","roll":-34.00,"roll_st":"N","dip":13581.000,"mag_x":2449.000}
$PTNTHTM,14256,N,174,N,-37,N,13602,2449*13
{"class":"ATT","tag":"PTNTHTM","heading":14256.00,"mag_st":"N","pitch":174.00,"pitch_st":"N","roll":-37.00,"roll_st":"N","dip":13602.000,"mag_x":2449.000}
$PTNTHTM,14139,N,178,N,-38,N,13568,2450*1D
{"class":"ATT","tag":"PTNTHTM","heading":14139.00,"mag_st":"N","pitch":178.00,"pitch_st":"N","roll":-38.00,"roll_st":"N","dip":13568.000,"mag_x":2450.000}
$HCXDR,A,177,D,PITCH,A,-40,D,ROLL,G,358,,MAGX,G,2432,,MAGY,G,-8974,,MAGZ*47
$PTNTHTM,14193,N,177,N,-40,N,13604,2450*14
{"class":"ATT","tag":"PTNTHTM","heading":14193.00,"mag_st":"N","pitch":177.00,"pitch_st":"N","roll":-40.00,"roll_st":"N","dip":13604.000,"mag_x":2450.000}
$PTNTHTM,14186,N,174,N,-42,N,13590,2451*1E
{"class":"ATT","tag":"PTNTHTM","heading":14186.00,"mag_st":"N","pitch":174.00,"pitch_st":"N","roll":-42.00,"roll_st":"N","dip":13590.000,"mag_x":2451.000}
$PTNTHTM,14174,N,174,N,-40,N,13602,2451*19
{"class":"ATT","tag":"PTNTHTM","heading":14174.00,"mag_st":"N","pitch":174.00,"pitch_st":"N","roll":-40.00,"roll_st":"N","dip":13602.000,"mag_x":2451.000}
$PTNTHTM,14094,N,172,N,-40,N,13570,2452*15
{"class":"ATT","tag":"PTNTHTM","heading":14094.00,"mag_st":"N","pitch":172.00,"pitch_st":"N","roll":-40.00,"roll_st":"N","dip":13570.000,"mag_x":2452.000}
$PTNTHTM,14232,N,169,N,-42,N,13609,2452*1E
{"class":"ATT","tag":"PTNTHTM","heading":14232.00,"mag_st":"N","pitch":169.00,"pitch_st":"N","roll":-42.00,"roll_st":"N","dip":13609.000,"mag_x":2452.000}
$HCXDR,A,169,D,PITCH,A,-42,D,ROLL,G,371,,MAGX,G,2430,,MAGY,G,-8925,,MAGZ*47
$PTNTHTM,14134,N,165,N,-42,N,13570,2452*1A
{"class":"ATT","tag":"PTNTHTM","heading":14134.00,"mag_st":"N","pitch":165.00,"pitch_st":"N","roll":-42.00,"roll_st":"N","dip":13570.000,"mag_x":2452.000}
$PTNTHTM,14225,N,165,N,-43,N,13632,2452*1D
{"class":"ATT","tag":"PTNTHTM","heading":14225.00,"mag_st":"N","pitch":165.00,"pitch_st":"N","roll":-43.00,"roll_st":"N","dip":13632.000,"mag_x":2452.000}
$PTNTHTM,14042,N,169,N,-43,N,13588,2451*13
{"class":"ATT","tag":"PTNTHTM","heading":14042.00,"mag_st":"N","pitch":169.00,"pitch_st":"N","roll":-43.00,"roll_st":"N","dip":13588.000,"mag_x":2451.000}
$PTNTHTM,14222,N,170,N,-45,N,13646,2451*18
{"class":"ATT","tag":"PTNTHTM","heading":14222.00,"mag_st":"N","pitch":170.00,"pitch_st":"N","roll":-45.00,"roll_st":"N","dip":13646.000,"mag_x":2451.000}
$PTNTHTM,14174,N,170,N,-45,N,13640,2450*1F
{"class":"ATT","tag":"PTNTHTM","heading":14174.00,"mag_st":"N","pitch":170.00,"pitch_st":"N","roll":-45.00,"roll_st":"N","dip":13640.000,"mag_x":2450.000}
$HCXDR,A,170,D,PITCH,A,-42,D,ROLL,G,341,,MAGX,G,2404,,MAGY,G,-8961,,MAGZ*4B
$PTNTHTM,14264,N,170,N,-42,N,13636,2449*13
{"class":"ATT","tag":"PTNTHTM","heading":14264.00,"mag_st":"N","pitch":170.00,"pitch_st":"N","roll":-42.00,"roll_st":"N","dip":13636.000,"mag_x":2449.000}
$PTNTHTM,14132,N,171,N,-42,N,13604,2448*12
{"class":"ATT","tag":"PTNTHTM","heading":14132.00,"mag_st":"N","pitch":171.00,"pitch_st":"N","roll":-42.00,"roll_st":"N","dip":13604.000,"mag_x":2448.000}
$PTNTHTM,14265,N,171,N,-38,N,13629,2448*11
{"class":"ATT","tag":"PTNTHTM","heading":14265.00,"mag_st":"N","pitch":171.00,"pitch_st":"N","roll":-38.00,"roll_st":"N","dip":13629.000,"mag_x":2448.000}
$PTNTHTM,14145,N,171,N,-38,N,13612,2447*17
{"class":"ATT","tag":"PTNTHTM","heading":14145.00,"mag_st":"N","pitch":171.00,"pitch_st":"N","roll":-38.00,"roll_st":"N","dip":13612.000,"mag_x":2447.000}
$PTNTHTM,14198,N,172,N,-38,N,13614,2447*12
{"class":"ATT","tag":"PTNTHTM","heading":14198.00,"mag_st":"N","pitch":172.00,"pitch_st":"N","roll":-38.00,"roll_st":"N","dip":13614.000,"mag_x":2447.000}
$HCXDR,A,172,D,PITCH,A,-34,D,ROLL,G,327,,MAGX,G,2389,,MAGY,G,-8997,,MAGZ*43
$PTNTHTM,14184,N,172,N,-35,N,13612,2446*15
{"class":"ATT","tag":"PTNTHTM","heading":14184.00,"mag_st":"N","pitch":172.00,"pitch_st":"N","roll":-35.00,"roll_st":"N","dip":13612.000,"mag_x":2446.000}
$PTNTHTM,14187,N,174,N,-35,N,13589,2447*10
{"class":"ATT","tag":"PTNTHTM","heading":14187.00,"mag_st":"N","pitch":174.00,"pitch_st":"N","roll":-35.00,"roll_st":"N","dip":13589.000,"mag_x":2447.000}
$PTNTHTM,14257,N,174,N,-35,N,13603,2447*1F
{"class":"ATT","tag":"PTNTHTM","heading":14257.00,"mag_st":"N","pitch":174.00,"pitch_st":"N","roll":-35.00,"roll_st":"N","dip":13603.000,"mag_x":2447.000}
$PTNTHTM,14161,N,178,N,-37,N,13575,2448*1A
{"class":"ATT","tag":"PTNTHTM","heading":14161.00,"mag_st":"N","pitch":178.00,"pitch_st":"N","roll":-37.00,"roll_st":"N","dip":13575.000,"mag_x":2448.000}
$PTNTHTM,14302,N,177,N,-40,N,13608,2448*1B
{"class":"ATT","tag":"PTNTHTM","heading":14302.00,"mag_st":"N","pitch":177.00,"pitch_st":"N","roll":-40.00,"roll_st":"N","dip":13608.000,"mag_x":2448.000}
$HCXDR,A,176,D,PITCH,A,-40,D,ROLL,G,388,,MAGX,G,2468,,MAGY,G,-9006,,MAGZ*49
