$PMTK010,001*2E
$GPGGA,235946.033,8960.0000,N,00000.0000,E,0,0,,137.0,M,13.0,M,,*4C
$GPGSA,A,1,,,,,,,,,,,,,,,*1E
{"class":"TPV","tag":"GSA","mode":1}
$GPGSV,1,1,00*79
$GPRMC,235946.033,V,8960.0000,N,00000.0000,E,0.00,0.00,050180,,,N*72
$GPGGA,235947.032,8960.0000,N,00000.0000,E,0,0,,137.0,M,13.0,M,,*4C
$GPGSA,A,1,,,,,,,,,,,,,,,*1E
{"class":"TPV","tag":"GSA","mode":1}
$GPGSV,1,1,00*79
$GPRMC,235947.032,V,8960.0000,N,00000.0000,E,0.00,0.00,050180,,,N*72
$GPGGA,235948.032,8960.0000,N,00000.0000,E,0,0,,137.0,M,13.0,M,,*43
$GPGSA,A,1,,,,,,,,,,,,,,,*1E
{"class":"TPV","tag":"GSA","mode":1}
$GPGSV,1,1,00*79
$GPRMC,235948.032,V,8960.0000,N,00000.0000,E,0.00,0.00,050180,,,N*7D
$GPGGA,235949.032,8960.0000,N,00000.0000,E,0,0,,137.0,M,13.0,M,,*42
$GPGSA,A,1,,,,,,,,,,,,,,,*1E
{"class":"TPV","tag":"GSA","mode":1}
$GPGSV,1,1,00*79
$GPRMC,235949.032,V,8960.0000,N,00000.0000,E,0.00,0.00,050180,,,N*7C
$GPGGA,235950.033,8960.0000,N,00000.0000,E,0,0,,137.0,M,13.0,M,,*4B
$GPGSA,A,1,,,,,,,,,,,,,,,*1E
{"class":"TPV","tag":"GSA","mode":1}
$GPGSV,1,1,00*79
$GPRMC,235950.033,V,8960.0000,N,00000.0000,E,0.00,0.00,050180,,,N*75
$GPGGA,235951.033,8960.0000,N,00000.0000,E,0,0,,137.0,M,13.0,M,,*4A
$GPGSA,A,1,,,,,,,,,,,,,,,*1E
{"class":"TPV","tag":"GSA","mode":1}
$GPGSV,1,1,01,23,,,25*7E
$GPRMC,235951.033,V,8960.0000,N,00000.0000,E,0.00,0.00,050180,,,N*74
$PMTK001,10,1*03
$GPGGA,235952.033,8960.0000,N,00000.0000,E,0,0,,137.0,M,13.0,M,,*49
$GPGSA,A,1,,,,,,,,,,,,,,,*1E
{"class":"TPV","tag":"GSA","mode":1}
$GPGSV,1,1,01,23,,,28*73
$GPRMC,235952.033,V,8960.0000,N,00000.0000,E,0.00,0.00,050180,,,N*77
$GPGGA,235953.033,8960.0000,N,00000.0000,E,0,0,,137.0,M,13.0,M,,*48
$GPGSA,A,1,,,,,,,,,,,,,,,*1E
{"class":"TPV","tag":"GSA","mode":1}
$GPGSV,1,1,01,23,,,27*7C
$GPRMC,235953.033,V,8960.0000,N,00000.0000,E,0.00,0.00,050180,,,N*76
$GPGGA,235954.032,8960.0000,N,00000.0000,E,0,0,,137.0,M,13.0,M,,*4E
$GPGSA,A,1,,,,,,,,,,,,,,,*1E
{"class":"TPV","tag":"GSA","mode":1}
$GPGSV,1,1,01,23,,,30*7A
$GPRMC,235954.032,V,8960.0000,N,00000.0000,E,0.00,0.00,050180,,,N*70
$GPGGA,235955.032,8960.0000,N,00000.0000,E,0,0,,137.0,M,13.0,M,,*4F
$GPGSA,A,1,,,,,,,,,,,,,,,*1E
{"class":"TPV","tag":"GSA","mode":1}
$GPGSV,1,1,01,23,,,30*7A
$GPRMC,235955.032,V,8960.0000,N,00000.0000,E,0.00,0.00,050180,,,N*71
$GPGGA,235956.032,8960.0000,N,00000.0000,E,0,0,,137.0,M,13.0,M,,*4C
$GPGSA,A,1,,,,,,,,,,,,,,,*1E
{"class":"TPV","tag":"GSA","mode":1}
$GPGSV,1,1,01,23,,,29*72
$GPRMC,235956.032,V,8960.0000,N,00000.0000,E,0.00,0.00,050180,,,N*72
$GPGGA,235957.032,8960.0000,N,00000.0000,E,0,0,,137.0,M,13.0,M,,*4D
$GPGSA,A,1,,,,,,,,,,,,,,,*1E
{"class":"TPV","tag":"GSA","mode":1}
$GPGSV,1,1,01,23,,,27*7C
$GPRMC,235957.032,V,8960.0000,N,00000.0000,E,0.00,0.00,050180,,,N*73
$GPGGA,235958.032,8960.0000,N,00000.0000,E,0,0,,137.0,M,13.0,M,,*42
$GPGSA,A,1,,,,,,,,,,,,,,,*1E
{"class":"TPV","tag":"GSA","mode":1}
$GPGSV,1,1,01,23,,,26*7D
$GPRMC,235958.032,V,8960.0000,N,00000.0000,E,0.00,0.00,050180,,,N*7C
$GPGGA,235959.032,8960.0000,N,00000.0000,E,0,0,,137.0,M,13.0,M,,*43
$GPGSA,A,1,,,,,,,,,,,,,,,*1E
{"class":"TPV","tag":"GSA","mode":1}
$GPGSV,1,1,01,23,,,34*7E
$GPRMC,235959.032,V,8960.0000,N,00000.0000,E,0.00,0.00,050180,,,N*7D
$GPGGA,000000.032,8960.0000,N,00000.0000,E,0,0,,137.0,M,13.0,M,,*42
$GPGSA,A,1,,,,,,,,,,,,,,,*1E
{"class":"TPV","tag":"GSA","mode":1}
$GPGSV,1,1,02,23,,,46,13,,,28*70
$GPRMC,000000.032,V,8960.0000,N,00000.0000,E,0.00,0.00,060180,,,N*7F
$GPGGA,000001.032,8960.0000,N,00000.0000,E,0,0,,137.0,M,13.0,M,,*43
$GPGSA,A,1,,,,,,,,,,,,,,,*1E
{"class":"TPV","tag":"GSA","mode":1}
$GPGSV,1,1,02,23,,,35,13,,,35*78
$GPRMC,000001.032,V,8960.0000,N,00000.0000,E,0.00,0.00,060180,,,N*7E
$GPGGA,000002.033,8960.0000,N,00000.0000,E,0,0,,137.0,M,13.0,M,,*41
$GPGSA,A,1,,,,,,,,,,,,,,,*1E
{"class":"TPV","tag":"GSA","mode":1}
$GPGSV,1,1,02,23,,,27,13,,,32*7C
$GPRMC,000002.033,V,8960.0000,N,00000.0000,E,0.00,0.00,060180,,,N*7C
$GPGGA,000003.033,8960.0000,N,00000.0000,E,0,0,,137.0,M,13.0,M,,*40
$GPGSA,A,1,,,,,,,,,,,,,,,*1E
{"class":"TPV","tag":"GSA","mode":1}
$GPGSV,1,1,02,23,,,34,13,,,34*78
$GPRMC,000003.033,V,8960.0000,N,00000.0000,E,0.00,0.00,060180,,,N*7D
$GPGGA,000004.033,8960.0000,N,00000.0000,E,0,0,,137.0,M,13.0,M,,*47
$GPGSA,A,1,,,,,,,,,,,,,,,*1E
{"class":"TPV","tag":"GSA","mode":1}
$GPGSV,1,1,02,23,,,32,13,,,33*79
$GPRMC,000004.033,V,8960.0000,N,00000.0000,E,0.00,0.00,060180,,,N*7A
$GPGGA,000005.033,8960.0000,N,00000.0000,E,0,0,,137.0,M,13.0,M,,*46
$GPGSA,A,1,,,,,,,,,,,,,,,*1E
{"class":"TPV","tag":"GSA","mode":1}
$GPGSV,1,1,02,23,,,32,13,,,31*7B
$GPRMC,000005.033,V,8960.0000,N,00000.0000,E,0.00,0.00,060180,,,N*7B
$GPGGA,000006.033,8960.0000,N,00000.0000,E,0,0,,137.0,M,13.0,M,,*45
$GPGSA,A,1,,,,,,,,,,,,,,,*1E
{"class":"TPV","tag":"GSA","mode":1}
$GPGSV,1,1,02,23,,,30,13,,,32*7A
$GPRMC,000006.033,V,8960.0000,N,00000.0000,E,0.00,0.00,060180,,,N*78
$GPGGA,000007.033,8960.0000,N,00000.0000,E,0,0,,137.0,M,13.0,M,,*44
$GPGSA,A,1,,,,,,,,,,,,,,,*1E
{"class":"TPV","tag":"GSA","mode":1}
$GPGSV,1,1,02,23,,,30,13,,,32*7A
$GPRMC,000007.033,V,8960.0000,N,00000.0000,E,0.00,0.00,060180,,,N*79
$GPGGA,000008.033,8960.0000,N,00000.0000,E,0,0,,137.0,M,13.0,M,,*4B
$GPGSA,A,1,,,,,,,,,,,,,,,*1E
{"class":"TPV","tag":"GSA","mode":1}
$GPGSV,1,1,03,23,,,30,13,,,32,32,,,44*7A
$GPRMC,000008.033,V,8960.0000,N,00000.0000,E,0.00,0.00,060180,,,N*76
$GPGGA,000009.033,8960.0000,N,00000.0000,E,0,0,,137.0,M,13.0,M,,*4A
$GPGSA,A,1,,,,,,,,,,,,,,,*1E
{"class":"TPV","tag":"GSA","mode":1}
$GPGSV,1,1,03,23,,,30,13,,,32,32,,,46*78
$GPRMC,000009.033,V,8960.0000,N,00000.0000,E,0.00,0.00,060180,,,N*77
$GPGGA,071659.929,8960.0000,N,00000.0000,E,0,0,,137.0,M,13.0,M,,*4D
$GPGSA,A,1,,,,,,,,,,,,,,,*1E
{"class":"TPV","tag":"GSA","mode":1}
$GPGSV,1,1,03,23,,,29,13,,,32,32,,,46*70
$GPRMC,071659.929,V,8960.0000,N,00000.0000,E,0.00,0.00,110180,,,N*76
$GPGGA,071700.929,8960.0000,N,00000.0000,E,0,0,,137.0,M,13.0,M,,*40
$GPGSA,A,1,,,,,,,,,,,,,,,*1E
{"class":"TPV","tag":"GSA","mode":1}
$GPGSV,1,1,03,23,,,29,13,,,32,32,,,45*73
$GPRMC,071700.929,V,8960.0000,N,00000.0000,E,0.00,0.00,110180,,,N*7B
$GPGGA,071701.929,8960.0000,N,00000.0000,E,0,0,,137.0,M,13.0,M,,*41
$GPGSA,A,1,,,,,,,,,,,,,,,*1E
{"class":"TPV","tag":"GSA","mode":1}
$GPGSV,1,1,03,23,,,29,13,,,32,32,,,46*70
$GPRMC,071701.929,V,8960.0000,N,00000.0000,E,0.00,0.00,110180,,,N*7A
$GPGGA,071702.929,8960.0000,N,00000.0000,E,0,0,,137.0,M,13.0,M,,*42
$GPGSA,A,1,,,,,,,,,,,,,,,*1E
{"class":"TPV","tag":"GSA","mode":1}
$GPGSV,1,1,03,23,,,30,13,,,32,32,,,46*78
$GPRMC,071702.929,V,8960.0000,N,00000.0000,E,0.00,0.00,110180,,,N*79
$GPGGA,071703.929,8960.0000,N,00000.0000,E,0,0,,137.0,M,13.0,M,,*43
$GPGSA,A,1,,,,,,,,,,,,,,,*1E
{"class":"TPV","tag":"GSA","mode":1}
$GPGSV,1,1,04,23,,,31,13,,,33,32,,,46,20,,,44*7D
$GPRMC,071703.929,V,8960.0000,N,00000.0000,E,0.00,0.00,110180,,,N*78
$GPGGA,071704.929,8960.0000,N,00000.0000,E,0,0,,137.0,M,13.0,M,,*44
$GPGSA,A,1,,,,,,,,,,,,,,,*1E
{"class":"TPV","tag":"GSA","mode":1}
$GPGSV,1,1,04,23,,,33,13,,,33,32,,,45,20,,,41*79
$GPRMC,071704.929,V,8960.0000,N,00000.0000,E,0.00,0.00,110180,,,N*7F
$GPGGA,071705.929,8960.0000,N,00000.0000,E,0,0,,137.0,M,13.0,M,,*45
$GPGSA,A,1,,,,,,,,,,,,,,,*1E
{"class":"TPV","tag":"GSA","mode":1}
$GPGSV,1,1,04,23,,,33,13,,,33,32,,,44,20,,,42*7B
$GPRMC,071705.929,V,8960.0000,N,00000.0000,E,0.00,0.00,110180,,,N*7E
$GPGGA,071706.929,8960.0000,N,00000.0000,E,0,0,,137.0,M,13.0,M,,*46
$GPGSA,A,1,,,,,,,,,,,,,,,*1E
{"class":"TPV","tag":"GSA","mode":1}
$GPGSV,1,1,04,23,,,34,13,,,33,32,,,44,20,,,43*7D
$GPRMC,071706.929,V,8960.0000,N,00000.0000,E,0.00,0.00,110180,,,N*7D
$GPGGA,071707.929,8960.0000,N,00000.0000,E,0,0,,137.0,M,13.0,M,,*47
$GPGSA,A,1,,,,,,,,,,,,,,,*1E
{"class":"TPV","tag":"GSA","mode":1}
$GPGSV,1,1,04,23,,,35,13,,,32,32,,,44,20,,,42*7C
$GPRMC,071707.929,V,8960.0000,N,00000.0000,E,0.00,0.00,110180,,,N*7C
$GPGGA,071708.929,8960.0000,N,00000.0000,E,0,0,,137.0,M,13.0,M,,*48
$GPGSA,A,1,,,,,,,,,,,,,,,*1E
{"class":"TPV","tag":"GSA","mode":1}
$GPGSV,1,1,04,23,,,36,13,,,32,32,,,44,20,,,42*7F
$GPRMC,071708.929,V,8960.0000,N,00000.0000,E,0.00,0.00,110180,,,N*73
$GPGGA,071709.929,8960.0000,N,00000.0000,E,0,0,,137.0,M,13.0,M,,*49
$GPGSA,A,1,,,,,,,,,,,,,,,*1E
{"class":"TPV","tag":"GSA","mode":1}
$GPGSV,1,1,04,23,,,36,13,,,32,32,,,44,20,,,42*7F
$GPRMC,071709.929,V,8960.0000,N,00000.0000,E,0.00,0.00,110180,,,N*72
$GPGGA,071710.929,8960.0000,N,00000.0000,E,0,0,,137.0,M,13.0,M,,*41
$GPGSA,A,1,,,,,,,,,,,,,,,*1E
{"class":"TPV","tag":"GSA","mode":1}
$GPGSV,1,1,04,23,,,36,13,,,32,32,,,44,20,,,42*7F
$GPRMC,071710.929,V,8960.0000,N,00000.0000,E,0.00,0.00,110180,,,N*7A
$GPGGA,071711.929,8960.0000,N,00000.0000,E,0,0,,137.0,M,13.0,M,,*40
$GPGSA,A,1,,,,,,,,,,,,,,,*1E
{"class":"TPV","tag":"GSA","mode":1}
$GPGSV,1,1,04,23,,,36,13,,,32,32,,,44,20,,,42*7F
$GPRMC,071711.929,V,8960.0000,N,00000.0000,E,0.00,0.00,110180,,,N*7B
$GPGGA,071712.929,8960.0000,N,00000.0000,E,0,0,,137.0,M,13.0,M,,*43
$GPGSA,A,1,,,,,,,,,,,,,,,*1E
{"class":"TPV","tag":"GSA","mode":1}
$GPGSV,1,1,04,23,,,37,13,,,32,32,,,44,20,,,42*7E
$GPRMC,071712.929,V,8960.0000,N,00000.0000,E,0.00,0.00,110180,,,N*78
$GPGGA,071713.929,8960.0000,N,00000.0000,E,0,0,,137.0,M,13.0,M,,*42
$GPGSA,A,1,,,,,,,,,,,,,,,*1E
{"class":"TPV","tag":"GSA","mode":1}
$GPGSV,1,1,04,23,,,37,13,,,33,32,,,44,20,,,42*7F
$GPRMC,071713.929,V,8960.0000,N,00000.0000,E,0.00,0.00,110180,,,N*79
$GPGGA,071714.929,8960.0000,N,00000.0000,E,0,0,,137.0,M,13.0,M,,*45
$GPGSA,A,1,,,,,,,,,,,,,,,*1E
{"class":"TPV","tag":"GSA","mode":1}
$GPGSV,1,1,04,23,,,37,13,,,33,32,,,44,20,,,42*7F
$GPRMC,071714.929,V,8960.0000,N,00000.0000,E,0.00,0.00,110180,,,N*7E
$GPGGA,071715.929,8960.0000,N,00000.0000,E,0,0,,137.0,M,13.0,M,,*44
$GPGSA,A,1,,,,,,,,,,,,,,,*1E
{"class":"TPV","tag":"GSA","mode":1}
$GPGSV,1,1,04,23,,,37,13,,,33,32,,,44,20,,,42*7F
$GPRMC,071715.929,V,8960.0000,N,00000.0000,E,0.00,0.00,110180,,,N*7F
$GPGGA,071716.929,8960.0000,N,00000.0000,E,0,0,,137.0,M,13.0,M,,*47
$GPGSA,A,1,,,,,,,,,,,,,,,*1E
{"class":"TPV","tag":"GSA","mode":1}
$GPGSV,1,1,04,23,,,37,13,,,33,32,,,44,20,,,42*7F
$GPRMC,071716.929,V,8960.0000,N,00000.0000,E,0.00,0.00,110180,,,N*7C
$GPGGA,071717.929,8960.0000,N,00000.0000,E,0,0,,137.0,M,13.0,M,,*46
$GPGSA,A,1,,,,,,,,,,,,,,,*1E
{"class":"TPV","tag":"GSA","mode":1}
$GPGSV,1,1,04,23,,,37,13,,,33,32,,,44,20,,,42*7F
$GPRMC,071717.929,V,8960.0000,N,00000.0000,E,0.00,0.00,110180,,,N*7D
$GPGGA,071718.929,8960.0000,N,00000.0000,E,0,0,,137.0,M,13.0,M,,*49
$GPGSA,A,1,,,,,,,,,,,,,,,*1E
{"class":"TPV","tag":"GSA","mode":1}
$GPGSV,1,1,04,23,,,37,13,,,33,32,,,44,20,,,42*7F
$GPRMC,071718.929,V,8960.0000,N,00000.0000,E,0.00,0.00,110180,,,N*72
$GPGGA,071719.929,8960.0000,N,00000.0000,E,0,0,,137.0,M,13.0,M,,*48
$GPGSA,A,1,,,,,,,,,,,,,,,*1E
{"class":"TPV","tag":"GSA","mode":1}
$GPGSV,1,1,04,23,,,37,13,,,33,32,,,44,20,,,42*7F
$GPRMC,071719.929,V,8960.0000,N,00000.0000,E,0.00,0.00,110180,,,N*73
$GPGGA,071720.929,8960.0000,N,00000.0000,E,0,0,,137.0,M,13.0,M,,*42
$GPGSA,A,1,,,,,,,,,,,,,,,*1E
{"class":"TPV","tag":"GSA","mode":1}
$GPGSV,1,1,04,23,,,37,13,,,33,32,,,44,20,,,42*7F
$GPRMC,071720.929,V,8960.0000,N,00000.0000,E,0.00,0.00,110180,,,N*79
$GPGGA,071721.929,8960.0000,N,00000.0000,E,0,0,,137.0,M,13.0,M,,*43
$GPGSA,A,1,,,,,,,,,,,,,,,*1E
{"class":"TPV","tag":"GSA","mode":1}
$GPGSV,1,1,04,23,,,37,13,,,33,32,,,44,20,,,42*7F
$GPRMC,071721.929,V,8960.0000,N,00000.0000,E,0.00,0.00,110180,,,N*78
$GPGGA,071722.929,8960.0000,N,00000.0000,E,0,0,,137.0,M,13.0,M,,*40
$GPGSA,A,1,,,,,,,,,,,,,,,*1E
{"class":"TPV","tag":"GSA","mode":1}
$GPGSV,1,1,04,23,,,37,13,,,34,32,,,44,20,,,42*78
$GPRMC,071722.929,V,8960.0000,N,00000.0000,E,0.00,0.00,111111,,,N*72
$GPGGA,071723.929,8960.0000,N,00000.0000,E,0,0,,137.0,M,13.0,M,,*41
$GPGSA,A,1,,,,,,,,,,,,,,,*1E
{"class":"TPV","tag":"GSA","mode":1}
$GPGSV,1,1,04,23,,,37,13,,,34,32,,,44,20,,,42*78
$GPRMC,071723.929,V,8960.0000,N,00000.0000,E,0.00,0.00,111111,,,N*73
$GPGGA,071724.929,8960.0000,N,00000.0000,E,0,0,,137.0,M,13.0,M,,*46
$GPGSA,A,1,,,,,,,,,,,,,,,*1E
{"class":"TPV","tag":"GSA","mode":1}
$GPGSV,1,1,04,23,,,37,13,,,34,32,,,43,20,,,41*7C
$GPRMC,071724.929,V,8960.0000,N,00000.0000,E,0.00,0.00,111111,,,N*74
$GPGGA,071725.929,8960.0000,N,00000.0000,E,0,0,,137.0,M,13.0,M,,*47
$GPGSA,A,1,,,,,,,,,,,,,,,*1E
{"class":"TPV","tag":"GSA","mode":1}
$GPGSV,1,1,04,23,,,37,13,,,34,32,,,43,20,,,41*7C
$GPRMC,071725.929,V,8960.0000,N,00000.0000,E,0.00,0.00,111111,,,N*75
$GPGGA,071726.929,8960.0000,N,00000.0000,E,0,0,,137.0,M,13.0,M,,*44
$GPGSA,A,1,,,,,,,,,,,,,,,*1E
{"class":"TPV","tag":"GSA","mode":1}
$GPGSV,2,1,05,23,,,37,13,,,34,32,,,43,31,,,30*78
$GPGSV,2,2,05,20,,,41*7B
$GPRMC,071726.929,V,8960.0000,N,00000.0000,E,0.00,0.00,111111,,,N*76
$GPGGA,071727.929,8960.0000,N,00000.0000,E,0,0,,137.0,M,13.0,M,,*45
$GPGSA,A,1,,,,,,,,,,,,,,,*1E
{"class":"TPV","tag":"GSA","mode":1}
$GPGSV,2,1,05,23,,,37,13,,,34,32,,,43,31,,,30*78
$GPGSV,2,2,05,20,,,41*7B
$GPRMC,071727.929,V,8960.0000,N,00000.0000,E,0.00,0.00,111111,,,N*77
$GPGGA,071728.929,8960.0000,N,00000.0000,E,0,0,,137.0,M,13.0,M,,*4A
$GPGSA,A,1,,,,,,,,,,,,,,,*1E
{"class":"TPV","tag":"GSA","mode":1}
$GPGSV,2,1,05,23,,,36,13,,,34,32,,,43,31,,,27*7F
$GPGSV,2,2,05,20,,,41*7B
$GPRMC,071728.929,V,8960.0000,N,00000.0000,E,0.00,0.00,111111,,,N*78
$GPGGA,071729.929,8960.0000,N,00000.0000,E,0,0,,137.0,M,13.0,M,,*4B
$GPGSA,A,1,,,,,,,,,,,,,,,*1E
{"class":"TPV","tag":"GSA","mode":1}
$GPGSV,2,1,05,23,,,36,13,,,34,32,,,43,31,,,31*78
$GPGSV,2,2,05,20,,,41*7B
$GPRMC,071729.929,V,8960.0000,N,00000.0000,E,0.00,0.00,111111,,,N*79
$GPGGA,071730.929,8960.0000,N,00000.0000,E,0,0,,137.0,M,13.0,M,,*43
$GPGSA,A,1,,,,,,,,,,,,,,,*1E
{"class":"TPV","tag":"GSA","mode":1}
$GPGSV,2,1,05,23,,,36,13,,,34,32,,,43,31,,,31*78
$GPGSV,2,2,05,20,,,41*7B
$GPRMC,071730.929,V,8960.0000,N,00000.0000,E,0.00,0.00,111111,,,N*71
$GPGGA,071731.929,8960.0000,N,00000.0000,E,0,0,,137.0,M,13.0,M,,*42
$GPGSA,A,1,,,,,,,,,,,,,,,*1E
{"class":"TPV","tag":"GSA","mode":1}
$GPGSV,2,1,05,23,,,36,13,,,34,32,,,43,31,,,31*78
$GPGSV,2,2,05,20,,,41*7B
$GPRMC,071731.929,V,8960.0000,N,00000.0000,E,0.00,0.00,111111,,,N*70
$GPGGA,071732.929,8960.0000,N,00000.0000,E,0,0,,137.0,M,13.0,M,,*41
$GPGSA,A,1,,,,,,,,,,,,,,,*1E
{"class":"TPV","tag":"GSA","mode":1}
$GPGSV,2,1,05,23,,,36,13,,,34,32,,,43,31,,,31*78
$GPGSV,2,2,05,20,,,41*7B
$GPRMC,071732.929,V,8960.0000,N,00000.0000,E,0.00,0.00,111111,,,N*73
$GPGGA,071733.929,8960.0000,N,00000.0000,E,0,0,,137.0,M,13.0,M,,*40
$GPGSA,A,1,,,,,,,,,,,,,,,*1E
{"class":"TPV","tag":"GSA","mode":1}
$GPGSV,2,1,05,23,,,36,13,,,34,32,,,43,31,,,31*78
$GPGSV,2,2,05,20,,,41*7B
$GPRMC,071733.929,V,8960.0000,N,00000.0000,E,0.00,0.00,111111,,,N*72
$GPGGA,071734.929,4404.1178,N,12118.8608,W,0,4,,1127.8,M,-19.6,M,,*49
$GPGSA,A,1,,,,,,,,,,,,,,,*1E
{"class":"TPV","tag":"GSA","mode":1}
$GPGSV,2,1,05,23,,,37,13,,,34,32,,,43,31,,,31*79
$GPGSV,2,2,05,20,,,41*7B
$GPRMC,071734.929,V,4404.1178,N,12118.8608,W,0.10,0.00,111111,,,N*67
$GPGGA,071736.000,4404.1316,N,12118.8445,W,1,4,5.21,1134.4,M,-19.6,M,,*5F
{"class":"TPV","tag":"GGA","mode":3,"lat":44.068860000,"lon":-121.314075000,"alt":1134.400,"epv":0.000}
$GPGSA,A,3,23,13,32,20,,,,,,,,,5.30,5.21,0.98*03
{"class":"TPV","tag":"GSA","mode":3,"lat":44.068860000,"lon":-121.314075000,"alt":1134.400,"epv":0.000}
$GPGSV,2,1,06,20,73,204,41,23,56,298,37,32,54,148,43,48,37,196,*70
$GPGSV,2,2,06,13,30,282,34,31,,,31*41
{"class":"SKY","tag":"GSV","xdop":2.70,"ydop":2.53,"vdop":0.98,"tdop":5.88,"hdop":5.21,"gdop":9.33,"pdop":5.30,"satellites":[{"PRN":20,"el":73,"az":204,"ss":41,"used":true},{"PRN":23,"el":56,"az":298,"ss":37,"used":true},{"PRN":32,"el":54,"az":148,"ss":43,"used":true},{"PRN":135,"el":37,"az":196,"ss":0,"used":false},{"PRN":13,"el":30,"az":282,"ss":34,"used":true},{"PRN":31,"el":0,"az":0,"ss":31,"used":false}]}
$GPRMC,071736.000,A,4404.1316,N,12118.8445,W,0.20,0.00,111111,,,A*7D
{"class":"TPV","tag":"RMC","mode":3,"time":"2011-11-11T07:17:36.000Z","ept":0.005,"lat":44.068860000,"lon":-121.314075000,"alt":1134.400,"epx":40.490,"epy":37.932,"epv":0.000,"track":0.0000,"speed":0.103}
$GPGGA,071737.000,4404.1258,N,12118.8537,W,1,4,5.20,1131.0,M,-19.6,M,,*51
$GPGSA,A,3,23,13,32,20,,,,,,,,,5.29,5.20,0.98*0A
$GPGSV,2,1,06,20,73,204,41,23,56,298,37,32,54,148,43,48,37,196,44*70
$GPGSV,2,2,06,13,30,282,34,31,,,31*41
{"class":"SKY","tag":"GSV","xdop":2.70,"ydop":2.53,"vdop":0.98,"tdop":5.88,"hdop":5.20,"gdop":9.33,"pdop":5.29,"satellites":[{"PRN":20,"el":73,"az":204,"ss":41,"used":true},{"PRN":23,"el":56,"az":298,"ss":37,"used":true},{"PRN":32,"el":54,"az":148,"ss":43,"used":true},{"PRN":135,"el":37,"az":196,"ss":44,"used":false},{"PRN":13,"el":30,"az":282,"ss":34,"used":true},{"PRN":31,"el":0,"az":0,"ss":31,"used":false}]}
$GPRMC,071737.000,A,4404.1258,N,12118.8537,W,0.12,0.00,111111,,,A*72
{"class":"TPV","tag":"RMC","mode":3,"time":"2011-11-11T07:17:37.000Z","ept":0.005,"lat":44.068763333,"lon":-121.314228333,"alt":1131.000,"epx":40.490,"epy":37.932,"epv":22.540,"track":0.0000,"speed":0.062,"climb":-3.400,"eps":80.98}
$GPGGA,071738.000,4404.1279,N,12118.8515,W,1,4,5.20,1137.3,M,-19.6,M,,*58
$GPGSA,A,3,23,13,32,20,,,,,,,,,5.29,5.20,0.98*0A
$GPGSV,2,1,06,20,73,204,41,23,56,298,37,32,54,148,43,48,37,196,45*71
$GPGSV,2,2,06,13,30,282,34,31,,,31*41
{"class":"SKY","tag":"GSV","xdop":2.70,"ydop":2.53,"vdop":0.98,"tdop":5.88,"hdop":5.20,"gdop":9.33,"pdop":5.29,"satellites":[{"PRN":20,"el":73,"az":204,"ss":41,"used":true},{"PRN":23,"el":56,"az":298,"ss":37,"used":true},{"PRN":32,"el":54,"az":148,"ss":43,"used":true},{"PRN":135,"el":37,"az":196,"ss":45,"used":false},{"PRN":13,"el":30,"az":282,"ss":34,"used":true},{"PRN":31,"el":0,"az":0,"ss":31,"used":false}]}
$GPRMC,071738.000,A,4404.1279,N,12118.8515,W,0.05,0.00,111111,,,A*78
{"class":"TPV","tag":"RMC","mode":3,"time":"2011-11-11T07:17:38.000Z","ept":0.005,"lat":44.068798333,"lon":-121.314191667,"alt":1137.300,"epx":40.490,"epy":37.932,"epv":22.540,"track":0.0000,"speed":0.026,"climb":6.300,"eps":80.98}
$GPGGA,071739.000,4404.1284,N,12118.8506,W,1,4,5.20,1135.9,M,-19.6,M,,*51
$GPGSA,A,3,23,13,32,20,,,,,,,,,5.29,5.20,0.98*0A
$GPGSV,2,1,06,20,73,204,41,23,56,298,37,32,54,148,43,48,37,196,44*70
$GPGSV,2,2,06,13,30,282,34,31,,,31*41
{"class":"SKY","tag":"GSV","xdop":2.70,"ydop":2.53,"vdop":0.98,"tdop":5.88,"hdop":5.20,"gdop":9.33,"pdop":5.29,"satellites":[{"PRN":20,"el":73,"az":204,"ss":41,"used":true},{"PRN":23,"el":56,"az":298,"ss":37,"used":true},{"PRN":32,"el":54,"az":148,"ss":43,"used":true},{"PRN":135,"el":37,"az":196,"ss":44,"used":false},{"PRN":13,"el":30,"az":282,"ss":34,"used":true},{"PRN":31,"el":0,"az":0,"ss":31,"used":false}]}
$GPRMC,071739.000,A,4404.1284,N,12118.8506,W,0.05,0.00,111111,,,A*79
{"class":"TPV","tag":"RMC","mode":3,"time":"2011-11-11T07:17:39.000Z","ept":0.005,"lat":44.068806667,"lon":-121.314176667,"alt":1135.900,"epx":40.490,"epy":37.932,"epv":22.540,"track":0.0000,"speed":0.026,"climb":-1.400,"eps":80.98}
$GPGGA,071740.000,4404.1303,N,12118.8486,W,1,4,5.20,1134.7,M,-19.6,M,,*57
$GPGSA,A,3,23,13,32,20,,,,,,,,,5.29,5.20,0.98*0A
$GPGSV,2,1,06,20,73,204,41,23,56,298,36,32,54,148,43,48,37,196,45*70
$GPGSV,2,2,06,13,30,282,34,31,,,31*41
{"class":"SKY","tag":"GSV","xdop":2.70,"ydop":2.53,"vdop":0.98,"tdop":5.88,"hdop":5.20,"gdop":9.33,"pdop":5.29,"satellites":[{"PRN":20,"el":73,"az":204,"ss":41,"used":true},{"PRN":23,"el":56,"az":298,"ss":36,"used":true},{"PRN":32,"el":54,"az":148,"ss":43,"used":true},{"PRN":135,"el":37,"az":196,"ss":45,"used":false},{"PRN":13,"el":30,"az":282,"ss":34,"used":true},{"PRN":31,"el":0,"az":0,"ss":31,"used":false}]}
$GPRMC,071740.000,A,4404.1303,N,12118.8486,W,0.11,0.00,111111,,,A*75
{"class":"TPV","tag":"RMC","mode":3,"time":"2011-11-11T07:17:40.000Z","ept":0.005,"lat":44.068838333,"lon":-121.314143333,"alt":1134.700,"epx":40.490,"epy":37.932,"epv":22.540,"track":0.0000,"speed":0.057,"climb":-1.200,"eps":80.98}
$GPGGA,071741.000,4404.1316,N,12118.8473,W,1,4,5.20,1135.3,M,-19.6,M,,*5D
$GPGSA,A,3,23,13,32,20,,,,,,,,,5.29,5.20,0.98*0A
$GPGSV,2,1,06,20,73,204,41,23,56,298,36,32,54,148,43,48,37,196,45*70
$GPGSV,2,2,06,13,30,282,34,31,,,31*41
{"class":"SKY","tag":"GSV","xdop":2.70,"ydop":2.53,"vdop":0.98,"tdop":5.88,"hdop":5.20,"gdop":9.33,"pdop":5.29,"satellites":[{"PRN":20,"el":73,"az":204,"ss":41,"used":true},{"PRN":23,"el":56,"az":298,"ss":36,"used":true},{"PRN":32,"el":54,"az":148,"ss":43,"used":true},{"PRN":135,"el":37,"az":196,"ss":45,"used":false},{"PRN":13,"el":30,"az":282,"ss":34,"used":true},{"PRN":31,"el":0,"az":0,"ss":31,"used":false}]}
$GPRMC,071741.000,A,4404.1316,N,12118.8473,W,0.08,0.00,111111,,,A*72
{"class":"TPV","tag":"RMC","mode":3,"time":"2011-11-11T07:17:41.000Z","ept":0.005,"lat":44.068860000,"lon":-121.314121667,"alt":1135.300,"epx":40.490,"epy":37.932,"epv":22.540,"track":0.0000,"speed":0.041,"climb":0.600,"eps":80.98}
$GPGGA,071742.000,4404.1314,N,12118.8476,W,1,4,5.20,1134.4,M,-19.6,M,,*5F
$GPGSA,A,3,23,13,32,20,,,,,,,,,5.29,5.20,0.98*0A
$GPGSV,2,1,06,20,73,204,41,23,56,298,36,32,54,148,43,48,37,196,45*70
$GPGSV,2,2,06,13,30,282,34,31,,,30*40
{"class":"SKY","tag":"GSV","xdop":2.70,"ydop":2.53,"vdop":0.98,"tdop":5.88,"hdop":5.20,"gdop":9.33,"pdop":5.29,"satellites":[{"PRN":20,"el":73,"az":204,"ss":41,"used":true},{"PRN":23,"el":56,"az":298,"ss":36,"used":true},{"PRN":32,"el":54,"az":148,"ss":43,"used":true},{"PRN":135,"el":37,"az":196,"ss":45,"used":false},{"PRN":13,"el":30,"az":282,"ss":34,"used":true},{"PRN":31,"el":0,"az":0,"ss":30,"used":false}]}
$GPRMC,071742.000,A,4404.1314,N,12118.8476,W,0.03,0.00,111111,,,A*7D
{"class":"TPV","tag":"RMC","mode":3,"time":"2011-11-11T07:17:42.000Z","ept":0.005,"lat":44.068856667,"lon":-121.314126667,"alt":1134.400,"epx":40.490,"epy":37.932,"epv":22.540,"track":0.0000,"speed":0.015,"climb":-0.900,"eps":80.98}
$GPGGA,071743.000,4404.1312,N,12118.8480,W,1,4,5.20,1134.6,M,-19.6,M,,*53
$GPGSA,A,3,23,13,32,20,,,,,,,,,5.29,5.20,0.98*0A
$GPGSV,2,1,06,20,73,204,41,23,56,298,36,32,54,148,43,48,37,196,45*70
$GPGSV,2,2,06,13,30,282,34,31,,,31*41
{"class":"SKY","tag":"GSV","xdop":2.70,"ydop":2.53,"vdop":0.98,"tdop":5.88,"hdop":5.20,"gdop":9.33,"pdop":5.29,"satellites":[{"PRN":20,"el":73,"az":204,"ss":41,"used":true},{"PRN":23,"el":56,"az":298,"ss":36,"used":true},{"PRN":32,"el":54,"az":148,"ss":43,"used":true},{"PRN":135,"el":37,"az":196,"ss":45,"used":false},{"PRN":13,"el":30,"az":282,"ss":34,"used":true},{"PRN":31,"el":0,"az":0,"ss":31,"used":false}]}
$GPRMC,071743.000,A,4404.1312,N,12118.8480,W,0.04,0.00,111111,,,A*74
{"class":"TPV","tag":"RMC","mode":3,"time":"2011-11-11T07:17:43.000Z","ept":0.005,"lat":44.068853333,"lon":-121.314133333,"alt":1134.600,"epx":40.490,"epy":37.932,"epv":22.540,"track":0.0000,"speed":0.021,"climb":0.200,"eps":80.98}
$GPGGA,071744.000,4404.1305,N,12118.8487,W,1,4,5.20,1136.4,M,-19.6,M,,*55
$GPGSA,A,3,23,13,32,20,,,,,,,,,5.29,5.20,0.98*0A
$GPGSV,2,1,06,20,73,204,41,23,56,298,36,32,54,148,43,48,37,196,45*70
$GPGSV,2,2,06,13,30,282,34,31,,,31*41
{"class":"SKY","tag":"GSV","xdop":2.70,"ydop":2.53,"vdop":0.98,"tdop":5.88,"hdop":5.20,"gdop":9.33,"pdop":5.29,"satellites":[{"PRN":20,"el":73,"az":204,"ss":41,"used":true},{"PRN":23,"el":56,"az":298,"ss":36,"used":true},{"PRN":32,"el":54,"az":148,"ss":43,"used":true},{"PRN":135,"el":37,"az":196,"ss":45,"used":false},{"PRN":13,"el":30,"az":282,"ss":34,"used":true},{"PRN":31,"el":0,"az":0,"ss":31,"used":false}]}
$GPRMC,071744.000,A,4404.1305,N,12118.8487,W,0.07,0.00,111111,,,A*71
{"class":"TPV","tag":"RMC","mode":3,"time":"2011-11-11T07:17:44.000Z","ept":0.005,"lat":44.068841667,"lon":-121.314145000,"alt":1136.400,"epx":40.490,"epy":37.932,"epv":22.540,"track":0.0000,"speed":0.036,"climb":1.800,"eps":80.98}
$GPGGA,071745.000,4404.1306,N,12118.8488,W,1,4,5.19,1138.1,M,-19.6,M,,*59
$GPGSA,A,3,23,13,32,20,,,,,,,,,5.28,5.19,0.98*01
$GPGSV,2,1,06,20,73,204,41,23,56,298,36,32,54,148,43,48,37,196,45*70
$GPGSV,2,2,06,13,30,282,34,31,,,31*41
{"class":"SKY","tag":"GSV","xdop":2.70,"ydop":2.53,"vdop":0.98,"tdop":5.88,"hdop":5.19,"gdop":9.33,"pdop":5.28,"satellites":[{"PRN":20,"el":73,"az":204,"ss":41,"used":true},{"PRN":23,"el":56,"az":298,"ss":36,"used":true},{"PRN":32,"el":54,"az":148,"ss":43,"used":true},{"PRN":135,"el":37,"az":196,"ss":45,"used":false},{"PRN":13,"el":30,"az":282,"ss":34,"used":true},{"PRN":31,"el":0,"az":0,"ss":31,"used":false}]}
$GPRMC,071745.000,A,4404.1306,N,12118.8488,W,0.11,0.00,111111,,,A*7B
{"class":"TPV","tag":"RMC","mode":3,"time":"2011-11-11T07:17:45.000Z","ept":0.005,"lat":44.068843333,"lon":-121.314146667,"alt":1138.100,"epx":40.490,"epy":37.932,"epv":22.540,"track":0.0000,"speed":0.057,"climb":1.700,"eps":80.98}
$GPGGA,071746.000,4404.1306,N,12118.8487,W,1,4,5.20,1137.0,M,-19.6,M,,*51
$GPGSA,A,3,23,13,32,20,,,,,,,,,5.29,5.20,0.98*0A
$GPGSV,2,1,06,20,73,204,41,23,56,298,37,32,54,148,43,48,37,196,45*71
$GPGSV,2,2,06,13,30,282,34,31,,,31*41
{"class":"SKY","tag":"GSV","xdop":2.70,"ydop":2.53,"vdop":0.98,"tdop":5.88,"hdop":5.20,"gdop":9.33,"pdop":5.29,"satellites":[{"PRN":20,"el":73,"az":204,"ss":41,"used":true},{"PRN":23,"el":56,"az":298,"ss":37,"used":true},{"PRN":32,"el":54,"az":148,"ss":43,"used":true},{"PRN":135,"el":37,"az":196,"ss":45,"used":false},{"PRN":13,"el":30,"az":282,"ss":34,"used":true},{"PRN":31,"el":0,"az":0,"ss":31,"used":false}]}
$GPRMC,071746.000,A,4404.1306,N,12118.8487,W,0.04,0.00,111111,,,A*73
{"class":"TPV","tag":"RMC","mode":3,"time":"2011-11-11T07:17:46.000Z","ept":0.005,"lat":44.068843333,"lon":-121.314145000,"alt":1137.000,"epx":40.490,"epy":37.932,"epv":22.540,"track":0.0000,"speed":0.021,"climb":-1.100,"eps":80.98}
$GPGGA,071747.000,4404.1314,N,12118.8479,W,1,4,5.20,1138.0,M,-19.6,M,,*5D
$GPGSA,A,3,23,13,32,20,,,,,,,,,5.29,5.20,0.98*0A
$GPGSV,2,1,07,20,73,204,41,23,56,298,37,32,54,148,43,48,37,196,45*70
$GPGSV,2,2,07,13,30,282,34,01,14,210,,31,,,31*77
{"class":"SKY","tag":"GSV","xdop":2.70,"ydop":2.53,"vdop":0.98,"tdop":5.88,"hdop":5.20,"gdop":9.33,"pdop":5.29,"satellites":[{"PRN":20,"el":73,"az":204,"ss":41,"used":true},{"PRN":23,"el":56,"az":298,"ss":37,"used":true},{"PRN":32,"el":54,"az":148,"ss":43,"used":true},{"PRN":135,"el":37,"az":196,"ss":45,"used":false},{"PRN":13,"el":30,"az":282,"ss":34,"used":true},{"PRN":1,"el":14,"az":210,"ss":0,"used":false},{"PRN":31,"el":0,"az":0,"ss":31,"used":false}]}
$GPRMC,071747.000,A,4404.1314,N,12118.8479,W,0.05,0.00,111111,,,A*71
{"class":"TPV","tag":"RMC","mode":3,"time":"2011-11-11T07:17:47.000Z","ept":0.005,"lat":44.068856667,"lon":-121.314131667,"alt":1138.000,"epx":40.490,"epy":37.932,"epv":22.540,"track":0.0000,"speed":0.026,"climb":1.000,"eps":80.98}
$GPGGA,071748.000,4404.1318,N,12118.8476,W,1,4,5.19,1137.9,M,-19.6,M,,*5D
$GPGSA,A,3,23,13,32,20,,,,,,,,,5.28,5.19,0.98*01
$GPGSV,2,1,07,20,73,204,41,23,56,298,37,32,54,148,43,48,37,196,45*70
$GPGSV,2,2,07,13,30,282,35,01,14,210,,31,,,31*76
{"class":"SKY","tag":"GSV","xdop":2.70,"ydop":2.53,"vdop":0.98,"tdop":5.88,"hdop":5.19,"gdop":9.33,"pdop":5.28,"satellites":[{"PRN":20,"el":73,"az":204,"ss":41,"used":true},{"PRN":23,"el":56,"az":298,"ss":37,"used":true},{"PRN":32,"el":54,"az":148,"ss":43,"used":true},{"PRN":135,"el":37,"az":196,"ss":45,"used":false},{"PRN":13,"el":30,"az":282,"ss":35,"used":true},{"PRN":1,"el":14,"az":210,"ss":0,"used":false},{"PRN":31,"el":0,"az":0,"ss":31,"used":false}]}
$GPRMC,071748.000,A,4404.1318,N,12118.8476,W,0.03,0.00,111111,,,A*7B
{"class":"TPV","tag":"RMC","mode":3,"time":"2011-11-11T07:17:48.000Z","ept":0.005,"lat":44.068863333,"lon":-121.314126667,"alt":1137.900,"epx":40.490,"epy":37.932,"epv":22.540,"track":0.0000,"speed":0.015,"climb":-0.100,"eps":80.98}
$GPGGA,071749.000,4404.1318,N,12118.8475,W,1,4,5.19,1137.6,M,-19.6,M,,*50
$GPGSA,A,3,23,13,32,20,,,,,,,,,5.28,5.19,0.98*01
$GPGSV,2,1,07,20,73,204,41,23,56,298,37,32,54,148,43,48,37,196,45*70
$GPGSV,2,2,07,13,30,282,35,01,14,210,,31,,,30*77
{"class":"SKY","tag":"GSV","xdop":2.70,"ydop":2.53,"vdop":0.98,"tdop":5.88,"hdop":5.19,"gdop":9.33,"pdop":5.28,"satellites":[{"PRN":20,"el":73,"az":204,"ss":41,"used":true},{"PRN":23,"el":56,"az":298,"ss":37,"used":true},{"PRN":32,"el":54,"az":148,"ss":43,"used":true},{"PRN":135,"el":37,"az":196,"ss":45,"used":false},{"PRN":13,"el":30,"az":282,"ss":35,"used":true},{"PRN":1,"el":14,"az":210,"ss":0,"used":false},{"PRN":31,"el":0,"az":0,"ss":30,"used":false}]}
$GPRMC,071749.000,A,4404.1318,N,12118.8475,W,0.04,0.00,111111,,,A*7E
{"class":"TPV","tag":"RMC","mode":3,"time":"2011-11-11T07:17:49.000Z","ept":0.005,"lat":44.068863333,"lon":-121.314125000,"alt":1137.600,"epx":40.490,"epy":37.932,"epv":22.540,"track":0.0000,"speed":0.021,"climb":-0.300,"eps":80.98}
$GPGGA,071750.000,4404.1314,N,12118.8480,W,1,4,5.19,1138.4,M,-19.6,M,,*53
$GPGSA,A,3,23,13,32,20,,,,,,,,,5.28,5.19,0.98*01
$GPGSV,2,1,07,20,73,204,41,23,56,298,37,32,54,148,43,48,37,196,45*70
$GPGSV,2,2,07,13,30,282,35,01,14,210,,31,,,30*77
{"class":"SKY","tag":"GSV","xdop":2.70,"ydop":2.53,"vdop":0.98,"tdop":5.88,"hdop":5.19,"gdop":9.33,"pdop":5.28,"satellites":[{"PRN":20,"el":73,"az":204,"ss":41,"used":true},{"PRN":23,"el":56,"az":298,"ss":37,"used":true},{"PRN":32,"el":54,"az":148,"ss":43,"used":true},{"PRN":135,"el":37,"az":196,"ss":45,"used":false},{"PRN":13,"el":30,"az":282,"ss":35,"used":true},{"PRN":1,"el":14,"az":210,"ss":0,"used":false},{"PRN":31,"el":0,"az":0,"ss":30,"used":false}]}
$GPRMC,071750.000,A,4404.1314,N,12118.8480,W,0.03,0.00,111111,,,A*77
{"class":"TPV","tag":"RMC","mode":3,"time":"2011-11-11T07:17:50.000Z","ept":0.005,"lat":44.068856667,"lon":-121.314133333,"alt":1138.400,"epx":40.490,"epy":37.932,"epv":22.540,"track":0.0000,"speed":0.015,"climb":0.800,"eps":80.98}
$GPGGA,071751.000,4404.1316,N,12118.8480,W,1,4,5.19,1138.0,M,-19.6,M,,*54
$GPGSA,A,3,23,13,32,20,,,,,,,,,5.28,5.19,0.98*01
$GPGSV,2,1,07,20,73,204,41,23,56,298,37,32,54,148,43,48,37,196,45*70
$GPGSV,2,2,07,13,30,282,35,01,14,210,,31,,,31*76
{"class":"SKY","tag":"GSV","xdop":2.70,"ydop":2.53,"vdop":0.98,"tdop":5.88,"hdop":5.19,"gdop":9.33,"pdop":5.28,"satellites":[{"PRN":20,"el":73,"az":204,"ss":41,"used":true},{"PRN":23,"el":56,"az":298,"ss":37,"used":true},{"PRN":32,"el":54,"az":148,"ss":43,"used":true},{"PRN":135,"el":37,"az":196,"ss":45,"used":false},{"PRN":13,"el":30,"az":282,"ss":35,"used":true},{"PRN":1,"el":14,"az":210,"ss":0,"used":false},{"PRN":31,"el":0,"az":0,"ss":31,"used":false}]}
$GPRMC,071751.000,A,4404.1316,N,12118.8480,W,0.03,0.00,111111,,,A*74
{"class":"TPV","tag":"RMC","mode":3,"time":"2011-11-11T07:17:51.000Z","ept":0.005,"lat":44.068860000,"lon":-121.314133333,"alt":1138.000,"epx":40.490,"epy":37.932,"epv":22.540,"track":0.0000,"speed":0.015,"climb":-0.400,"eps":80.98}
$GPGGA,071752.000,4404.1316,N,12118.8480,W,1,4,5.19,1138.2,M,-19.6,M,,*55
$GPGSA,A,3,23,13,32,20,,,,,,,,,5.28,5.19,0.98*01
$GPGSV,2,1,07,20,73,204,41,23,56,298,37,32,54,148,43,48,37,196,45*70
$GPGSV,2,2,07,13,30,282,35,01,14,210,,31,,,32*75
{"class":"SKY","tag":"GSV","xdop":2.70,"ydop":2.53,"vdop":0.98,"tdop":5.88,"hdop":5.19,"gdop":9.33,"pdop":5.28,"satellites":[{"PRN":20,"el":73,"az":204,"ss":41,"used":true},{"PRN":23,"el":56,"az":298,"ss":37,"used":true},{"PRN":32,"el":54,"az":148,"ss":43,"used":true},{"PRN":135,"el":37,"az":196,"ss":45,"used":false},{"PRN":13,"el":30,"az":282,"ss":35,"used":true},{"PRN":1,"el":14,"az":210,"ss":0,"used":false},{"PRN":31,"el":0,"az":0,"ss":32,"used":false}]}
$GPRMC,071752.000,A,4404.1316,N,12118.8480,W,0.03,0.00,111111,,,A*77
{"class":"TPV","tag":"RMC","mode":3,"time":"2011-11-11T07:17:52.000Z","ept":0.005,"lat":44.068860000,"lon":-121.314133333,"alt":1138.200,"epx":40.490,"epy":37.932,"epv":22.540,"track":0.0000,"speed":0.015,"climb":0.200,"eps":80.98}
$GPGGA,071753.000,4404.1316,N,12118.8480,W,1,4,5.19,1137.8,M,-19.6,M,,*51
$GPGSA,A,3,23,13,32,20,,,,,,,,,5.28,5.19,0.98*01
$GPGSV,2,1,07,20,73,204,41,23,56,298,37,32,54,148,43,48,37,196,45*70
$GPGSV,2,2,07,13,30,282,35,01,14,210,,31,,,32*75
{"class":"SKY","tag":"GSV","xdop":2.70,"ydop":2.53,"vdop":0.98,"tdop":5.88,"hdop":5.19,"gdop":9.33,"pdop":5.28,"satellites":[{"PRN":20,"el":73,"az":204,"ss":41,"used":true},{"PRN":23,"el":56,"az":298,"ss":37,"used":true},{"PRN":32,"el":54,"az":148,"ss":43,"used":true},{"PRN":135,"el":37,"az":196,"ss":45,"used":false},{"PRN":13,"el":30,"az":282,"ss":35,"used":true},{"PRN":1,"el":14,"az":210,"ss":0,"used":false},{"PRN":31,"el":0,"az":0,"ss":32,"used":false}]}
$GPRMC,071753.000,A,4404.1316,N,12118.8480,W,0.04,0.00,111111,,,A*71
{"class":"TPV","tag":"RMC","mode":3,"time":"2011-11-11T07:17:53.000Z","ept":0.005,"lat":44.068860000,"lon":-121.314133333,"alt":1137.800,"epx":40.490,"epy":37.932,"epv":22.540,"track":0.0000,"speed":0.021,"climb":-0.400,"eps":80.98}
$GPGGA,071754.000,4404.1314,N,12118.8481,W,1,4,5.19,1137.2,M,-19.6,M,,*5F
$GPGSA,A,3,23,13,32,20,,,,,,,,,5.28,5.19,0.98*01
$GPGSV,2,1,07,20,73,204,41,23,56,298,37,32,54,148,43,48,37,196,45*70
$GPGSV,2,2,07,13,30,282,35,01,14,210,,31,,,32*75
{"class":"SKY","tag":"GSV","xdop":2.70,"ydop":2.53,"vdop":0.98,"tdop":5.88,"hdop":5.19,"gdop":9.33,"pdop":5.28,"satellites":[{"PRN":20,"el":73,"az":204,"ss":41,"used":true},{"PRN":23,"el":56,"az":298,"ss":37,"used":true},{"PRN":32,"el":54,"az":148,"ss":43,"used":true},{"PRN":135,"el":37,"az":196,"ss":45,"used":false},{"PRN":13,"el":30,"az":282,"ss":35,"used":true},{"PRN":1,"el":14,"az":210,"ss":0,"used":false},{"PRN":31,"el":0,"az":0,"ss":32,"used":false}]}
$GPRMC,071754.000,A,4404.1314,N,12118.8481,W,0.03,0.00,111111,,,A*72
{"class":"TPV","tag":"RMC","mode":3,"time":"2011-11-11T07:17:54.000Z","ept":0.005,"lat":44.068856667,"lon":-121.314135000,"alt":1137.200,"epx":40.490,"epy":37.932,"epv":22.540,"track":0.0000,"speed":0.015,"climb":-0.600,"eps":80.98}
$GPGGA,071755.000,4404.1320,N,12118.8477,W,1,4,5.18,1136.7,M,-19.6,M,,*55
$GPGSA,A,3,23,13,32,20,,,,,,,,,5.28,5.18,0.98*00
$GPGSV,2,1,07,20,73,204,42,23,56,298,37,32,54,148,43,48,37,196,45*73
$GPGSV,2,2,07,13,30,282,35,01,14,210,,31,,,32*75
{"class":"SKY","tag":"GSV","xdop":2.70,"ydop":2.53,"vdop":0.98,"tdop":5.88,"hdop":5.18,"gdop":9.33,"pdop":5.28,"satellites":[{"PRN":20,"el":73,"az":204,"ss":42,"used":true},{"PRN":23,"el":56,"az":298,"ss":37,"used":true},{"PRN":32,"el":54,"az":148,"ss":43,"used":true},{"PRN":135,"el":37,"az":196,"ss":45,"used":false},{"PRN":13,"el":30,"az":282,"ss":35,"used":true},{"PRN":1,"el":14,"az":210,"ss":0,"used":false},{"PRN":31,"el":0,"az":0,"ss":32,"used":false}]}
$GPRMC,071755.000,A,4404.1320,N,12118.8477,W,0.05,0.00,111111,,,A*7B
{"class":"TPV","tag":"RMC","mode":3,"time":"2011-11-11T07:17:55.000Z","ept":0.005,"lat":44.068866667,"lon":-121.314128333,"alt":1136.700,"epx":40.490,"epy":37.932,"epv":22.540,"track":0.0000,"speed":0.026,"climb":-0.500,"eps":80.98}
$GPGGA,071756.000,4404.1315,N,12118.8480,W,1,4,5.18,1135.5,M,-19.6,M,,*59
$GPGSA,A,3,23,13,32,20,,,,,,,,,5.28,5.18,0.98*00
$GPGSV,2,1,07,20,73,204,42,23,56,298,37,32,54,148,43,48,37,196,45*73
$GPGSV,2,2,07,13,30,282,34,01,14,210,,31,,,32*74
{"class":"SKY","tag":"GSV","xdop":2.70,"ydop":2.53,"vdop":0.98,"tdop":5.88,"hdop":5.18,"gdop":9.33,"pdop":5.28,"satellites":[{"PRN":20,"el":73,"az":204,"ss":42,"used":true},{"PRN":23,"el":56,"az":298,"ss":37,"used":true},{"PRN":32,"el":54,"az":148,"ss":43,"used":true},{"PRN":135,"el":37,"az":196,"ss":45,"used":false},{"PRN":13,"el":30,"az":282,"ss":34,"used":true},{"PRN":1,"el":14,"az":210,"ss":0,"used":false},{"PRN":31,"el":0,"az":0,"ss":32,"used":false}]}
$GPRMC,071756.000,A,4404.1315,N,12118.8480,W,0.11,0.00,111111,,,A*73
{"class":"TPV","tag":"RMC","mode":3,"time":"2011-11-11T07:17:56.000Z","ept":0.005,"lat":44.068858333,"lon":-121.314133333,"alt":1135.500,"epx":40.490,"epy":37.932,"epv":22.540,"track":0.0000,"speed":0.057,"climb":-1.200,"eps":80.98}
$GPGGA,071757.000,4404.1319,N,12118.8475,W,1,4,5.19,1135.0,M,-19.6,M,,*5A
$GPGSA,A,3,23,13,32,20,,,,,,,,,5.28,5.19,0.98*01
$GPGSV,2,1,07,20,73,203,42,23,56,298,37,32,54,148,43,48,37,196,45*74
$GPGSV,2,2,07,13,30,282,34,01,14,210,,31,,,32*74
{"class":"SKY","tag":"GSV","xdop":2.70,"ydop":2.53,"vdop":0.98,"tdop":5.88,"hdop":5.19,"gdop":9.33,"pdop":5.28,"satellites":[{"PRN":20,"el":73,"az":203,"ss":42,"used":true},{"PRN":23,"el":56,"az":298,"ss":37,"used":true},{"PRN":32,"el":54,"az":148,"ss":43,"used":true},{"PRN":135,"el":37,"az":196,"ss":45,"used":false},{"PRN":13,"el":30,"az":282,"ss":34,"used":true},{"PRN":1,"el":14,"az":210,"ss":0,"used":false},{"PRN":31,"el":0,"az":0,"ss":32,"used":false}]}
$GPRMC,071757.000,A,4404.1319,N,12118.8475,W,0.07,0.00,111111,,,A*73
{"class":"TPV","tag":"RMC","mode":3,"time":"2011-11-11T07:17:57.000Z","ept":0.005,"lat":44.068865000,"lon":-121.314125000,"alt":1135.000,"epx":40.490,"epy":37.932,"epv":22.540,"track":0.0000,"speed":0.036,"climb":-0.500,"eps":80.98}
$GPGGA,071758.000,4404.1314,N,12118.8481,W,1,4,5.18,1134.1,M,-19.6,M,,*52
$GPGSA,A,3,23,13,32,20,,,,,,,,,5.28,5.18,0.98*00
$GPGSV,2,1,07,20,73,203,42,23,56,298,37,32,54,148,43,48,37,196,45*74
$GPGSV,2,2,07,13,30,282,34,01,14,210,,31,,,32*74
{"class":"SKY","tag":"GSV","xdop":2.70,"ydop":2.53,"vdop":0.98,"tdop":5.88,"hdop":5.18,"gdop":9.33,"pdop":5.28,"satellites":[{"PRN":20,"el":73,"az":203,"ss":42,"used":true},{"PRN":23,"el":56,"az":298,"ss":37,"used":true},{"PRN":32,"el":54,"az":148,"ss":43,"used":true},{"PRN":135,"el":37,"az":196,"ss":45,"used":false},{"PRN":13,"el":30,"az":282,"ss":34,"used":true},{"PRN":1,"el":14,"az":210,"ss":0,"used":false},{"PRN":31,"el":0,"az":0,"ss":32,"used":false}]}
$GPRMC,071758.000,A,4404.1314,N,12118.8481,W,0.03,0.00,111111,,,A*7E
{"class":"TPV","tag":"RMC","mode":3,"time":"2011-11-11T07:17:58.000Z","ept":0.005,"lat":44.068856667,"lon":-121.314135000,"alt":1134.100,"epx":40.490,"epy":37.932,"epv":22.540,"track":0.0000,"speed":0.015,"climb":-0.900,"eps":80.98}
$GPGGA,071759.000,4404.1314,N,12118.8481,W,1,4,5.18,1134.1,M,-19.6,M,,*53
$GPGSA,A,3,23,13,32,20,,,,,,,,,5.27,5.18,0.98*0F
$GPGSV,2,1,07,20,73,203,42,23,56,298,37,32,54,148,43,48,37,196,45*74
$GPGSV,2,2,07,13,30,282,34,01,14,210,,31,,,32*74
{"class":"SKY","tag":"GSV","xdop":2.70,"ydop":2.53,"vdop":0.98,"tdop":5.88,"hdop":5.18,"gdop":9.33,"pdop":5.27,"satellites":[{"PRN":20,"el":73,"az":203,"ss":42,"used":true},{"PRN":23,"el":56,"az":298,"ss":37,"used":true},{"PRN":32,"el":54,"az":148,"ss":43,"used":true},{"PRN":135,"el":37,"az":196,"ss":45,"used":false},{"PRN":13,"el":30,"az":282,"ss":34,"used":true},{"PRN":1,"el":14,"az":210,"ss":0,"used":false},{"PRN":31,"el":0,"az":0,"ss":32,"used":false}]}
$GPRMC,071759.000,A,4404.1314,N,12118.8481,W,0.02,0.00,111111,,,A*7E
{"class":"TPV","tag":"RMC","mode":3,"time":"2011-11-11T07:17:59.000Z","ept":0.005,"lat":44.068856667,"lon":-121.314135000,"alt":1134.100,"epx":40.490,"epy":37.932,"epv":22.540,"track":0.0000,"speed":0.010,"climb":0.000,"eps":80.98}
$GPGGA,071800.000,4404.1313,N,12118.8481,W,1,4,5.18,1133.8,M,-19.6,M,,*59
$GPGSA,A,3,23,13,32,20,,,,,,,,,5.27,5.18,0.98*0F
$GPGSV,2,1,07,20,73,203,42,23,57,298,37,32,54,148,43,48,37,196,45*75
$GPGSV,2,2,07,13,30,282,34,01,14,210,,31,,,32*74
{"class":"SKY","tag":"GSV","xdop":2.70,"ydop":2.53,"vdop":0.98,"tdop":5.88,"hdop":5.18,"gdop":9.33,"pdop":5.27,"satellites":[{"PRN":20,"el":73,"az":203,"ss":42,"used":true},{"PRN":23,"el":57,"az":298,"ss":37,"used":true},{"PRN":32,"el":54,"az":148,"ss":43,"used":true},{"PRN":135,"el":37,"az":196,"ss":45,"used":false},{"PRN":13,"el":30,"az":282,"ss":34,"used":true},{"PRN":1,"el":14,"az":210,"ss":0,"used":false},{"PRN":31,"el":0,"az":0,"ss":32,"used":false}]}
$GPRMC,071800.000,A,4404.1313,N,12118.8481,W,0.03,0.00,111111,,,A*7B
{"class":"TPV","tag":"RMC","mode":3,"time":"2011-11-11T07:18:00.000Z","ept":0.005,"lat":44.068855000,"lon":-121.314135000,"alt":1133.800,"epx":40.490,"epy":37.932,"epv":22.540,"track":0.0000,"speed":0.015,"climb":-0.300,"eps":80.98}
$GPGGA,071801.000,4404.1312,N,12118.8482,W,1,4,5.18,1134.1,M,-19.6,M,,*54
$GPGSA,A,3,23,13,32,20,,,,,,,,,5.27,5.18,0.98*0F
$GPGSV,2,1,07,20,73,203,42,23,57,298,38,32,54,148,43,48,37,196,45*7A
$GPGSV,2,2,07,13,30,282,34,01,14,210,,31,,,32*74
{"class":"SKY","tag":"GSV","xdop":2.70,"ydop":2.53,"vdop":0.98,"tdop":5.88,"hdop":5.18,"gdop":9.33,"pdop":5.27,"satellites":[{"PRN":20,"el":73,"az":203,"ss":42,"used":true},{"PRN":23,"el":57,"az":298,"ss":38,"used":true},{"PRN":32,"el":54,"az":148,"ss":43,"used":true},{"PRN":135,"el":37,"az":196,"ss":45,"used":false},{"PRN":13,"el":30,"az":282,"ss":34,"used":true},{"PRN":1,"el":14,"az":210,"ss":0,"used":false},{"PRN":31,"el":0,"az":0,"ss":32,"used":false}]}
$GPRMC,071801.000,A,4404.1312,N,12118.8482,W,0.03,0.00,111111,,,A*78
{"class":"TPV","tag":"RMC","mode":3,"time":"2011-11-11T07:18:01.000Z","ept":0.005,"lat":44.068853333,"lon":-121.314136667,"alt":1134.100,"epx":40.490,"epy":37.932,"epv":22.540,"track":0.0000,"speed":0.015,"climb":0.300,"eps":80.98}
$GPGGA,071802.000,4404.1309,N,12118.8484,W,1,4,5.18,1134.3,M,-19.6,M,,*59
$GPGSA,A,3,23,13,32,20,,,,,,,,,5.27,5.18,0.98*0F
$GPGSV,2,1,07,20,73,203,42,23,57,298,38,32,54,148,43,48,37,196,45*7A
$GPGSV,2,2,07,13,30,282,34,01,14,210,,31,,,32*74
{"class":"SKY","tag":"GSV","xdop":2.70,"ydop":2.53,"vdop":0.98,"tdop":5.88,"hdop":5.18,"gdop":9.33,"pdop":5.27,"satellites":[{"PRN":20,"el":73,"az":203,"ss":42,"used":true},{"PRN":23,"el":57,"az":298,"ss":38,"used":true},{"PRN":32,"el":54,"az":148,"ss":43,"used":true},{"PRN":135,"el":37,"az":196,"ss":45,"used":false},{"PRN":13,"el":30,"az":282,"ss":34,"used":true},{"PRN":1,"el":14,"az":210,"ss":0,"used":false},{"PRN":31,"el":0,"az":0,"ss":32,"used":false}]}
$GPRMC,071802.000,A,4404.1309,N,12118.8484,W,0.06,0.00,111111,,,A*72
{"class":"TPV","tag":"RMC","mode":3,"time":"2011-11-11T07:18:02.000Z","ept":0.005,"lat":44.068848333,"lon":-121.314140000,"alt":1134.300,"epx":40.490,"epy":37.932,"epv":22.540,"track":0.0000,"speed":0.031,"climb":0.200,"eps":80.98}
$GPGGA,071803.000,4404.1312,N,12118.8481,W,1,4,5.18,1134.0,M,-19.6,M,,*54
$GPGSA,A,3,23,13,32,20,,,,,,,,,5.27,5.18,0.98*0F
$GPGSV,2,1,07,20,73,203,42,23,57,298,38,32,54,148,43,48,37,196,45*7A
$GPGSV,2,2,07,13,30,282,34,01,14,210,,31,,,32*74
{"class":"SKY","tag":"GSV","xdop":2.70,"ydop":2.53,"vdop":0.98,"tdop":5.88,"hdop":5.18,"gdop":9.33,"pdop":5.27,"satellites":[{"PRN":20,"el":73,"az":203,"ss":42,"used":true},{"PRN":23,"el":57,"az":298,"ss":38,"used":true},{"PRN":32,"el":54,"az":148,"ss":43,"used":true},{"PRN":135,"el":37,"az":196,"ss":45,"used":false},{"PRN":13,"el":30,"az":282,"ss":34,"used":true},{"PRN":1,"el":14,"az":210,"ss":0,"used":false},{"PRN":31,"el":0,"az":0,"ss":32,"used":false}]}
$GPRMC,071803.000,A,4404.1312,N,12118.8481,W,0.09,0.00,111111,,,A*73
{"class":"TPV","tag":"RMC","mode":3,"time":"2011-11-11T07:18:03.000Z","ept":0.005,"lat":44.068853333,"lon":-121.314135000,"alt":1134.000,"epx":40.490,"epy":37.932,"epv":22.540,"track":0.0000,"speed":0.046,"climb":-0.300,"eps":80.98}
$GPGGA,071804.000,4404.1315,N,12118.8479,W,1,4,5.18,1133.2,M,-19.6,M,,*56
$GPGSA,A,3,23,13,32,20,,,,,,,,,5.27,5.18,0.98*0F
$GPGSV,2,1,07,20,73,203,42,23,57,298,39,32,54,148,43,48,37,196,45*7B
$GPGSV,2,2,07,13,30,282,34,01,14,210,,31,,,32*74
{"class":"SKY","tag":"GSV","xdop":2.70,"ydop":2.53,"vdop":0.98,"tdop":5.88,"hdop":5.18,"gdop":9.33,"pdop":5.27,"satellites":[{"PRN":20,"el":73,"az":203,"ss":42,"used":true},{"PRN":23,"el":57,"az":298,"ss":39,"used":true},{"PRN":32,"el":54,"az":148,"ss":43,"used":true},{"PRN":135,"el":37,"az":196,"ss":45,"used":false},{"PRN":13,"el":30,"az":282,"ss":34,"used":true},{"PRN":1,"el":14,"az":210,"ss":0,"used":false},{"PRN":31,"el":0,"az":0,"ss":32,"used":false}]}
$GPRMC,071804.000,A,4404.1315,N,12118.8479,W,0.12,0.00,111111,,,A*7E
{"class":"TPV","tag":"RMC","mode":3,"time":"2011-11-11T07:18:04.000Z","ept":0.005,"lat":44.068858333,"lon":-121.314131667,"alt":1133.200,"epx":40.490,"epy":37.932,"epv":22.540,"track":0.0000,"speed":0.062,"climb":-0.800,"eps":80.98}
$GPGGA,071805.000,4404.1320,N,12118.8475,W,1,5,1.49,1133.5,M,-19.6,M,,*5B
$GPGSA,A,3,23,13,32,31,20,,,,,,,,1.78,1.49,0.96*0D
$GPGSV,2,1,07,20,73,203,42,23,57,298,39,32,54,148,43,48,37,196,45*7B
$GPGSV,2,2,07,31,34,050,32,13,30,282,34,01,14,210,*46
{"class":"SKY","tag":"GSV","xdop":2.70,"ydop":2.53,"vdop":0.96,"tdop":5.88,"hdop":1.49,"gdop":9.33,"pdop":1.78,"satellites":[{"PRN":20,"el":73,"az":203,"ss":42,"used":true},{"PRN":23,"el":57,"az":298,"ss":39,"used":true},{"PRN":32,"el":54,"az":148,"ss":43,"used":true},{"PRN":135,"el":37,"az":196,"ss":45,"used":false},{"PRN":31,"el":34,"az":50,"ss":32,"used":true},{"PRN":13,"el":30,"az":282,"ss":34,"used":true},{"PRN":1,"el":14,"az":210,"ss":0,"used":false}]}
$GPRMC,071805.000,A,4404.1320,N,12118.8475,W,0.12,0.00,111111,,,A*75
{"class":"TPV","tag":"RMC","mode":3,"time":"2011-11-11T07:18:05.000Z","ept":0.005,"lat":44.068866667,"lon":-121.314125000,"alt":1133.500,"epx":40.490,"epy":37.932,"epv":22.540,"track":0.0000,"speed":0.062,"climb":0.300,"eps":80.98}
$GPGGA,071806.000,4404.1319,N,12118.8476,W,1,5,1.49,1133.7,M,-19.6,M,,*53
$GPGSA,A,3,23,13,32,31,20,,,,,,,,1.77,1.49,0.96*02
$GPGSV,2,1,07,20,73,203,42,23,57,298,39,32,54,148,43,48,37,196,45*7B
$GPGSV,2,2,07,31,34,050,32,13,30,282,34,01,14,210,*46
{"class":"SKY","tag":"GSV","xdop":2.70,"ydop":2.53,"vdop":0.96,"tdop":5.88,"hdop":1.49,"gdop":9.33,"pdop":1.77,"satellites":[{"PRN":20,"el":73,"az":203,"ss":42,"used":true},{"PRN":23,"el":57,"az":298,"ss":39,"used":true},{"PRN":32,"el":54,"az":148,"ss":43,"used":true},{"PRN":135,"el":37,"az":196,"ss":45,"used":false},{"PRN":31,"el":34,"az":50,"ss":32,"used":true},{"PRN":13,"el":30,"az":282,"ss":34,"used":true},{"PRN":1,"el":14,"az":210,"ss":0,"used":false}]}
$GPRMC,071806.000,A,4404.1319,N,12118.8476,W,0.16,0.00,111111,,,A*7B
{"class":"TPV","tag":"RMC","mode":3,"time":"2011-11-11T07:18:06.000Z","ept":0.005,"lat":44.068865000,"lon":-121.314126667,"alt":1133.700,"epx":40.490,"epy":37.932,"epv":22.080,"track":0.0000,"speed":0.082,"climb":0.200,"eps":80.98}
$GPGGA,071807.000,4404.1315,N,12118.8480,W,1,5,1.49,1133.7,M,-19.6,M,,*57
$GPGSA,A,3,23,13,32,31,20,,,,,,,,1.77,1.49,0.96*02
$GPGSV,2,1,07,20,73,203,42,23,57,298,39,32,54,148,43,48,37,196,45*7B
$GPGSV,2,2,07,31,34,050,32,13,30,282,34,01,14,210,*46
{"class":"SKY","tag":"GSV","xdop":2.70,"ydop":2.53,"vdop":0.96,"tdop":5.88,"hdop":1.49,"gdop":9.33,"pdop":1.77,"satellites":[{"PRN":20,"el":73,"az":203,"ss":42,"used":true},{"PRN":23,"el":57,"az":298,"ss":39,"used":true},{"PRN":32,"el":54,"az":148,"ss":43,"used":true},{"PRN":135,"el":37,"az":196,"ss":45,"used":false},{"PRN":31,"el":34,"az":50,"ss":32,"used":true},{"PRN":13,"el":30,"az":282,"ss":34,"used":true},{"PRN":1,"el":14,"az":210,"ss":0,"used":false}]}
$GPRMC,071807.000,A,4404.1315,N,12118.8480,W,0.12,0.00,111111,,,A*7B
{"class":"TPV","tag":"RMC","mode":3,"time":"2011-11-11T07:18:07.000Z","ept":0.005,"lat":44.068858333,"lon":-121.314133333,"alt":1133.700,"epx":40.490,"epy":37.932,"epv":22.080,"track":0.0000,"speed":0.062,"climb":0.000,"eps":80.98}
$GPGGA,071808.000,4404.1313,N,12118.8481,W,1,5,1.49,1133.9,M,-19.6,M,,*51
$GPGSA,A,3,23,13,32,31,20,,,,,,,,1.77,1.49,0.96*02
$GPGSV,2,1,07,20,73,203,42,23,57,298,39,32,54,148,43,48,37,196,45*7B
$GPGSV,2,2,07,31,34,050,32,13,30,282,34,01,14,210,*46
{"class":"SKY","tag":"GSV","xdop":2.70,"ydop":2.53,"vdop":0.96,"tdop":5.88,"hdop":1.49,"gdop":9.33,"pdop":1.77,"satellites":[{"PRN":20,"el":73,"az":203,"ss":42,"used":true},{"PRN":23,"el":57,"az":298,"ss":39,"used":true},{"PRN":32,"el":54,"az":148,"ss":43,"used":true},{"PRN":135,"el":37,"az":196,"ss":45,"used":false},{"PRN":31,"el":34,"az":50,"ss":32,"used":true},{"PRN":13,"el":30,"az":282,"ss":34,"used":true},{"PRN":1,"el":14,"az":210,"ss":0,"used":false}]}
$GPRMC,071808.000,A,4404.1313,N,12118.8481,W,0.09,0.00,111111,,,A*79
{"class":"TPV","tag":"RMC","mode":3,"time":"2011-11-11T07:18:08.000Z","ept":0.005,"lat":44.068855000,"lon":-121.314135000,"alt":1133.900,"epx":40.490,"epy":37.932,"epv":22.080,"track":0.0000,"speed":0.046,"climb":0.200,"eps":80.98}
$GPGGA,071809.000,4404.1315,N,12118.8480,W,1,5,1.49,1134.1,M,-19.6,M,,*58
$GPGSA,A,3,23,13,32,31,20,,,,,,,,1.77,1.49,0.96*02
$GPGSV,2,1,07,20,73,203,42,23,57,298,39,32,54,148,43,48,37,196,45*7B
$GPGSV,2,2,07,31,34,050,32,13,30,282,34,01,14,210,*46
{"class":"SKY","tag":"GSV","xdop":2.70,"ydop":2.53,"vdop":0.96,"tdop":5.88,"hdop":1.49,"gdop":9.33,"pdop":1.77,"satellites":[{"PRN":20,"el":73,"az":203,"ss":42,"used":true},{"PRN":23,"el":57,"az":298,"ss":39,"used":true},{"PRN":32,"el":54,"az":148,"ss":43,"used":true},{"PRN":135,"el":37,"az":196,"ss":45,"used":false},{"PRN":31,"el":34,"az":50,"ss":32,"used":true},{"PRN":13,"el":30,"az":282,"ss":34,"used":true},{"PRN":1,"el":14,"az":210,"ss":0,"used":false}]}
$GPRMC,071809.000,A,4404.1315,N,12118.8480,W,0.07,0.00,111111,,,A*71
{"class":"TPV","tag":"RMC","mode":3,"time":"2011-11-11T07:18:09.000Z","ept":0.005,"lat":44.068858333,"lon":-121.314133333,"alt":1134.100,"epx":40.490,"epy":37.932,"epv":22.080,"track":0.0000,"speed":0.036,"climb":0.200,"eps":80.98}
$GPGGA,071810.000,4404.1315,N,12118.8479,W,1,5,1.49,1134.2,M,-19.6,M,,*55
$GPGSA,A,3,23,13,32,31,20,,,,,,,,1.77,1.49,0.96*02
$GPGSV,2,1,07,20,73,203,42,23,57,298,39,32,54,148,43,48,37,196,45*7B
$GPGSV,2,2,07,31,34,050,31,13,30,282,34,01,14,210,*45
{"class":"SKY","tag":"GSV","xdop":2.70,"ydop":2.53,"vdop":0.96,"tdop":5.88,"hdop":1.49,"gdop":9.33,"pdop":1.77,"satellites":[{"PRN":20,"el":73,"az":203,"ss":42,"used":true},{"PRN":23,"el":57,"az":298,"ss":39,"used":true},{"PRN":32,"el":54,"az":148,"ss":43,"used":true},{"PRN":135,"el":37,"az":196,"ss":45,"used":false},{"PRN":31,"el":34,"az":50,"ss":31,"used":true},{"PRN":13,"el":30,"az":282,"ss":34,"used":true},{"PRN":1,"el":14,"az":210,"ss":0,"used":false}]}
$GPRMC,071810.000,A,4404.1315,N,12118.8479,W,0.07,0.00,111111,,,A*7F
{"class":"TPV","tag":"RMC","mode":3,"time":"2011-11-11T07:18:10.000Z","ept":0.005,"lat":44.068858333,"lon":-121.314131667,"alt":1134.200,"epx":40.490,"epy":37.932,"epv":22.080,"track":0.0000,"speed":0.036,"climb":0.100,"eps":80.98}
$GPGGA,071811.000,4404.1312,N,12118.8482,W,1,5,1.49,1134.3,M,-19.6,M,,*56
$GPGSA,A,3,23,13,32,31,20,,,,,,,,1.77,1.49,0.96*02
$GPGSV,2,1,07,20,73,203,42,23,57,298,39,32,54,148,43,48,37,196,45*7B
$GPGSV,2,2,07,31,34,050,31,13,30,282,34,01,14,210,*45
{"class":"SKY","tag":"GSV","xdop":2.70,"ydop":2.53,"vdop":0.96,"tdop":5.88,"hdop":1.49,"gdop":9.33,"pdop":1.77,"satellites":[{"PRN":20,"el":73,"az":203,"ss":42,"used":true},{"PRN":23,"el":57,"az":298,"ss":39,"used":true},{"PRN":32,"el":54,"az":148,"ss":43,"used":true},{"PRN":135,"el":37,"az":196,"ss":45,"used":false},{"PRN":31,"el":34,"az":50,"ss":31,"used":true},{"PRN":13,"el":30,"az":282,"ss":34,"used":true},{"PRN":1,"el":14,"az":210,"ss":0,"used":false}]}
$GPRMC,071811.000,A,4404.1312,N,12118.8482,W,0.07,0.00,111111,,,A*7D
{"class":"TPV","tag":"RMC","mode":3,"time":"2011-11-11T07:18:11.000Z","ept":0.005,"lat":44.068853333,"lon":-121.314136667,"alt":1134.300,"epx":40.490,"epy":37.932,"epv":22.080,"track":0.0000,"speed":0.036,"climb":0.100,"eps":80.98}
$GPGGA,071812.000,4404.1310,N,12118.8484,W,1,5,1.49,1134.7,M,-19.6,M,,*55
$GPGSA,A,3,23,13,32,31,20,,,,,,,,1.77,1.49,0.96*02
$GPGSV,2,1,07,20,73,203,42,23,57,298,39,32,54,148,43,48,37,196,45*7B
$GPGSV,2,2,07,31,34,050,31,13,30,282,34,01,14,210,*45
{"class":"SKY","tag":"GSV","xdop":2.70,"ydop":2.53,"vdop":0.96,"tdop":5.88,"hdop":1.49,"gdop":9.33,"pdop":1.77,"satellites":[{"PRN":20,"el":73,"az":203,"ss":42,"used":true},{"PRN":23,"el":57,"az":298,"ss":39,"used":true},{"PRN":32,"el":54,"az":148,"ss":43,"used":true},{"PRN":135,"el":37,"az":196,"ss":45,"used":false},{"PRN":31,"el":34,"az":50,"ss":31,"used":true},{"PRN":13,"el":30,"az":282,"ss":34,"used":true},{"PRN":1,"el":14,"az":210,"ss":0,"used":false}]}
$GPRMC,071812.000,A,4404.1310,N,12118.8484,W,0.06,0.00,111111,,,A*7B
{"class":"TPV","tag":"RMC","mode":3,"time":"2011-11-11T07:18:12.000Z","ept":0.005,"lat":44.068850000,"lon":-121.314140000,"alt":1134.700,"epx":40.490,"epy":37.932,"epv":22.080,"track":0.0000,"speed":0.031,"climb":0.400,"eps":80.98}
$GPGGA,071813.000,4404.1309,N,12118.8486,W,1,5,1.49,1134.6,M,-19.6,M,,*5F
$GPGSA,A,3,23,13,32,31,20,,,,,,,,1.77,1.49,0.96*02
$GPGSV,2,1,07,20,73,203,42,23,57,298,39,32,54,148,43,48,37,196,45*7B
$GPGSV,2,2,07,31,34,050,31,13,30,282,34,01,14,210,*45
{"class":"SKY","tag":"GSV","xdop":2.70,"ydop":2.53,"vdop":0.96,"tdop":5.88,"hdop":1.49,"gdop":9.33,"pdop":1.77,"satellites":[{"PRN":20,"el":73,"az":203,"ss":42,"used":true},{"PRN":23,"el":57,"az":298,"ss":39,"used":true},{"PRN":32,"el":54,"az":148,"ss":43,"used":true},{"PRN":135,"el":37,"az":196,"ss":45,"used":false},{"PRN":31,"el":34,"az":50,"ss":31,"used":true},{"PRN":13,"el":30,"az":282,"ss":34,"used":true},{"PRN":1,"el":14,"az":210,"ss":0,"used":false}]}
$GPRMC,071813.000,A,4404.1309,N,12118.8486,W,0.07,0.00,111111,,,A*71
{"class":"TPV","tag":"RMC","mode":3,"time":"2011-11-11T07:18:13.000Z","ept":0.005,"lat":44.068848333,"lon":-121.314143333,"alt":1134.600,"epx":40.490,"epy":37.932,"epv":22.080,"track":0.0000,"speed":0.036,"climb":-0.100,"eps":80.98}
$GPGGA,071814.000,4404.1309,N,12118.8485,W,1,5,1.49,1134.8,M,-19.6,M,,*55
$GPGSA,A,3,23,13,32,31,20,,,,,,,,1.77,1.49,0.96*02
$GPGSV,2,1,07,20,73,203,42,23,57,298,39,32,54,148,43,48,37,196,45*7B
$GPGSV,2,2,07,31,34,050,31,13,30,282,34,01,14,210,*45
{"class":"SKY","tag":"GSV","xdop":2.70,"ydop":2.53,"vdop":0.96,"tdop":5.88,"hdop":1.49,"gdop":9.33,"pdop":1.77,"satellites":[{"PRN":20,"el":73,"az":203,"ss":42,"used":true},{"PRN":23,"el":57,"az":298,"ss":39,"used":true},{"PRN":32,"el":54,"az":148,"ss":43,"used":true},{"PRN":135,"el":37,"az":196,"ss":45,"used":false},{"PRN":31,"el":34,"az":50,"ss":31,"used":true},{"PRN":13,"el":30,"az":282,"ss":34,"used":true},{"PRN":1,"el":14,"az":210,"ss":0,"used":false}]}
$GPRMC,071814.000,A,4404.1309,N,12118.8485,W,0.08,0.00,111111,,,A*7A
{"class":"TPV","tag":"RMC","mode":3,"time":"2011-11-11T07:18:14.000Z","ept":0.005,"lat":44.068848333,"lon":-121.314141667,"alt":1134.800,"epx":40.490,"epy":37.932,"epv":22.080,"track":0.0000,"speed":0.041,"climb":0.200,"eps":80.98}
$GPGGA,071815.000,4404.1305,N,12118.8489,W,1,5,1.49,1135.4,M,-19.6,M,,*59
$GPGSA,A,3,23,13,32,31,20,,,,,,,,1.77,1.49,0.96*02
$GPGSV,2,1,07,20,73,203,42,23,57,298,39,32,54,148,43,48,37,196,45*7B
$GPGSV,2,2,07,31,34,050,31,13,30,282,34,01,14,210,*45
{"class":"SKY","tag":"GSV","xdop":2.70,"ydop":2.53,"vdop":0.96,"tdop":5.88,"hdop":1.49,"gdop":9.33,"pdop":1.77,"satellites":[{"PRN":20,"el":73,"az":203,"ss":42,"used":true},{"PRN":23,"el":57,"az":298,"ss":39,"used":true},{"PRN":32,"el":54,"az":148,"ss":43,"used":true},{"PRN":135,"el":37,"az":196,"ss":45,"used":false},{"PRN":31,"el":34,"az":50,"ss":31,"used":true},{"PRN":13,"el":30,"az":282,"ss":34,"used":true},{"PRN":1,"el":14,"az":210,"ss":0,"used":false}]}
$GPRMC,071815.000,A,4404.1305,N,12118.8489,W,0.10,0.00,111111,,,A*72
{"class":"TPV","tag":"RMC","mode":3,"time":"2011-11-11T07:18:15.000Z","ept":0.005,"lat":44.068841667,"lon":-121.314148333,"alt":1135.400,"epx":40.490,"epy":37.932,"epv":22.080,"track":0.0000,"speed":0.051,"climb":0.600,"eps":80.98}
$GPGGA,071816.000,4404.1305,N,12118.8490,W,1,5,1.49,1135.0,M,-19.6,M,,*56
$GPGSA,A,3,23,13,32,31,20,,,,,,,,1.77,1.49,0.96*02
$GPGSV,2,1,07,20,73,203,42,23,57,298,39,32,54,148,43,48,37,196,45*7B
$GPGSV,2,2,07,31,34,050,31,13,30,282,34,01,14,210,*45
{"class":"SKY","tag":"GSV","xdop":2.70,"ydop":2.53,"vdop":0.96,"tdop":5.88,"hdop":1.49,"gdop":9.33,"pdop":1.77,"satellites":[{"PRN":20,"el":73,"az":203,"ss":42,"used":true},{"PRN":23,"el":57,"az":298,"ss":39,"used":true},{"PRN":32,"el":54,"az":148,"ss":43,"used":true},{"PRN":135,"el":37,"az":196,"ss":45,"used":false},{"PRN":31,"el":34,"az":50,"ss":31,"used":true},{"PRN":13,"el":30,"az":282,"ss":34,"used":true},{"PRN":1,"el":14,"az":210,"ss":0,"used":false}]}
$GPRMC,071816.000,A,4404.1305,N,12118.8490,W,0.11,0.00,111111,,,A*78
{"class":"TPV","tag":"RMC","mode":3,"time":"2011-11-11T07:18:16.000Z","ept":0.005,"lat":44.068841667,"lon":-121.314150000,"alt":1135.000,"epx":40.490,"epy":37.932,"epv":22.080,"track":0.0000,"speed":0.057,"climb":-0.400,"eps":80.98}
$GPGGA,071817.000,4404.1305,N,12118.8489,W,1,5,1.49,1134.5,M,-19.6,M,,*5B
$GPGSA,A,3,23,13,32,31,20,,,,,,,,1.77,1.49,0.96*02
$GPGSV,2,1,07,20,73,203,42,23,57,298,39,32,54,148,43,48,37,196,45*7B
$GPGSV,2,2,07,31,34,050,31,13,30,282,34,01,14,210,*45
{"class":"SKY","tag":"GSV","xdop":2.70,"ydop":2.53,"vdop":0.96,"tdop":5.88,"hdop":1.49,"gdop":9.33,"pdop":1.77,"satellites":[{"PRN":20,"el":73,"az":203,"ss":42,"used":true},{"PRN":23,"el":57,"az":298,"ss":39,"used":true},{"PRN":32,"el":54,"az":148,"ss":43,"used":true},{"PRN":135,"el":37,"az":196,"ss":45,"used":false},{"PRN":31,"el":34,"az":50,"ss":31,"used":true},{"PRN":13,"el":30,"az":282,"ss":34,"used":true},{"PRN":1,"el":14,"az":210,"ss":0,"used":false}]}
$GPRMC,071817.000,A,4404.1305,N,12118.8489,W,0.11,0.00,111111,,,A*71
{"class":"TPV","tag":"RMC","mode":3,"time":"2011-11-11T07:18:17.000Z","ept":0.005,"lat":44.068841667,"lon":-121.314148333,"alt":1134.500,"epx":40.490,"epy":37.932,"epv":22.080,"track":0.0000,"speed":0.057,"climb":-0.500,"eps":80.98}
$GPGGA,071818.000,4404.1305,N,12118.8489,W,1,5,1.49,1134.3,M,-19.6,M,,*52
$GPGSA,A,3,23,13,32,31,20,,,,,,,,1.77,1.49,0.96*02
$GPGSV,2,1,07,20,73,203,42,23,57,298,39,32,54,148,43,48,37,196,45*7B
$GPGSV,2,2,07,31,34,050,31,13,30,282,34,01,14,210,*45
{"class":"SKY","tag":"GSV","xdop":2.70,"ydop":2.53,"vdop":0.96,"tdop":5.88,"hdop":1.49,"gdop":9.33,"pdop":1.77,"satellites":[{"PRN":20,"el":73,"az":203,"ss":42,"used":true},{"PRN":23,"el":57,"az":298,"ss":39,"used":true},{"PRN":32,"el":54,"az":148,"ss":43,"used":true},{"PRN":135,"el":37,"az":196,"ss":45,"used":false},{"PRN":31,"el":34,"az":50,"ss":31,"used":true},{"PRN":13,"el":30,"az":282,"ss":34,"used":true},{"PRN":1,"el":14,"az":210,"ss":0,"used":false}]}
$GPRMC,071818.000,A,4404.1305,N,12118.8489,W,0.09,0.00,111111,,,A*77
{"class":"TPV","tag":"RMC","mode":3,"time":"2011-11-11T07:18:18.000Z","ept":0.005,"lat":44.068841667,"lon":-121.314148333,"alt":1134.300,"epx":40.490,"epy":37.932,"epv":22.080,"track":0.0000,"speed":0.046,"climb":-0.200,"eps":80.98}
$GPGGA,071819.000,4404.1303,N,12118.8492,W,1,5,1.49,1134.4,M,-19.6,M,,*58
$GPGSA,A,3,23,13,32,31,20,,,,,,,,1.77,1.49,0.96*02
$GPGSV,2,1,07,20,73,203,42,23,57,298,39,32,54,148,43,48,37,196,45*7B
$GPGSV,2,2,07,31,34,050,31,13,30,282,34,01,14,210,*45
{"class":"SKY","tag":"GSV","xdop":2.70,"ydop":2.53,"vdop":0.96,"tdop":5.88,"hdop":1.49,"gdop":9.33,"pdop":1.77,"satellites":[{"PRN":20,"el":73,"az":203,"ss":42,"used":true},{"PRN":23,"el":57,"az":298,"ss":39,"used":true},{"PRN":32,"el":54,"az":148,"ss":43,"used":true},{"PRN":135,"el":37,"az":196,"ss":45,"used":false},{"PRN":31,"el":34,"az":50,"ss":31,"used":true},{"PRN":13,"el":30,"az":282,"ss":34,"used":true},{"PRN":1,"el":14,"az":210,"ss":0,"used":false}]}
$GPRMC,071819.000,A,4404.1303,N,12118.8492,W,0.07,0.00,111111,,,A*74
{"class":"TPV","tag":"RMC","mode":3,"time":"2011-11-11T07:18:19.000Z","ept":0.005,"lat":44.068838333,"lon":-121.314153333,"alt":1134.400,"epx":40.490,"epy":37.932,"epv":22.080,"track":0.0000,"speed":0.036,"climb":0.100,"eps":80.98}
$GPGGA,071820.000,4404.1304,N,12118.8490,W,1,5,1.76,1134.7,M,-19.6,M,,*58
$GPGSA,A,3,23,13,32,31,20,,,,,,,,3.80,1.76,3.37*0C
$GPGSV,2,1,07,20,73,203,42,23,57,298,39,32,54,148,43,48,37,196,45*7B
$GPGSV,2,2,07,31,34,050,31,13,30,282,34,01,14,210,*45
{"class":"SKY","tag":"GSV","xdop":2.70,"ydop":2.53,"vdop":3.37,"tdop":5.88,"hdop":1.76,"gdop":9.33,"pdop":3.80,"satellites":[{"PRN":20,"el":73,"az":203,"ss":42,"used":true},{"PRN":23,"el":57,"az":298,"ss":39,"used":true},{"PRN":32,"el":54,"az":148,"ss":43,"used":true},{"PRN":135,"el":37,"az":196,"ss":45,"used":false},{"PRN":31,"el":34,"az":50,"ss":31,"used":true},{"PRN":13,"el":30,"az":282,"ss":34,"used":true},{"PRN":1,"el":14,"az":210,"ss":0,"used":false}]}
$GPRMC,071820.000,A,4404.1304,N,12118.8490,W,0.05,0.00,111111,,,A*79
{"class":"TPV","tag":"RMC","mode":3,"time":"2011-11-11T07:18:20.000Z","ept":0.005,"lat":44.068840000,"lon":-121.314150000,"alt":1134.700,"epx":40.490,"epy":37.932,"epv":22.080,"track":0.0000,"speed":0.026,"climb":0.300,"eps":80.98}
$GPGGA,071821.000,4404.1302,N,12118.8492,W,1,5,1.76,1135.0,M,-19.6,M,,*5B
$GPGSA,A,3,23,13,32,31,20,,,,,,,,3.80,1.76,3.36*0D
