# Name: 737A+
# Chipset: MTK MT3329
# Description: Transystem 737A+ Bluetooth mouse
# Submitter: Gary E. Miller <gem@rellim.com>
# Date: 2011-11-10
# Location: Bend, Oregon 44N, 121W
$PMTK010,001*2E
$GPGGA,235946.033,8960.0000,N,00000.0000,E,0,0,,137.0,M,13.0,M,,*4C
$GPGSA,A,1,,,,,,,,,,,,,,,*1E
$GPGSV,1,1,00*79
$GPRMC,235946.033,V,8960.0000,N,00000.0000,E,0.00,0.00,050180,,,N*72
$GPGGA,235947.032,8960.0000,N,00000.0000,E,0,0,,137.0,M,13.0,M,,*4C
$GPGSA,A,1,,,,,,,,,,,,,,,*1E
$GPGSV,1,1,00*79
$GPRMC,235947.032,V,8960.0000,N,00000.0000,E,0.00,0.00,050180,,,N*72
$GPGGA,235948.032,8960.0000,N,00000.0000,E,0,0,,137.0,M,13.0,M,,*43
$GPGSA,A,1,,,,,,,,,,,,,,,*1E
$GPGSV,1,1,00*79
$GPRMC,235948.032,V,8960.0000,N,00000.0000,E,0.00,0.00,050180,,,N*7D
$GPGGA,235949.032,8960.0000,N,00000.0000,E,0,0,,137.0,M,13.0,M,,*42
$GPGSA,A,1,,,,,,,,,,,,,,,*1E
$GPGSV,1,1,00*79
$GPRMC,235949.032,V,8960.0000,N,00000.0000,E,0.00,0.00,050180,,,N*7C
$GPGGA,235950.033,8960.0000,N,00000.0000,E,0,0,,137.0,M,13.0,M,,*4B
$GPGSA,A,1,,,,,,,,,,,,,,,*1E
$GPGSV,1,1,00*79
$GPRMC,235950.033,V,8960.0000,N,00000.0000,E,0.00,0.00,050180,,,N*75
$GPGGA,235951.033,8960.0000,N,00000.0000,E,0,0,,137.0,M,13.0,M,,*4A
$GPGSA,A,1,,,,,,,,,,,,,,,*1E
$GPGSV,1,1,01,23,,,25*7E
$GPRMC,235951.033,V,8960.0000,N,00000.0000,E,0.00,0.00,050180,,,N*74
$PMTK001,10,1*03
$GPGGA,235952.033,8960.0000,N,00000.0000,E,0,0,,137.0,M,13.0,M,,*49
$GPGSA,A,1,,,,,,,,,,,,,,,*1E
$GPGSV,1,1,01,23,,,28*73
$GPRMC,235952.033,V,8960.0000,N,00000.0000,E,0.00,0.00,050180,,,N*77
$GPGGA,235953.033,8960.0000,N,00000.0000,E,0,0,,137.0,M,13.0,M,,*48
$GPGSA,A,1,,,,,,,,,,,,,,,*1E
$GPGSV,1,1,01,23,,,27*7C
$GPRMC,235953.033,V,8960.0000,N,00000.0000,E,0.00,0.00,050180,,,N*76
$GPGGA,235954.032,8960.0000,N,00000.0000,E,0,0,,137.0,M,13.0,M,,*4E
$GPGSA,A,1,,,,,,,,,,,,,,,*1E
$GPGSV,1,1,01,23,,,30*7A
$GPRMC,235954.032,V,8960.0000,N,00000.0000,E,0.00,0.00,050180,,,N*70
$GPGGA,235955.032,8960.0000,N,00000.0000,E,0,0,,137.0,M,13.0,M,,*4F
$GPGSA,A,1,,,,,,,,,,,,,,,*1E
$GPGSV,1,1,01,23,,,30*7A
$GPRMC,235955.032,V,8960.0000,N,00000.0000,E,0.00,0.00,050180,,,N*71
$GPGGA,235956.032,8960.0000,N,00000.0000,E,0,0,,137.0,M,13.0,M,,*4C
$GPGSA,A,1,,,,,,,,,,,,,,,*1E
$GPGSV,1,1,01,23,,,29*72
$GPRMC,235956.032,V,8960.0000,N,00000.0000,E,0.00,0.00,050180,,,N*72
$GPGGA,235957.032,8960.0000,N,00000.0000,E,0,0,,137.0,M,13.0,M,,*4D
$GPGSA,A,1,,,,,,,,,,,,,,,*1E
$GPGSV,1,1,01,23,,,27*7C
$GPRMC,235957.032,V,8960.0000,N,00000.0000,E,0.00,0.00,050180,,,N*73
$GPGGA,235958.032,8960.0000,N,00000.0000,E,0,0,,137.0,M,13.0,M,,*42
$GPGSA,A,1,,,,,,,,,,,,,,,*1E
$GPGSV,1,1,01,23,,,26*7D
$GPRMC,235958.032,V,8960.0000,N,00000.0000,E,0.00,0.00,050180,,,N*7C
$GPGGA,235959.032,8960.0000,N,00000.0000,E,0,0,,137.0,M,13.0,M,,*43
$GPGSA,A,1,,,,,,,,,,,,,,,*1E
$GPGSV,1,1,01,23,,,34*7E
$GPRMC,235959.032,V,8960.0000,N,00000.0000,E,0.00,0.00,050180,,,N*7D
$GPGGA,000000.032,8960.0000,N,00000.0000,E,0,0,,137.0,M,13.0,M,,*42
$GPGSA,A,1,,,,,,,,,,,,,,,*1E
$GPGSV,1,1,02,23,,,46,13,,,28*70
$GPRMC,000000.032,V,8960.0000,N,00000.0000,E,0.00,0.00,060180,,,N*7F
$GPGGA,000001.032,8960.0000,N,00000.0000,E,0,0,,137.0,M,13.0,M,,*43
$GPGSA,A,1,,,,,,,,,,,,,,,*1E
$GPGSV,1,1,02,23,,,35,13,,,35*78
$GPRMC,000001.032,V,8960.0000,N,00000.0000,E,0.00,0.00,060180,,,N*7E
$GPGGA,000002.033,8960.0000,N,00000.0000,E,0,0,,137.0,M,13.0,M,,*41
$GPGSA,A,1,,,,,,,,,,,,,,,*1E
$GPGSV,1,1,02,23,,,27,13,,,32*7C
$GPRMC,000002.033,V,8960.0000,N,00000.0000,E,0.00,0.00,060180,,,N*7C
$GPGGA,000003.033,8960.0000,N,00000.0000,E,0,0,,137.0,M,13.0,M,,*40
$GPGSA,A,1,,,,,,,,,,,,,,,*1E
$GPGSV,1,1,02,23,,,34,13,,,34*78
$GPRMC,000003.033,V,8960.0000,N,00000.0000,E,0.00,0.00,060180,,,N*7D
$GPGGA,000004.033,8960.0000,N,00000.0000,E,0,0,,137.0,M,13.0,M,,*47
$GPGSA,A,1,,,,,,,,,,,,,,,*1E
$GPGSV,1,1,02,23,,,32,13,,,33*79
$GPRMC,000004.033,V,8960.0000,N,00000.0000,E,0.00,0.00,060180,,,N*7A
$GPGGA,000005.033,8960.0000,N,00000.0000,E,0,0,,137.0,M,13.0,M,,*46
$GPGSA,A,1,,,,,,,,,,,,,,,*1E
$GPGSV,1,1,02,23,,,32,13,,,31*7B
$GPRMC,000005.033,V,8960.0000,N,00000.0000,E,0.00,0.00,060180,,,N*7B
$GPGGA,000006.033,8960.0000,N,00000.0000,E,0,0,,137.0,M,13.0,M,,*45
$GPGSA,A,1,,,,,,,,,,,,,,,*1E
$GPGSV,1,1,02,23,,,30,13,,,32*7A
$GPRMC,000006.033,V,8960.0000,N,00000.0000,E,0.00,0.00,060180,,,N*78
$GPGGA,000007.033,8960.0000,N,00000.0000,E,0,0,,137.0,M,13.0,M,,*44
$GPGSA,A,1,,,,,,,,,,,,,,,*1E
$GPGSV,1,1,02,23,,,30,13,,,32*7A
$GPRMC,000007.033,V,8960.0000,N,00000.0000,E,0.00,0.00,060180,,,N*79
$GPGGA,000008.033,8960.0000,N,00000.0000,E,0,0,,137.0,M,13.0,M,,*4B
$GPGSA,A,1,,,,,,,,,,,,,,,*1E
$GPGSV,1,1,03,23,,,30,13,,,32,32,,,44*7A
$GPRMC,000008.033,V,8960.0000,N,00000.0000,E,0.00,0.00,060180,,,N*76
$GPGGA,000009.033,8960.0000,N,00000.0000,E,0,0,,137.0,M,13.0,M,,*4A
$GPGSA,A,1,,,,,,,,,,,,,,,*1E
$GPGSV,1,1,03,23,,,30,13,,,32,32,,,46*78
$GPRMC,000009.033,V,8960.0000,N,00000.0000,E,0.00,0.00,060180,,,N*77
$GPGGA,071659.929,8960.0000,N,00000.0000,E,0,0,,137.0,M,13.0,M,,*4D
$GPGSA,A,1,,,,,,,,,,,,,,,*1E
$GPGSV,1,1,03,23,,,29,13,,,32,32,,,46*70
$GPRMC,071659.929,V,8960.0000,N,00000.0000,E,0.00,0.00,110180,,,N*76
$GPGGA,071700.929,8960.0000,N,00000.0000,E,0,0,,137.0,M,13.0,M,,*40
$GPGSA,A,1,,,,,,,,,,,,,,,*1E
$GPGSV,1,1,03,23,,,29,13,,,32,32,,,45*73
$GPRMC,071700.929,V,8960.0000,N,00000.0000,E,0.00,0.00,110180,,,N*7B
$GPGGA,071701.929,8960.0000,N,00000.0000,E,0,0,,137.0,M,13.0,M,,*41
$GPGSA,A,1,,,,,,,,,,,,,,,*1E
$GPGSV,1,1,03,23,,,29,13,,,32,32,,,46*70
$GPRMC,071701.929,V,8960.0000,N,00000.0000,E,0.00,0.00,110180,,,N*7A
$GPGGA,071702.929,8960.0000,N,00000.0000,E,0,0,,137.0,M,13.0,M,,*42
$GPGSA,A,1,,,,,,,,,,,,,,,*1E
$GPGSV,1,1,03,23,,,30,13,,,32,32,,,46*78
$GPRMC,071702.929,V,8960.0000,N,00000.0000,E,0.00,0.00,110180,,,N*79
$GPGGA,071703.929,8960.0000,N,00000.0000,E,0,0,,137.0,M,13.0,M,,*43
$GPGSA,A,1,,,,,,,,,,,,,,,*1E
$GPGSV,1,1,04,23,,,31,13,,,33,32,,,46,20,,,44*7D
$GPRMC,071703.929,V,8960.0000,N,00000.0000,E,0.00,0.00,110180,,,N*78
$GPGGA,071704.929,8960.0000,N,00000.0000,E,0,0,,137.0,M,13.0,M,,*44
$GPGSA,A,1,,,,,,,,,,,,,,,*1E
$GPGSV,1,1,04,23,,,33,13,,,33,32,,,45,20,,,41*79
$GPRMC,071704.929,V,8960.0000,N,00000.0000,E,0.00,0.00,110180,,,N*7F
$GPGGA,071705.929,8960.0000,N,00000.0000,E,0,0,,137.0,M,13.0,M,,*45
$GPGSA,A,1,,,,,,,,,,,,,,,*1E
$GPGSV,1,1,04,23,,,33,13,,,33,32,,,44,20,,,42*7B
$GPRMC,071705.929,V,8960.0000,N,00000.0000,E,0.00,0.00,110180,,,N*7E
$GPGGA,071706.929,8960.0000,N,00000.0000,E,0,0,,137.0,M,13.0,M,,*46
$GPGSA,A,1,,,,,,,,,,,,,,,*1E
$GPGSV,1,1,04,23,,,34,13,,,33,32,,,44,20,,,43*7D
$GPRMC,071706.929,V,8960.0000,N,00000.0000,E,0.00,0.00,110180,,,N*7D
$GPGGA,071707.929,8960.0000,N,00000.0000,E,0,0,,137.0,M,13.0,M,,*47
$GPGSA,A,1,,,,,,,,,,,,,,,*1E
$GPGSV,1,1,04,23,,,35,13,,,32,32,,,44,20,,,42*7C
$GPRMC,071707.929,V,8960.0000,N,00000.0000,E,0.00,0.00,110180,,,N*7C
$GPGGA,071708.929,8960.0000,N,00000.0000,E,0,0,,137.0,M,13.0,M,,*48
$GPGSA,A,1,,,,,,,,,,,,,,,*1E
$GPGSV,1,1,04,23,,,36,13,,,32,32,,,44,20,,,42*7F
$GPRMC,071708.929,V,8960.0000,N,00000.0000,E,0.00,0.00,110180,,,N*73
$GPGGA,071709.929,8960.0000,N,00000.0000,E,0,0,,137.0,M,13.0,M,,*49
$GPGSA,A,1,,,,,,,,,,,,,,,*1E
$GPGSV,1,1,04,23,,,36,13,,,32,32,,,44,20,,,42*7F
$GPRMC,071709.929,V,8960.0000,N,00000.0000,E,0.00,0.00,110180,,,N*72
$GPGGA,071710.929,8960.0000,N,00000.0000,E,0,0,,137.0,M,13.0,M,,*41
$GPGSA,A,1,,,,,,,,,,,,,,,*1E
$GPGSV,1,1,04,23,,,36,13,,,32,32,,,44,20,,,42*7F
$GPRMC,071710.929,V,8960.0000,N,00000.0000,E,0.00,0.00,110180,,,N*7A
$GPGGA,071711.929,8960.0000,N,00000.0000,E,0,0,,137.0,M,13.0,M,,*40
$GPGSA,A,1,,,,,,,,,,,,,,,*1E
$GPGSV,1,1,04,23,,,36,13,,,32,32,,,44,20,,,42*7F
$GPRMC,071711.929,V,8960.0000,N,00000.0000,E,0.00,0.00,110180,,,N*7B
$GPGGA,071712.929,8960.0000,N,00000.0000,E,0,0,,137.0,M,13.0,M,,*43
$GPGSA,A,1,,,,,,,,,,,,,,,*1E
$GPGSV,1,1,04,23,,,37,13,,,32,32,,,44,20,,,42*7E
$GPRMC,071712.929,V,8960.0000,N,00000.0000,E,0.00,0.00,110180,,,N*78
$GPGGA,071713.929,8960.0000,N,00000.0000,E,0,0,,137.0,M,13.0,M,,*42
$GPGSA,A,1,,,,,,,,,,,,,,,*1E
$GPGSV,1,1,04,23,,,37,13,,,33,32,,,44,20,,,42*7F
$GPRMC,071713.929,V,8960.0000,N,00000.0000,E,0.00,0.00,110180,,,N*79
$GPGGA,071714.929,8960.0000,N,00000.0000,E,0,0,,137.0,M,13.0,M,,*45
$GPGSA,A,1,,,,,,,,,,,,,,,*1E
$GPGSV,1,1,04,23,,,37,13,,,33,32,,,44,20,,,42*7F
$GPRMC,071714.929,V,8960.0000,N,00000.0000,E,0.00,0.00,110180,,,N*7E
$GPGGA,071715.929,8960.0000,N,00000.0000,E,0,0,,137.0,M,13.0,M,,*44
$GPGSA,A,1,,,,,,,,,,,,,,,*1E
$GPGSV,1,1,04,23,,,37,13,,,33,32,,,44,20,,,42*7F
$GPRMC,071715.929,V,8960.0000,N,00000.0000,E,0.00,0.00,110180,,,N*7F
$GPGGA,071716.929,8960.0000,N,00000.0000,E,0,0,,137.0,M,13.0,M,,*47
$GPGSA,A,1,,,,,,,,,,,,,,,*1E
$GPGSV,1,1,04,23,,,37,13,,,33,32,,,44,20,,,42*7F
$GPRMC,071716.929,V,8960.0000,N,00000.0000,E,0.00,0.00,110180,,,N*7C
$GPGGA,071717.929,8960.0000,N,00000.0000,E,0,0,,137.0,M,13.0,M,,*46
$GPGSA,A,1,,,,,,,,,,,,,,,*1E
$GPGSV,1,1,04,23,,,37,13,,,33,32,,,44,20,,,42*7F
$GPRMC,071717.929,V,8960.0000,N,00000.0000,E,0.00,0.00,110180,,,N*7D
$GPGGA,071718.929,8960.0000,N,00000.0000,E,0,0,,137.0,M,13.0,M,,*49
$GPGSA,A,1,,,,,,,,,,,,,,,*1E
$GPGSV,1,1,04,23,,,37,13,,,33,32,,,44,20,,,42*7F
$GPRMC,071718.929,V,8960.0000,N,00000.0000,E,0.00,0.00,110180,,,N*72
$GPGGA,071719.929,8960.0000,N,00000.0000,E,0,0,,137.0,M,13.0,M,,*48
$GPGSA,A,1,,,,,,,,,,,,,,,*1E
$GPGSV,1,1,04,23,,,37,13,,,33,32,,,44,20,,,42*7F
$GPRMC,071719.929,V,8960.0000,N,00000.0000,E,0.00,0.00,110180,,,N*73
$GPGGA,071720.929,8960.0000,N,00000.0000,E,0,0,,137.0,M,13.0,M,,*42
$GPGSA,A,1,,,,,,,,,,,,,,,*1E
$GPGSV,1,1,04,23,,,37,13,,,33,32,,,44,20,,,42*7F
$GPRMC,071720.929,V,8960.0000,N,00000.0000,E,0.00,0.00,110180,,,N*79
$GPGGA,071721.929,8960.0000,N,00000.0000,E,0,0,,137.0,M,13.0,M,,*43
$GPGSA,A,1,,,,,,,,,,,,,,,*1E
$GPGSV,1,1,04,23,,,37,13,,,33,32,,,44,20,,,42*7F
$GPRMC,071721.929,V,8960.0000,N,00000.0000,E,0.00,0.00,110180,,,N*78
$GPGGA,071722.929,8960.0000,N,00000.0000,E,0,0,,137.0,M,13.0,M,,*40
$GPGSA,A,1,,,,,,,,,,,,,,,*1E
$GPGSV,1,1,04,23,,,37,13,,,34,32,,,44,20,,,42*78
$GPRMC,071722.929,V,8960.0000,N,00000.0000,E,0.00,0.00,111111,,,N*72
$GPGGA,071723.929,8960.0000,N,00000.0000,E,0,0,,137.0,M,13.0,M,,*41
$GPGSA,A,1,,,,,,,,,,,,,,,*1E
$GPGSV,1,1,04,23,,,37,13,,,34,32,,,44,20,,,42*78
$GPRMC,071723.929,V,8960.0000,N,00000.0000,E,0.00,0.00,111111,,,N*73
$GPGGA,071724.929,8960.0000,N,00000.0000,E,0,0,,137.0,M,13.0,M,,*46
$GPGSA,A,1,,,,,,,,,,,,,,,*1E
$GPGSV,1,1,04,23,,,37,13,,,34,32,,,43,20,,,41*7C
$GPRMC,071724.929,V,8960.0000,N,00000.0000,E,0.00,0.00,111111,,,N*74
$GPGGA,071725.929,8960.0000,N,00000.0000,E,0,0,,137.0,M,13.0,M,,*47
$GPGSA,A,1,,,,,,,,,,,,,,,*1E
$GPGSV,1,1,04,23,,,37,13,,,34,32,,,43,20,,,41*7C
$GPRMC,071725.929,V,8960.0000,N,00000.0000,E,0.00,0.00,111111,,,N*75
$GPGGA,071726.929,8960.0000,N,00000.0000,E,0,0,,137.0,M,13.0,M,,*44
$GPGSA,A,1,,,,,,,,,,,,,,,*1E
$GPGSV,2,1,05,23,,,37,13,,,34,32,,,43,31,,,30*78
$GPGSV,2,2,05,20,,,41*7B
$GPRMC,071726.929,V,8960.0000,N,00000.0000,E,0.00,0.00,111111,,,N*76
$GPGGA,071727.929,8960.0000,N,00000.0000,E,0,0,,137.0,M,13.0,M,,*45
$GPGSA,A,1,,,,,,,,,,,,,,,*1E
$GPGSV,2,1,05,23,,,37,13,,,34,32,,,43,31,,,30*78
$GPGSV,2,2,05,20,,,41*7B
$GPRMC,071727.929,V,8960.0000,N,00000.0000,E,0.00,0.00,111111,,,N*77
$GPGGA,071728.929,8960.0000,N,00000.0000,E,0,0,,137.0,M,13.0,M,,*4A
$GPGSA,A,1,,,,,,,,,,,,,,,*1E
$GPGSV,2,1,05,23,,,36,13,,,34,32,,,43,31,,,27*7F
$GPGSV,2,2,05,20,,,41*7B
$GPRMC,071728.929,V,8960.0000,N,00000.0000,E,0.00,0.00,111111,,,N*78
$GPGGA,071729.929,8960.0000,N,00000.0000,E,0,0,,137.0,M,13.0,M,,*4B
$GPGSA,A,1,,,,,,,,,,,,,,,*1E
$GPGSV,2,1,05,23,,,36,13,,,34,32,,,43,31,,,31*78
$GPGSV,2,2,05,20,,,41*7B
$GPRMC,071729.929,V,8960.0000,N,00000.0000,E,0.00,0.00,111111,,,N*79
$GPGGA,071730.929,8960.0000,N,00000.0000,E,0,0,,137.0,M,13.0,M,,*43
$GPGSA,A,1,,,,,,,,,,,,,,,*1E
$GPGSV,2,1,05,23,,,36,13,,,34,32,,,43,31,,,31*78
$GPGSV,2,2,05,20,,,41*7B
$GPRMC,071730.929,V,8960.0000,N,00000.0000,E,0.00,0.00,111111,,,N*71
$GPGGA,071731.929,8960.0000,N,00000.0000,E,0,0,,137.0,M,13.0,M,,*42
$GPGSA,A,1,,,,,,,,,,,,,,,*1E
$GPGSV,2,1,05,23,,,36,13,,,34,32,,,43,31,,,31*78
$GPGSV,2,2,05,20,,,41*7B
$GPRMC,071731.929,V,8960.0000,N,00000.0000,E,0.00,0.00,111111,,,N*70
$GPGGA,071732.929,8960.0000,N,00000.0000,E,0,0,,137.0,M,13.0,M,,*41
$GPGSA,A,1,,,,,,,,,,,,,,,*1E
$GPGSV,2,1,05,23,,,36,13,,,34,32,,,43,31,,,31*78
$GPGSV,2,2,05,20,,,41*7B
$GPRMC,071732.929,V,8960.0000,N,00000.0000,E,0.00,0.00,111111,,,N*73
$GPGGA,071733.929,8960.0000,N,00000.0000,E,0,0,,137.0,M,13.0,M,,*40
$GPGSA,A,1,,,,,,,,,,,,,,,*1E
$GPGSV,2,1,05,23,,,36,13,,,34,32,,,43,31,,,31*78
$GPGSV,2,2,05,20,,,41*7B
$GPRMC,071733.929,V,8960.0000,N,00000.0000,E,0.00,0.00,111111,,,N*72
$GPGGA,071734.929,4404.1178,N,12118.8608,W,0,4,,1127.8,M,-19.6,M,,*49
$GPGSA,A,1,,,,,,,,,,,,,,,*1E
$GPGSV,2,1,05,23,,,37,13,,,34,32,,,43,31,,,31*79
$GPGSV,2,2,05,20,,,41*7B
$GPRMC,071734.929,V,4404.1178,N,12118.8608,W,0.10,0.00,111111,,,N*67
$GPGGA,071736.000,4404.1316,N,12118.8445,W,1,4,5.21,1134.4,M,-19.6,M,,*5F
$GPGSA,A,3,23,13,32,20,,,,,,,,,5.30,5.21,0.98*03
$GPGSV,2,1,06,20,73,204,41,23,56,298,37,32,54,148,43,48,37,196,*70
$GPGSV,2,2,06,13,30,282,34,31,,,31*41
$GPRMC,071736.000,A,4404.1316,N,12118.8445,W,0.20,0.00,111111,,,A*7D
$GPGGA,071737.000,4404.1258,N,12118.8537,W,1,4,5.20,1131.0,M,-19.6,M,,*51
$GPGSA,A,3,23,13,32,20,,,,,,,,,5.29,5.20,0.98*0A
$GPGSV,2,1,06,20,73,204,41,23,56,298,37,32,54,148,43,48,37,196,44*70
$GPGSV,2,2,06,13,30,282,34,31,,,31*41
$GPRMC,071737.000,A,4404.1258,N,12118.8537,W,0.12,0.00,111111,,,A*72
$GPGGA,071738.000,4404.1279,N,12118.8515,W,1,4,5.20,1137.3,M,-19.6,M,,*58
$GPGSA,A,3,23,13,32,20,,,,,,,,,5.29,5.20,0.98*0A
$GPGSV,2,1,06,20,73,204,41,23,56,298,37,32,54,148,43,48,37,196,45*71
$GPGSV,2,2,06,13,30,282,34,31,,,31*41
$GPRMC,071738.000,A,4404.1279,N,12118.8515,W,0.05,0.00,111111,,,A*78
$GPGGA,071739.000,4404.1284,N,12118.8506,W,1,4,5.20,1135.9,M,-19.6,M,,*51
$GPGSA,A,3,23,13,32,20,,,,,,,,,5.29,5.20,0.98*0A
$GPGSV,2,1,06,20,73,204,41,23,56,298,37,32,54,148,43,48,37,196,44*70
$GPGSV,2,2,06,13,30,282,34,31,,,31*41
$GPRMC,071739.000,A,4404.1284,N,12118.8506,W,0.05,0.00,111111,,,A*79
$GPGGA,071740.000,4404.1303,N,12118.8486,W,1,4,5.20,1134.7,M,-19.6,M,,*57
$GPGSA,A,3,23,13,32,20,,,,,,,,,5.29,5.20,0.98*0A
$GPGSV,2,1,06,20,73,204,41,23,56,298,36,32,54,148,43,48,37,196,45*70
$GPGSV,2,2,06,13,30,282,34,31,,,31*41
$GPRMC,071740.000,A,4404.1303,N,12118.8486,W,0.11,0.00,111111,,,A*75
$GPGGA,071741.000,4404.1316,N,12118.8473,W,1,4,5.20,1135.3,M,-19.6,M,,*5D
$GPGSA,A,3,23,13,32,20,,,,,,,,,5.29,5.20,0.98*0A
$GPGSV,2,1,06,20,73,204,41,23,56,298,36,32,54,148,43,48,37,196,45*70
$GPGSV,2,2,06,13,30,282,34,31,,,31*41
$GPRMC,071741.000,A,4404.1316,N,12118.8473,W,0.08,0.00,111111,,,A*72
$GPGGA,071742.000,4404.1314,N,12118.8476,W,1,4,5.20,1134.4,M,-19.6,M,,*5F
$GPGSA,A,3,23,13,32,20,,,,,,,,,5.29,5.20,0.98*0A
$GPGSV,2,1,06,20,73,204,41,23,56,298,36,32,54,148,43,48,37,196,45*70
$GPGSV,2,2,06,13,30,282,34,31,,,30*40
$GPRMC,071742.000,A,4404.1314,N,12118.8476,W,0.03,0.00,111111,,,A*7D
$GPGGA,071743.000,4404.1312,N,12118.8480,W,1,4,5.20,1134.6,M,-19.6,M,,*53
$GPGSA,A,3,23,13,32,20,,,,,,,,,5.29,5.20,0.98*0A
$GPGSV,2,1,06,20,73,204,41,23,56,298,36,32,54,148,43,48,37,196,45*70
$GPGSV,2,2,06,13,30,282,34,31,,,31*41
$GPRMC,071743.000,A,4404.1312,N,12118.8480,W,0.04,0.00,111111,,,A*74
$GPGGA,071744.000,4404.1305,N,12118.8487,W,1,4,5.20,1136.4,M,-19.6,M,,*55
$GPGSA,A,3,23,13,32,20,,,,,,,,,5.29,5.20,0.98*0A
$GPGSV,2,1,06,20,73,204,41,23,56,298,36,32,54,148,43,48,37,196,45*70
$GPGSV,2,2,06,13,30,282,34,31,,,31*41
$GPRMC,071744.000,A,4404.1305,N,12118.8487,W,0.07,0.00,111111,,,A*71
$GPGGA,071745.000,4404.1306,N,12118.8488,W,1,4,5.19,1138.1,M,-19.6,M,,*59
$GPGSA,A,3,23,13,32,20,,,,,,,,,5.28,5.19,0.98*01
$GPGSV,2,1,06,20,73,204,41,23,56,298,36,32,54,148,43,48,37,196,45*70
$GPGSV,2,2,06,13,30,282,34,31,,,31*41
$GPRMC,071745.000,A,4404.1306,N,12118.8488,W,0.11,0.00,111111,,,A*7B
$GPGGA,071746.000,4404.1306,N,12118.8487,W,1,4,5.20,1137.0,M,-19.6,M,,*51
$GPGSA,A,3,23,13,32,20,,,,,,,,,5.29,5.20,0.98*0A
$GPGSV,2,1,06,20,73,204,41,23,56,298,37,32,54,148,43,48,37,196,45*71
$GPGSV,2,2,06,13,30,282,34,31,,,31*41
$GPRMC,071746.000,A,4404.1306,N,12118.8487,W,0.04,0.00,111111,,,A*73
$GPGGA,071747.000,4404.1314,N,12118.8479,W,1,4,5.20,1138.0,M,-19.6,M,,*5D
$GPGSA,A,3,23,13,32,20,,,,,,,,,5.29,5.20,0.98*0A
$GPGSV,2,1,07,20,73,204,41,23,56,298,37,32,54,148,43,48,37,196,45*70
$GPGSV,2,2,07,13,30,282,34,01,14,210,,31,,,31*77
$GPRMC,071747.000,A,4404.1314,N,12118.8479,W,0.05,0.00,111111,,,A*71
$GPGGA,071748.000,4404.1318,N,12118.8476,W,1,4,5.19,1137.9,M,-19.6,M,,*5D
$GPGSA,A,3,23,13,32,20,,,,,,,,,5.28,5.19,0.98*01
$GPGSV,2,1,07,20,73,204,41,23,56,298,37,32,54,148,43,48,37,196,45*70
$GPGSV,2,2,07,13,30,282,35,01,14,210,,31,,,31*76
$GPRMC,071748.000,A,4404.1318,N,12118.8476,W,0.03,0.00,111111,,,A*7B
$GPGGA,071749.000,4404.1318,N,12118.8475,W,1,4,5.19,1137.6,M,-19.6,M,,*50
$GPGSA,A,3,23,13,32,20,,,,,,,,,5.28,5.19,0.98*01
$GPGSV,2,1,07,20,73,204,41,23,56,298,37,32,54,148,43,48,37,196,45*70
$GPGSV,2,2,07,13,30,282,35,01,14,210,,31,,,30*77
$GPRMC,071749.000,A,4404.1318,N,12118.8475,W,0.04,0.00,111111,,,A*7E
$GPGGA,071750.000,4404.1314,N,12118.8480,W,1,4,5.19,1138.4,M,-19.6,M,,*53
$GPGSA,A,3,23,13,32,20,,,,,,,,,5.28,5.19,0.98*01
$GPGSV,2,1,07,20,73,204,41,23,56,298,37,32,54,148,43,48,37,196,45*70
$GPGSV,2,2,07,13,30,282,35,01,14,210,,31,,,30*77
$GPRMC,071750.000,A,4404.1314,N,12118.8480,W,0.03,0.00,111111,,,A*77
$GPGGA,071751.000,4404.1316,N,12118.8480,W,1,4,5.19,1138.0,M,-19.6,M,,*54
$GPGSA,A,3,23,13,32,20,,,,,,,,,5.28,5.19,0.98*01
$GPGSV,2,1,07,20,73,204,41,23,56,298,37,32,54,148,43,48,37,196,45*70
$GPGSV,2,2,07,13,30,282,35,01,14,210,,31,,,31*76
$GPRMC,071751.000,A,4404.1316,N,12118.8480,W,0.03,0.00,111111,,,A*74
$GPGGA,071752.000,4404.1316,N,12118.8480,W,1,4,5.19,1138.2,M,-19.6,M,,*55
$GPGSA,A,3,23,13,32,20,,,,,,,,,5.28,5.19,0.98*01
$GPGSV,2,1,07,20,73,204,41,23,56,298,37,32,54,148,43,48,37,196,45*70
$GPGSV,2,2,07,13,30,282,35,01,14,210,,31,,,32*75
$GPRMC,071752.000,A,4404.1316,N,12118.8480,W,0.03,0.00,111111,,,A*77
$GPGGA,071753.000,4404.1316,N,12118.8480,W,1,4,5.19,1137.8,M,-19.6,M,,*51
$GPGSA,A,3,23,13,32,20,,,,,,,,,5.28,5.19,0.98*01
$GPGSV,2,1,07,20,73,204,41,23,56,298,37,32,54,148,43,48,37,196,45*70
$GPGSV,2,2,07,13,30,282,35,01,14,210,,31,,,32*75
$GPRMC,071753.000,A,4404.1316,N,12118.8480,W,0.04,0.00,111111,,,A*71
$GPGGA,071754.000,4404.1314,N,12118.8481,W,1,4,5.19,1137.2,M,-19.6,M,,*5F
$GPGSA,A,3,23,13,32,20,,,,,,,,,5.28,5.19,0.98*01
$GPGSV,2,1,07,20,73,204,41,23,56,298,37,32,54,148,43,48,37,196,45*70
$GPGSV,2,2,07,13,30,282,35,01,14,210,,31,,,32*75
$GPRMC,071754.000,A,4404.1314,N,12118.8481,W,0.03,0.00,111111,,,A*72
$GPGGA,071755.000,4404.1320,N,12118.8477,W,1,4,5.18,1136.7,M,-19.6,M,,*55
$GPGSA,A,3,23,13,32,20,,,,,,,,,5.28,5.18,0.98*00
$GPGSV,2,1,07,20,73,204,42,23,56,298,37,32,54,148,43,48,37,196,45*73
$GPGSV,2,2,07,13,30,282,35,01,14,210,,31,,,32*75
$GPRMC,071755.000,A,4404.1320,N,12118.8477,W,0.05,0.00,111111,,,A*7B
$GPGGA,071756.000,4404.1315,N,12118.8480,W,1,4,5.18,1135.5,M,-19.6,M,,*59
$GPGSA,A,3,23,13,32,20,,,,,,,,,5.28,5.18,0.98*00
$GPGSV,2,1,07,20,73,204,42,23,56,298,37,32,54,148,43,48,37,196,45*73
$GPGSV,2,2,07,13,30,282,34,01,14,210,,31,,,32*74
$GPRMC,071756.000,A,4404.1315,N,12118.8480,W,0.11,0.00,111111,,,A*73
$GPGGA,071757.000,4404.1319,N,12118.8475,W,1,4,5.19,1135.0,M,-19.6,M,,*5A
$GPGSA,A,3,23,13,32,20,,,,,,,,,5.28,5.19,0.98*01
$GPGSV,2,1,07,20,73,203,42,23,56,298,37,32,54,148,43,48,37,196,45*74
$GPGSV,2,2,07,13,30,282,34,01,14,210,,31,,,32*74
$GPRMC,071757.000,A,4404.1319,N,12118.8475,W,0.07,0.00,111111,,,A*73
$GPGGA,071758.000,4404.1314,N,12118.8481,W,1,4,5.18,1134.1,M,-19.6,M,,*52
$GPGSA,A,3,23,13,32,20,,,,,,,,,5.28,5.18,0.98*00
$GPGSV,2,1,07,20,73,203,42,23,56,298,37,32,54,148,43,48,37,196,45*74
$GPGSV,2,2,07,13,30,282,34,01,14,210,,31,,,32*74
$GPRMC,071758.000,A,4404.1314,N,12118.8481,W,0.03,0.00,111111,,,A*7E
$GPGGA,071759.000,4404.1314,N,12118.8481,W,1,4,5.18,1134.1,M,-19.6,M,,*53
$GPGSA,A,3,23,13,32,20,,,,,,,,,5.27,5.18,0.98*0F
$GPGSV,2,1,07,20,73,203,42,23,56,298,37,32,54,148,43,48,37,196,45*74
$GPGSV,2,2,07,13,30,282,34,01,14,210,,31,,,32*74
$GPRMC,071759.000,A,4404.1314,N,12118.8481,W,0.02,0.00,111111,,,A*7E
$GPGGA,071800.000,4404.1313,N,12118.8481,W,1,4,5.18,1133.8,M,-19.6,M,,*59
$GPGSA,A,3,23,13,32,20,,,,,,,,,5.27,5.18,0.98*0F
$GPGSV,2,1,07,20,73,203,42,23,57,298,37,32,54,148,43,48,37,196,45*75
$GPGSV,2,2,07,13,30,282,34,01,14,210,,31,,,32*74
$GPRMC,071800.000,A,4404.1313,N,12118.8481,W,0.03,0.00,111111,,,A*7B
$GPGGA,071801.000,4404.1312,N,12118.8482,W,1,4,5.18,1134.1,M,-19.6,M,,*54
$GPGSA,A,3,23,13,32,20,,,,,,,,,5.27,5.18,0.98*0F
$GPGSV,2,1,07,20,73,203,42,23,57,298,38,32,54,148,43,48,37,196,45*7A
$GPGSV,2,2,07,13,30,282,34,01,14,210,,31,,,32*74
$GPRMC,071801.000,A,4404.1312,N,12118.8482,W,0.03,0.00,111111,,,A*78
$GPGGA,071802.000,4404.1309,N,12118.8484,W,1,4,5.18,1134.3,M,-19.6,M,,*59
$GPGSA,A,3,23,13,32,20,,,,,,,,,5.27,5.18,0.98*0F
$GPGSV,2,1,07,20,73,203,42,23,57,298,38,32,54,148,43,48,37,196,45*7A
$GPGSV,2,2,07,13,30,282,34,01,14,210,,31,,,32*74
$GPRMC,071802.000,A,4404.1309,N,12118.8484,W,0.06,0.00,111111,,,A*72
$GPGGA,071803.000,4404.1312,N,12118.8481,W,1,4,5.18,1134.0,M,-19.6,M,,*54
$GPGSA,A,3,23,13,32,20,,,,,,,,,5.27,5.18,0.98*0F
$GPGSV,2,1,07,20,73,203,42,23,57,298,38,32,54,148,43,48,37,196,45*7A
$GPGSV,2,2,07,13,30,282,34,01,14,210,,31,,,32*74
$GPRMC,071803.000,A,4404.1312,N,12118.8481,W,0.09,0.00,111111,,,A*73
$GPGGA,071804.000,4404.1315,N,12118.8479,W,1,4,5.18,1133.2,M,-19.6,M,,*56
$GPGSA,A,3,23,13,32,20,,,,,,,,,5.27,5.18,0.98*0F
$GPGSV,2,1,07,20,73,203,42,23,57,298,39,32,54,148,43,48,37,196,45*7B
$GPGSV,2,2,07,13,30,282,34,01,14,210,,31,,,32*74
$GPRMC,071804.000,A,4404.1315,N,12118.8479,W,0.12,0.00,111111,,,A*7E
$GPGGA,071805.000,4404.1320,N,12118.8475,W,1,5,1.49,1133.5,M,-19.6,M,,*5B
$GPGSA,A,3,23,13,32,31,20,,,,,,,,1.78,1.49,0.96*0D
$GPGSV,2,1,07,20,73,203,42,23,57,298,39,32,54,148,43,48,37,196,45*7B
$GPGSV,2,2,07,31,34,050,32,13,30,282,34,01,14,210,*46
$GPRMC,071805.000,A,4404.1320,N,12118.8475,W,0.12,0.00,111111,,,A*75
$GPGGA,071806.000,4404.1319,N,12118.8476,W,1,5,1.49,1133.7,M,-19.6,M,,*53
$GPGSA,A,3,23,13,32,31,20,,,,,,,,1.77,1.49,0.96*02
$GPGSV,2,1,07,20,73,203,42,23,57,298,39,32,54,148,43,48,37,196,45*7B
$GPGSV,2,2,07,31,34,050,32,13,30,282,34,01,14,210,*46
$GPRMC,071806.000,A,4404.1319,N,12118.8476,W,0.16,0.00,111111,,,A*7B
$GPGGA,071807.000,4404.1315,N,12118.8480,W,1,5,1.49,1133.7,M,-19.6,M,,*57
$GPGSA,A,3,23,13,32,31,20,,,,,,,,1.77,1.49,0.96*02
$GPGSV,2,1,07,20,73,203,42,23,57,298,39,32,54,148,43,48,37,196,45*7B
$GPGSV,2,2,07,31,34,050,32,13,30,282,34,01,14,210,*46
$GPRMC,071807.000,A,4404.1315,N,12118.8480,W,0.12,0.00,111111,,,A*7B
$GPGGA,071808.000,4404.1313,N,12118.8481,W,1,5,1.49,1133.9,M,-19.6,M,,*51
$GPGSA,A,3,23,13,32,31,20,,,,,,,,1.77,1.49,0.96*02
$GPGSV,2,1,07,20,73,203,42,23,57,298,39,32,54,148,43,48,37,196,45*7B
$GPGSV,2,2,07,31,34,050,32,13,30,282,34,01,14,210,*46
$GPRMC,071808.000,A,4404.1313,N,12118.8481,W,0.09,0.00,111111,,,A*79
$GPGGA,071809.000,4404.1315,N,12118.8480,W,1,5,1.49,1134.1,M,-19.6,M,,*58
$GPGSA,A,3,23,13,32,31,20,,,,,,,,1.77,1.49,0.96*02
$GPGSV,2,1,07,20,73,203,42,23,57,298,39,32,54,148,43,48,37,196,45*7B
$GPGSV,2,2,07,31,34,050,32,13,30,282,34,01,14,210,*46
$GPRMC,071809.000,A,4404.1315,N,12118.8480,W,0.07,0.00,111111,,,A*71
$GPGGA,071810.000,4404.1315,N,12118.8479,W,1,5,1.49,1134.2,M,-19.6,M,,*55
$GPGSA,A,3,23,13,32,31,20,,,,,,,,1.77,1.49,0.96*02
$GPGSV,2,1,07,20,73,203,42,23,57,298,39,32,54,148,43,48,37,196,45*7B
$GPGSV,2,2,07,31,34,050,31,13,30,282,34,01,14,210,*45
$GPRMC,071810.000,A,4404.1315,N,12118.8479,W,0.07,0.00,111111,,,A*7F
$GPGGA,071811.000,4404.1312,N,12118.8482,W,1,5,1.49,1134.3,M,-19.6,M,,*56
$GPGSA,A,3,23,13,32,31,20,,,,,,,,1.77,1.49,0.96*02
$GPGSV,2,1,07,20,73,203,42,23,57,298,39,32,54,148,43,48,37,196,45*7B
$GPGSV,2,2,07,31,34,050,31,13,30,282,34,01,14,210,*45
$GPRMC,071811.000,A,4404.1312,N,12118.8482,W,0.07,0.00,111111,,,A*7D
$GPGGA,071812.000,4404.1310,N,12118.8484,W,1,5,1.49,1134.7,M,-19.6,M,,*55
$GPGSA,A,3,23,13,32,31,20,,,,,,,,1.77,1.49,0.96*02
$GPGSV,2,1,07,20,73,203,42,23,57,298,39,32,54,148,43,48,37,196,45*7B
$GPGSV,2,2,07,31,34,050,31,13,30,282,34,01,14,210,*45
$GPRMC,071812.000,A,4404.1310,N,12118.8484,W,0.06,0.00,111111,,,A*7B
$GPGGA,071813.000,4404.1309,N,12118.8486,W,1,5,1.49,1134.6,M,-19.6,M,,*5F
$GPGSA,A,3,23,13,32,31,20,,,,,,,,1.77,1.49,0.96*02
$GPGSV,2,1,07,20,73,203,42,23,57,298,39,32,54,148,43,48,37,196,45*7B
$GPGSV,2,2,07,31,34,050,31,13,30,282,34,01,14,210,*45
$GPRMC,071813.000,A,4404.1309,N,12118.8486,W,0.07,0.00,111111,,,A*71
$GPGGA,071814.000,4404.1309,N,12118.8485,W,1,5,1.49,1134.8,M,-19.6,M,,*55
$GPGSA,A,3,23,13,32,31,20,,,,,,,,1.77,1.49,0.96*02
$GPGSV,2,1,07,20,73,203,42,23,57,298,39,32,54,148,43,48,37,196,45*7B
$GPGSV,2,2,07,31,34,050,31,13,30,282,34,01,14,210,*45
$GPRMC,071814.000,A,4404.1309,N,12118.8485,W,0.08,0.00,111111,,,A*7A
$GPGGA,071815.000,4404.1305,N,12118.8489,W,1,5,1.49,1135.4,M,-19.6,M,,*59
$GPGSA,A,3,23,13,32,31,20,,,,,,,,1.77,1.49,0.96*02
$GPGSV,2,1,07,20,73,203,42,23,57,298,39,32,54,148,43,48,37,196,45*7B
$GPGSV,2,2,07,31,34,050,31,13,30,282,34,01,14,210,*45
$GPRMC,071815.000,A,4404.1305,N,12118.8489,W,0.10,0.00,111111,,,A*72
$GPGGA,071816.000,4404.1305,N,12118.8490,W,1,5,1.49,1135.0,M,-19.6,M,,*56
$GPGSA,A,3,23,13,32,31,20,,,,,,,,1.77,1.49,0.96*02
$GPGSV,2,1,07,20,73,203,42,23,57,298,39,32,54,148,43,48,37,196,45*7B
$GPGSV,2,2,07,31,34,050,31,13,30,282,34,01,14,210,*45
$GPRMC,071816.000,A,4404.1305,N,12118.8490,W,0.11,0.00,111111,,,A*78
$GPGGA,071817.000,4404.1305,N,12118.8489,W,1,5,1.49,1134.5,M,-19.6,M,,*5B
$GPGSA,A,3,23,13,32,31,20,,,,,,,,1.77,1.49,0.96*02
$GPGSV,2,1,07,20,73,203,42,23,57,298,39,32,54,148,43,48,37,196,45*7B
$GPGSV,2,2,07,31,34,050,31,13,30,282,34,01,14,210,*45
$GPRMC,071817.000,A,4404.1305,N,12118.8489,W,0.11,0.00,111111,,,A*71
$GPGGA,071818.000,4404.1305,N,12118.8489,W,1,5,1.49,1134.3,M,-19.6,M,,*52
$GPGSA,A,3,23,13,32,31,20,,,,,,,,1.77,1.49,0.96*02
$GPGSV,2,1,07,20,73,203,42,23,57,298,39,32,54,148,43,48,37,196,45*7B
$GPGSV,2,2,07,31,34,050,31,13,30,282,34,01,14,210,*45
$GPRMC,071818.000,A,4404.1305,N,12118.8489,W,0.09,0.00,111111,,,A*77
$GPGGA,071819.000,4404.1303,N,12118.8492,W,1,5,1.49,1134.4,M,-19.6,M,,*58
$GPGSA,A,3,23,13,32,31,20,,,,,,,,1.77,1.49,0.96*02
$GPGSV,2,1,07,20,73,203,42,23,57,298,39,32,54,148,43,48,37,196,45*7B
$GPGSV,2,2,07,31,34,050,31,13,30,282,34,01,14,210,*45
$GPRMC,071819.000,A,4404.1303,N,12118.8492,W,0.07,0.00,111111,,,A*74
$GPGGA,071820.000,4404.1304,N,12118.8490,W,1,5,1.76,1134.7,M,-19.6,M,,*58
$GPGSA,A,3,23,13,32,31,20,,,,,,,,3.80,1.76,3.37*0C
$GPGSV,2,1,07,20,73,203,42,23,57,298,39,32,54,148,43,48,37,196,45*7B
$GPGSV,2,2,07,31,34,050,31,13,30,282,34,01,14,210,*45
$GPRMC,071820.000,A,4404.1304,N,12118.8490,W,0.05,0.00,111111,,,A*79
$GPGGA,071821.000,4404.1302,N,12118.8492,W,1,5,1.76,1135.0,M,-19.6,M,,*5B
$GPGSA,A,3,23,13,32,31,20,,,,,,,,3.80,1.76,3.36*0D
$GPGSV,2,1,07,20,73,203,42,23,57,298,39,32,54,148,43,48,37,196,45*7B
$GPGSV,2,2,07,31,34,050,31,13,30,282,34,01,14,210,*45
$GPRMC,071821.000,A,4404.1302,N,12118.8492,W,0.05,0.00,111111,,,A*7C
$GPGGA,071822.000,4404.1302,N,12118.8492,W,1,5,1.76,1135.0,M,-19.6,M,,*58
$GPGSA,A,3,23,13,32,31,20,,,,,,,,3.80,1.76,3.37*0C
$GPGSV,2,1,07,20,73,203,42,23,57,298,39,32,54,148,43,48,37,196,45*7B
$GPGSV,2,2,07,31,34,050,31,13,30,282,34,01,14,210,*45
$GPRMC,071822.000,A,4404.1302,N,12118.8492,W,0.04,0.00,111111,,,A*7E
$GPGGA,071823.000,4404.1302,N,12118.8492,W,1,5,1.76,1135.0,M,-19.6,M,,*59
$GPGSA,A,3,23,13,32,31,20,,,,,,,,3.80,1.76,3.36*0D
$GPGSV,2,1,07,20,73,203,42,23,57,298,39,32,54,148,43,48,37,196,45*7B
$GPGSV,2,2,07,31,34,050,31,13,30,282,34,01,14,210,*45
$GPRMC,071823.000,A,4404.1302,N,12118.8492,W,0.04,0.00,111111,,,A*7F
$GPGGA,071824.000,4404.1302,N,12118.8492,W,1,5,1.76,1135.0,M,-19.6,M,,*5E
$GPGSA,A,3,23,13,32,31,20,,,,,,,,3.80,1.76,3.36*0D
$GPGSV,2,1,07,20,73,203,42,23,57,298,39,32,54,148,43,48,37,196,45*7B
$GPGSV,2,2,07,31,34,050,30,13,30,282,34,01,14,210,*44
$GPRMC,071824.000,A,4404.1302,N,12118.8492,W,0.03,0.00,111111,,,A*7F
$GPGGA,071825.000,4404.1302,N,12118.8492,W,1,5,1.76,1135.0,M,-19.6,M,,*5F
$GPGSA,A,3,23,13,32,31,20,,,,,,,,3.80,1.76,3.37*0C
$GPGSV,2,1,07,20,73,203,42,23,57,298,39,32,54,148,43,48,37,196,45*7B
$GPGSV,2,2,07,31,34,050,30,13,30,282,34,01,14,210,*44
$GPRMC,071825.000,A,4404.1302,N,12118.8492,W,0.03,0.00,111111,,,A*7E
$GPGGA,071826.000,4404.1302,N,12118.8492,W,1,5,1.76,1135.0,M,-19.6,M,,*5C
$GPGSA,A,3,23,13,32,31,20,,,,,,,,3.80,1.76,3.37*0C
$GPGSV,2,1,07,20,73,203,42,23,57,298,39,32,54,148,43,48,37,196,45*7B
$GPGSV,2,2,07,31,34,050,30,13,30,282,34,01,14,210,*44
$GPRMC,071826.000,A,4404.1302,N,12118.8492,W,0.04,0.00,111111,,,A*7A
$GPGGA,071827.000,4404.1302,N,12118.8492,W,1,5,1.76,1135.0,M,-19.6,M,,*5D
$GPGSA,A,3,23,13,32,31,20,,,,,,,,3.80,1.76,3.37*0C
$GPGSV,2,1,07,20,73,203,42,23,57,298,39,32,54,148,43,48,37,196,45*7B
$GPGSV,2,2,07,31,34,050,30,13,30,282,34,01,14,210,*44
$GPRMC,071827.000,A,4404.1302,N,12118.8492,W,0.05,0.00,111111,,,A*7A
$GPGGA,071828.000,4404.1302,N,12118.8492,W,1,5,1.76,1135.0,M,-19.6,M,,*52
$GPGSA,A,3,23,13,32,31,20,,,,,,,,3.80,1.76,3.36*0D
$GPGSV,2,1,07,20,73,203,42,23,57,298,39,32,54,148,43,48,37,196,45*7B
$GPGSV,2,2,07,31,34,050,29,13,30,282,34,01,14,210,*4C
$GPRMC,071828.000,A,4404.1302,N,12118.8492,W,0.03,0.00,111111,,,A*73
$GPGGA,071829.000,4404.1302,N,12118.8492,W,1,6,1.76,1135.0,M,-19.6,M,,*50
$GPGSA,A,3,23,13,32,31,20,01,,,,,,,3.80,1.76,3.37*0D
$GPGSV,2,1,07,20,73,203,42,23,57,298,39,32,54,148,43,48,37,196,45*7B
$GPGSV,2,2,07,31,34,050,29,13,30,282,34,01,14,210,28*46
$GPRMC,071829.000,A,4404.1302,N,12118.8492,W,0.04,0.00,111111,,,A*75
$GPGGA,071830.000,4404.1302,N,12118.8492,W,1,6,1.76,1135.0,M,-19.6,M,,*58
$GPGSA,A,3,23,13,32,31,20,01,,,,,,,3.80,1.76,3.37*0D
$GPGSV,2,1,07,20,73,203,42,23,57,298,39,32,54,148,44,48,37,196,45*7C
$GPGSV,2,2,07,31,34,050,29,13,30,282,35,01,14,210,28*47
$GPRMC,071830.000,A,4404.1302,N,12118.8492,W,0.06,0.00,111111,,,A*7F
$GPGGA,071831.000,4404.1302,N,12118.8492,W,1,6,1.76,1135.0,M,-19.6,M,,*59
$GPGSA,A,3,23,13,32,31,20,01,,,,,,,3.80,1.76,3.37*0D
$GPGSV,2,1,07,20,73,203,42,23,57,298,39,32,54,148,44,48,37,196,45*7C
$GPGSV,2,2,07,31,34,050,30,13,30,282,35,01,14,210,29*4E
$GPRMC,071831.000,A,4404.1302,N,12118.8492,W,0.05,0.00,111111,,,A*7D
$GPGGA,071832.000,4404.1302,N,12118.8492,W,1,6,1.76,1135.0,M,-19.6,M,,*5A
$GPGSA,A,3,23,13,32,31,20,01,,,,,,,3.80,1.76,3.37*0D
$GPGSV,2,1,07,20,73,202,42,23,57,298,39,32,54,148,44,48,37,196,45*7D
$GPGSV,2,2,07,31,34,050,30,13,30,282,35,01,14,210,28*4F
$GPRMC,071832.000,A,4404.1302,N,12118.8492,W,0.04,0.00,111111,,,A*7F
$GPGGA,071833.000,4404.1302,N,12118.8492,W,1,6,1.76,1135.0,M,-19.6,M,,*5B
$GPGSA,A,3,23,13,32,31,20,01,,,,,,,3.80,1.76,3.37*0D
$GPGSV,2,1,07,20,73,202,42,23,57,298,39,32,54,148,44,48,37,196,45*7D
$GPGSV,2,2,07,31,34,050,30,13,30,282,35,01,14,210,28*4F
$GPRMC,071833.000,A,4404.1302,N,12118.8492,W,0.03,0.00,111111,,,A*79
$GPGGA,071834.000,4404.1302,N,12118.8492,W,1,6,1.76,1135.0,M,-19.6,M,,*5C
$GPGSA,A,3,23,13,32,31,20,01,,,,,,,3.80,1.76,3.37*0D
$GPGSV,2,1,07,20,73,202,42,23,57,298,39,32,54,148,44,48,37,196,45*7D
$GPGSV,2,2,07,31,34,050,29,13,30,282,35,01,14,210,28*47
$GPRMC,071834.000,A,4404.1302,N,12118.8492,W,0.02,0.00,111111,,,A*7F
$GPGGA,071835.000,4404.1302,N,12118.8492,W,1,6,1.76,1135.0,M,-19.6,M,,*5D
$GPGSA,A,3,23,13,32,31,20,01,,,,,,,3.80,1.76,3.37*0D
$GPGSV,2,1,07,20,73,202,42,23,57,298,39,32,54,148,44,48,37,196,45*7D
$GPGSV,2,2,07,31,34,050,29,13,30,282,36,01,14,210,28*44
$GPRMC,071835.000,A,4404.1302,N,12118.8492,W,0.05,0.00,111111,,,A*79
$GPGGA,071836.000,4404.1302,N,12118.8492,W,1,5,6.23,1135.0,M,-19.6,M,,*5A
$GPGSA,A,3,23,13,32,20,01,,,,,,,,7.75,6.23,4.60*03
$GPGSV,2,1,07,20,73,202,42,23,57,298,39,32,54,148,44,48,37,196,45*7D
$GPGSV,2,2,07,31,34,050,27,13,30,282,36,01,14,210,27*45
$GPRMC,071836.000,A,4404.1302,N,12118.8492,W,0.03,0.00,111111,,,A*7C
$GPGGA,071837.000,4404.1302,N,12118.8492,W,1,6,1.76,1135.0,M,-19.6,M,,*5F
$GPGSA,A,3,23,13,32,31,20,01,,,,,,,3.80,1.76,3.37*0D
$GPGSV,2,1,07,20,73,202,42,23,57,298,39,32,54,148,44,48,37,196,45*7D
$GPGSV,2,2,07,31,34,050,27,13,30,282,36,01,14,210,26*44
$GPRMC,071837.000,A,4404.1302,N,12118.8492,W,0.02,0.00,111111,,,A*7C
$GPGGA,071838.000,4404.1302,N,12118.8492,W,1,6,1.76,1135.0,M,-19.6,M,,*50
$GPGSA,A,3,23,13,32,31,20,01,,,,,,,3.80,1.76,3.37*0D
$GPGSV,2,1,07,20,73,202,42,23,57,298,39,32,54,148,44,48,37,196,45*7D
$GPGSV,2,2,07,31,34,050,27,13,30,282,36,01,14,210,26*44
$GPRMC,071838.000,A,4404.1302,N,12118.8492,W,0.02,0.00,111111,,,A*73
$GPGGA,071839.000,4404.1302,N,12118.8492,W,1,6,1.76,1135.0,M,-19.6,M,,*51
$GPGSA,A,3,23,13,32,31,20,01,,,,,,,3.80,1.76,3.37*0D
$GPGSV,2,1,07,20,73,202,42,23,57,298,39,32,54,148,44,48,37,196,44*7C
$GPGSV,2,2,07,31,34,050,27,13,30,282,36,01,14,210,26*44
$GPRMC,071839.000,A,4404.1302,N,12118.8492,W,0.03,0.00,111111,,,A*73
$GPGGA,071840.000,4404.1302,N,12118.8492,W,1,6,1.75,1135.0,M,-19.6,M,,*5C
$GPGSA,A,3,23,13,32,31,20,01,,,,,,,3.80,1.75,3.37*0E
$GPGSV,2,1,07,20,73,202,42,23,57,298,39,32,54,148,44,48,37,196,44*7C
$GPGSV,2,2,07,31,34,050,27,13,30,282,36,01,14,210,26*44
$GPRMC,071840.000,A,4404.1302,N,12118.8492,W,0.03,0.00,111111,,,A*7D
$GPGGA,071841.000,4404.1302,N,12118.8492,W,1,5,6.22,1135.0,M,-19.6,M,,*5B
$GPGSA,A,3,23,13,32,20,01,,,,,,,,7.74,6.22,4.60*03
$GPGSV,2,1,07,20,73,202,42,23,57,298,39,32,54,148,44,48,37,196,44*7C
$GPGSV,2,2,07,31,34,050,26,13,30,282,36,01,14,210,26*45
$GPRMC,071841.000,A,4404.1302,N,12118.8492,W,0.02,0.00,111111,,,A*7D
$GPGGA,071842.000,4404.1302,N,12118.8492,W,1,6,1.75,1135.0,M,-19.6,M,,*5E
$GPGSA,A,3,23,13,32,31,20,01,,,,,,,3.80,1.75,3.37*0E
$GPGSV,2,1,07,20,73,202,42,23,57,298,39,32,54,148,44,48,37,196,44*7C
$GPGSV,2,2,07,31,34,050,26,13,30,282,36,01,14,210,26*45
$GPRMC,071842.000,A,4404.1302,N,12118.8492,W,0.03,0.00,111111,,,A*7F
$GPGGA,071843.000,4404.1302,N,12118.8492,W,1,5,6.22,1135.0,M,-19.6,M,,*59
$GPGSA,A,3,23,13,32,20,01,,,,,,,,7.73,6.22,4.59*0E
$GPGSV,2,1,07,20,73,202,42,23,57,298,39,32,54,148,44,48,37,196,44*7C
$GPGSV,2,2,07,31,34,050,25,13,30,282,35,01,14,210,25*46
$GPRMC,071843.000,A,4404.1302,N,12118.8492,W,0.03,0.00,111111,,,A*7E
$GPGGA,071844.000,4404.1302,N,12118.8492,W,1,6,1.75,1135.0,M,-19.6,M,,*58
$GPGSA,A,3,23,13,32,31,20,01,,,,,,,3.80,1.75,3.37*0E
$GPGSV,2,1,07,20,73,202,42,23,57,298,39,32,54,148,44,48,37,196,44*7C
$GPGSV,2,2,07,31,34,050,25,13,30,282,35,01,14,210,25*46
$GPRMC,071844.000,A,4404.1302,N,12118.8492,W,0.02,0.00,111111,,,A*78
$GPGGA,071845.000,4404.1302,N,12118.8492,W,1,5,6.22,1135.0,M,-19.6,M,,*5F
$GPGSA,A,3,23,13,32,20,01,,,,,,,,7.73,6.22,4.59*0E
$GPGSV,2,1,07,20,73,202,43,23,57,298,39,32,54,149,44,48,37,196,45*7D
$GPGSV,2,2,07,31,34,050,24,13,30,282,35,01,14,210,25*47
$GPRMC,071845.000,A,4404.1302,N,12118.8492,W,0.04,0.00,111111,,,A*7F
$GPGGA,071846.000,4404.1302,N,12118.8492,W,1,5,6.21,1135.0,M,-19.6,M,,*5F
$GPGSA,A,3,23,13,32,20,01,,,,,,,,7.73,6.21,4.59*0D
$GPGSV,2,1,07,20,73,202,43,23,57,298,40,32,54,149,44,48,37,196,45*73
$GPGSV,2,2,07,31,34,050,23,13,30,282,35,01,14,209,25*48
$GPRMC,071846.000,A,4404.1302,N,12118.8492,W,0.04,0.00,111111,,,A*7C
$GPGGA,071847.000,4404.1302,N,12118.8492,W,1,5,6.21,1135.0,M,-19.6,M,,*5E
$GPGSA,A,3,23,13,32,20,01,,,,,,,,7.72,6.21,4.59*0C
$GPGSV,2,1,07,20,73,202,43,23,57,298,40,32,54,149,44,48,37,196,45*73
$GPGSV,2,2,07,31,34,050,23,13,30,282,35,01,14,209,26*4B
$GPRMC,071847.000,A,4404.1302,N,12118.8492,W,0.02,0.00,111111,,,A*7B
$GPGGA,071848.000,4404.1302,N,12118.8492,W,1,5,6.21,1135.0,M,-19.6,M,,*51
$GPGSA,A,3,23,13,32,20,01,,,,,,,,7.72,6.21,4.59*0C
$GPGSV,2,1,07,20,73,202,41,23,57,298,39,32,54,149,43,48,37,196,45*78
$GPGSV,2,2,07,31,34,050,23,13,30,282,34,01,14,209,26*4A
$GPRMC,071848.000,A,4404.1302,N,12118.8492,W,0.03,0.00,111111,,,A*75
$GPGGA,071849.000,4404.1302,N,12118.8492,W,1,5,6.21,1135.0,M,-19.6,M,,*50
$GPGSA,A,3,23,13,32,20,01,,,,,,,,7.72,6.21,4.59*0C
$GPGSV,2,1,07,20,73,202,41,23,57,298,39,32,54,149,43,48,37,196,45*78
$GPGSV,2,2,07,31,34,050,23,13,30,282,34,01,14,209,26*4A
$GPRMC,071849.000,A,4404.1302,N,12118.8492,W,0.03,0.00,111111,,,A*74
$GPGGA,071850.000,4404.1302,N,12118.8492,W,1,5,4.17,1135.0,M,-19.6,M,,*5F
$GPGSA,A,3,23,13,32,20,01,,,,,,,,6.20,4.17,4.59*0D
$GPGSV,2,1,07,20,73,202,41,23,57,298,39,32,54,149,43,48,37,196,45*78
$GPGSV,2,2,07,31,34,050,22,13,30,282,34,01,14,209,27*4A
$GPRMC,071850.000,A,4404.1302,N,12118.8492,W,0.05,0.00,111111,,,A*7A
$GPGGA,071851.000,4404.1301,N,12118.8492,W,1,5,4.17,1135.0,M,-19.6,M,,*5D
$GPGSA,A,3,23,13,32,20,01,,,,,,,,6.20,4.17,4.59*0D
$GPGSV,2,1,07,20,73,202,41,23,57,298,39,32,54,149,43,48,37,196,45*78
$GPGSV,2,2,07,31,34,050,20,13,30,282,34,01,14,209,27*48
$GPRMC,071851.000,A,4404.1301,N,12118.8492,W,0.06,0.00,111111,,,A*7B
$GPGGA,071852.000,4404.1301,N,12118.8492,W,1,5,4.17,1135.0,M,-19.6,M,,*5E
$GPGSA,A,3,23,13,32,20,01,,,,,,,,6.20,4.17,4.59*0D
$GPGSV,2,1,07,20,73,202,40,23,57,298,39,32,54,149,43,48,37,196,44*78
$GPGSV,2,2,07,31,34,050,19,13,30,282,34,01,14,209,27*42
$GPRMC,071852.000,A,4404.1301,N,12118.8492,W,0.07,0.00,111111,,,A*79
$GPGGA,071853.000,4404.1301,N,12118.8492,W,1,5,4.17,1135.0,M,-19.6,M,,*5F
$GPGSA,A,3,23,13,32,20,01,,,,,,,,6.20,4.17,4.59*0D
$GPGSV,2,1,07,20,73,202,40,23,57,298,39,32,54,149,43,48,37,196,44*78
$GPGSV,2,2,07,31,34,050,19,13,30,282,34,01,14,209,27*42
$GPRMC,071853.000,A,4404.1301,N,12118.8492,W,0.08,0.00,111111,,,A*77
$GPGGA,071854.000,4404.1301,N,12118.8493,W,1,5,4.17,1135.0,M,-19.6,M,,*59
$GPGSA,A,3,23,13,32,20,01,,,,,,,,6.19,4.17,4.58*06
$GPGSV,2,1,07,20,73,202,40,23,57,298,39,32,54,149,43,48,37,196,44*78
$GPGSV,2,2,07,31,34,050,18,13,30,282,34,01,14,209,27*43
$GPRMC,071854.000,A,4404.1301,N,12118.8493,W,0.08,0.00,111111,,,A*71
$GPGGA,071855.000,4404.1301,N,12118.8493,W,1,5,4.17,1135.0,M,-19.6,M,,*58
$GPGSA,A,3,23,13,32,20,01,,,,,,,,6.20,4.17,4.59*0D
$GPGSV,2,1,07,20,73,202,40,23,57,298,39,32,54,149,43,48,37,196,44*78
$GPGSV,2,2,07,31,34,050,18,13,30,282,34,01,14,209,27*43
$GPRMC,071855.000,A,4404.1301,N,12118.8493,W,0.11,0.00,111111,,,A*78
$GPGGA,071856.000,4404.1300,N,12118.8493,W,1,5,4.17,1135.0,M,-19.6,M,,*5A
$GPGSA,A,3,23,13,32,20,01,,,,,,,,6.20,4.17,4.58*0C
$GPGSV,2,1,07,20,73,202,39,23,57,298,38,32,54,149,42,48,37,196,43*71
$GPGSV,2,2,07,31,34,050,18,13,30,282,33,01,14,209,26*45
$GPRMC,071856.000,A,4404.1300,N,12118.8493,W,0.11,0.00,111111,,,A*7A
$GPGGA,071857.000,4404.1300,N,12118.8493,W,1,5,4.17,1135.1,M,-19.6,M,,*5A
$GPGSA,A,3,23,13,32,20,01,,,,,,,,6.19,4.17,4.58*06
$GPGSV,2,1,07,20,73,202,39,23,57,298,38,32,54,149,43,48,37,196,44*77
$GPGSV,2,2,07,31,34,050,17,13,30,282,34,01,14,209,26*4D
$GPRMC,071857.000,A,4404.1300,N,12118.8493,W,0.12,0.00,111111,,,A*78
$GPGGA,071858.000,4404.1300,N,12118.8493,W,1,5,4.17,1135.1,M,-19.6,M,,*55
$GPGSA,A,3,23,13,32,20,01,,,,,,,,6.19,4.17,4.58*06
$GPGSV,2,1,07,20,73,202,40,23,57,298,38,32,54,149,43,48,37,196,44*79
$GPGSV,2,2,07,31,34,050,17,13,30,282,34,01,14,209,26*4D
$GPRMC,071858.000,A,4404.1300,N,12118.8493,W,0.14,0.00,111111,,,A*71
$GPGGA,071859.000,4404.1299,N,12118.8493,W,1,5,4.17,1135.1,M,-19.6,M,,*55
$GPGSA,A,3,23,13,32,20,01,,,,,,,,6.20,4.17,4.58*0C
$GPGSV,2,1,07,20,73,202,40,23,57,298,38,32,54,149,43,48,37,196,44*79
$GPGSV,2,2,07,31,34,050,16,13,30,283,34,01,14,209,26*4D
$GPRMC,071859.000,A,4404.1299,N,12118.8493,W,0.15,0.00,111111,,,A*70
$GPGGA,071900.000,4404.1299,N,12118.8494,W,1,5,4.17,1135.1,M,-19.6,M,,*5F
$GPGSA,A,3,23,13,32,20,01,,,,,,,,6.19,4.17,4.58*06
$GPGSV,2,1,07,20,73,202,39,23,57,298,37,32,54,149,42,48,37,196,43*7E
$GPGSV,2,2,07,31,34,050,16,13,30,283,33,01,14,209,25*49
$GPRMC,071900.000,A,4404.1299,N,12118.8494,W,0.14,0.00,111111,,,A*7B
$GPGGA,071901.000,4404.1299,N,12118.8494,W,1,5,4.17,1135.1,M,-19.6,M,,*5E
$GPGSA,A,3,23,13,32,20,01,,,,,,,,6.20,4.17,4.58*0C
$GPGSV,2,1,07,20,73,202,39,23,57,298,37,32,54,149,42,48,37,196,44*79
$GPGSV,2,2,07,31,34,050,15,13,30,283,34,01,14,209,26*4E
$GPRMC,071901.000,A,4404.1299,N,12118.8494,W,0.14,0.00,111111,,,A*7A
$GPGGA,071902.000,4404.1298,N,12118.8494,W,1,5,4.17,1135.1,M,-19.6,M,,*5C
$GPGSA,A,3,23,13,32,20,01,,,,,,,,6.19,4.17,4.58*06
$GPGSV,2,1,07,20,73,202,40,23,57,298,37,32,54,149,43,48,37,196,44*76
$GPGSV,2,2,07,31,34,050,23,13,30,283,34,01,14,209,26*4B
$GPRMC,071902.000,A,4404.1298,N,12118.8494,W,0.15,0.00,111111,,,A*79
$GPGGA,071903.000,4404.1298,N,12118.8495,W,1,5,4.17,1135.1,M,-19.6,M,,*5C
$GPGSA,A,3,23,13,32,20,01,,,,,,,,6.19,4.17,4.58*06
$GPGSV,2,1,07,20,73,202,40,23,57,298,38,32,54,149,43,48,37,196,44*79
$GPGSV,2,2,07,31,34,050,23,13,30,283,35,01,14,209,26*4A
$GPRMC,071903.000,A,4404.1298,N,12118.8495,W,0.16,0.00,111111,,,A*7A
$GPGGA,071904.000,4404.1298,N,12118.8495,W,1,5,4.17,1135.1,M,-19.6,M,,*5B
$GPGSA,A,3,23,13,32,20,01,,,,,,,,6.19,4.17,4.58*06
$GPGSV,2,1,07,20,73,202,40,23,57,298,38,32,54,149,43,48,37,196,44*79
$GPGSV,2,2,07,31,34,050,22,13,30,283,35,01,14,209,26*4B
$GPRMC,071904.000,A,4404.1298,N,12118.8495,W,0.16,0.00,111111,,,A*7D
$GPGGA,071905.000,4404.1297,N,12118.8495,W,1,5,4.17,1135.2,M,-19.6,M,,*56
$GPGSA,A,3,23,13,32,20,01,,,,,,,,6.19,4.17,4.58*06
$GPGSV,2,1,07,20,73,202,40,23,57,298,38,32,54,149,43,48,37,196,44*79
$GPGSV,2,2,07,31,34,050,20,13,30,283,35,01,14,209,26*49
$GPRMC,071905.000,A,4404.1297,N,12118.8495,W,0.15,0.00,111111,,,A*70
$GPGGA,071906.000,4404.1297,N,12118.8496,W,1,5,4.17,1135.2,M,-19.6,M,,*56
$GPGSA,A,3,23,13,32,20,01,,,,,,,,6.19,4.17,4.58*06
$GPGSV,2,1,07,20,73,202,40,23,57,298,38,32,54,149,43,48,37,196,44*79
$GPGSV,2,2,07,31,34,050,19,13,30,283,35,01,14,209,25*40
$GPRMC,071906.000,A,4404.1297,N,12118.8496,W,0.14,0.00,111111,,,A*71
$GPGGA,071907.000,4404.1297,N,12118.8496,W,1,5,4.17,1135.2,M,-19.6,M,,*57
$GPGSA,A,3,23,13,32,20,01,,,,,,,,6.19,4.17,4.58*06
$GPGSV,2,1,07,20,73,202,40,23,57,298,38,32,54,149,43,48,37,196,44*79
$GPGSV,2,2,07,31,34,050,18,13,30,283,35,01,14,209,25*41
$GPRMC,071907.000,A,4404.1297,N,12118.8496,W,0.17,0.00,111111,,,A*73
$GPGGA,071908.000,4404.1296,N,12118.8496,W,1,5,4.17,1135.2,M,-19.6,M,,*59
$GPGSA,A,3,23,13,32,20,01,,,,,,,,6.19,4.17,4.58*06
$GPGSV,2,1,07,20,73,202,40,23,57,298,38,32,54,149,43,48,37,196,44*79
$GPGSV,2,2,07,31,34,050,18,13,30,283,35,01,14,209,25*41
$GPRMC,071908.000,A,4404.1296,N,12118.8496,W,0.12,0.00,111111,,,A*78
$GPGGA,071909.000,4404.1296,N,12118.8496,W,1,5,4.16,1135.2,M,-19.6,M,,*59
$GPGSA,A,3,23,13,32,20,01,,,,,,,,6.19,4.16,4.58*07
$GPGSV,2,1,08,20,73,202,40,23,57,298,38,32,54,149,43,48,37,196,44*76
$GPGSV,2,2,08,31,34,050,19,13,30,283,35,01,14,209,25,16,,,28*42
$GPRMC,071909.000,A,4404.1296,N,12118.8496,W,0.12,0.00,111111,,,A*79
$GPGGA,071910.000,4404.1296,N,12118.8497,W,1,5,4.17,1135.2,M,-19.6,M,,*51
$GPGSA,A,3,23,13,32,20,01,,,,,,,,6.19,4.17,4.58*06
$GPGSV,2,1,08,20,73,202,40,23,57,298,38,32,54,149,43,48,37,196,44*76
$GPGSV,2,2,08,31,34,050,20,13,30,283,35,01,14,209,24,16,,,31*41
$GPRMC,071910.000,A,4404.1296,N,12118.8497,W,0.10,0.00,111111,,,A*72
$GPGGA,071911.000,4404.1295,N,12118.8497,W,1,5,4.17,1135.3,M,-19.6,M,,*52
$GPGSA,A,3,23,13,32,20,01,,,,,,,,6.19,4.17,4.58*06
$GPGSV,2,1,08,20,73,202,40,23,57,298,38,32,54,149,43,48,37,196,44*76
$GPGSV,2,2,08,31,34,050,20,13,30,283,35,01,14,209,24,16,,,32*42
$GPRMC,071911.000,A,4404.1295,N,12118.8497,W,0.11,0.00,111111,,,A*71
$GPGGA,071912.000,4404.1295,N,12118.8497,W,1,5,4.17,1135.3,M,-19.6,M,,*51
$GPGSA,A,3,23,13,32,20,01,,,,,,,,6.19,4.17,4.57*09
$GPGSV,2,1,08,20,73,202,40,23,57,298,38,32,54,149,43,48,37,196,44*76
$GPGSV,2,2,08,31,34,050,19,13,30,283,35,01,14,209,24,16,,,32*48
$GPRMC,071912.000,A,4404.1295,N,12118.8497,W,0.08,0.00,111111,,,A*7A
$GPGGA,071913.000,4404.1295,N,12118.8497,W,1,5,4.17,1135.3,M,-19.6,M,,*50
$GPGSA,A,3,23,13,32,20,01,,,,,,,,6.19,4.17,4.58*06
$GPGSV,2,1,08,20,73,202,40,23,57,298,38,32,54,149,43,48,37,196,44*76
$GPGSV,2,2,08,31,34,050,18,13,30,283,35,01,14,209,24,16,,,32*49
$GPRMC,071913.000,A,4404.1295,N,12118.8497,W,0.07,0.00,111111,,,A*74
$GPGGA,071914.000,4404.1295,N,12118.8497,W,1,5,4.17,1135.3,M,-19.6,M,,*57
$GPGSA,A,3,23,13,32,20,01,,,,,,,,6.19,4.17,4.57*09
$GPGSV,2,1,08,20,73,202,40,23,57,298,38,32,54,149,43,48,37,196,44*76
$GPGSV,2,2,08,31,34,050,18,13,30,283,35,01,14,209,24,16,,,32*49
$GPRMC,071914.000,A,4404.1295,N,12118.8497,W,0.09,0.00,111111,,,A*7D
$GPGGA,071915.000,4404.1295,N,12118.8497,W,1,5,4.17,1135.4,M,-19.6,M,,*51
$GPGSA,A,3,23,13,32,20,01,,,,,,,,6.19,4.17,4.57*09
$GPGSV,2,1,08,20,73,202,40,23,57,298,38,32,54,149,43,48,37,196,44*76
$GPGSV,2,2,08,31,34,050,18,13,30,283,35,01,14,209,24,16,,,32*49
$GPRMC,071915.000,A,4404.1295,N,12118.8497,W,0.09,0.00,111111,,,A*7C
$GPGGA,071916.000,4404.1295,N,12118.8498,W,2,5,4.16,1135.3,M,-19.6,M,0000,0000*58
$GPGSA,A,3,23,13,32,20,01,,,,,,,,6.18,4.16,4.57*09
$GPGSV,2,1,08,20,73,202,40,23,57,298,38,32,54,149,43,48,37,196,44*76
$GPGSV,2,2,08,31,34,050,18,13,30,283,35,01,14,209,24,16,,,32*49
$GPRMC,071916.000,A,4404.1295,N,12118.8498,W,0.08,0.00,111111,,,D*74
$GPGGA,071917.000,4404.1295,N,12118.8498,W,2,5,4.16,1135.4,M,-19.6,M,0000,0000*5E
$GPGSA,A,3,23,13,32,20,01,,,,,,,,6.18,4.16,4.57*09
$GPGSV,3,1,09,20,73,202,40,23,57,298,38,32,54,149,43,48,37,196,44*76
$GPGSV,3,2,09,31,34,050,18,13,30,283,35,04,15,313,,01,14,209,23*79
$GPGSV,3,3,09,16,,,32*76
$GPRMC,071917.000,A,4404.1295,N,12118.8498,W,0.08,0.00,111111,,,D*75
$GPGGA,071918.000,4404.1294,N,12118.8498,W,2,5,4.16,1135.4,M,-19.6,M,0000,0000*50
$GPGSA,A,3,23,13,32,20,01,,,,,,,,6.18,4.16,4.57*09
$GPGSV,3,1,09,20,73,202,40,23,57,298,38,32,54,149,43,48,37,196,44*76
$GPGSV,3,2,09,31,34,050,18,13,30,283,35,04,15,313,,01,14,209,23*79
$GPGSV,3,3,09,16,,,32*76
$GPRMC,071918.000,A,4404.1294,N,12118.8498,W,0.09,0.00,111111,,,D*7A
$GPGGA,071919.000,4404.1293,N,12118.8498,W,2,5,4.16,1135.3,M,-19.6,M,0000,0000*51
$GPGSA,A,3,23,13,32,20,01,,,,,,,,6.18,4.16,4.57*09
$GPGSV,3,1,09,20,73,202,40,23,57,298,38,32,53,149,43,48,37,196,44*71
$GPGSV,3,2,09,31,34,050,18,13,30,283,35,04,15,313,,01,14,209,23*79
$GPGSV,3,3,09,16,,,32*76
$GPRMC,071919.000,A,4404.1293,N,12118.8498,W,0.09,0.00,111111,,,D*7C
$GPGGA,071920.000,4404.1293,N,12118.8499,W,2,5,4.16,1135.4,M,-19.6,M,0000,0000*5D
$GPGSA,A,3,23,13,32,20,01,,,,,,,,6.18,4.16,4.57*09
$GPGSV,3,1,09,20,73,202,40,23,57,298,38,32,53,149,43,48,37,196,44*71
$GPGSV,3,2,09,31,34,050,18,13,30,283,35,04,15,313,,01,14,209,23*79
$GPGSV,3,3,09,16,,,32*76
$GPRMC,071920.000,A,4404.1293,N,12118.8499,W,0.09,0.00,111111,,,D*77
$GPGGA,071921.000,4404.1294,N,12118.8499,W,2,5,4.16,1135.6,M,-19.6,M,0000,0000*59
$GPGSA,A,3,23,13,32,20,01,,,,,,,,6.18,4.16,4.57*09
$GPGSV,3,1,09,20,73,202,40,23,57,298,38,32,53,149,43,48,37,196,44*71
$GPGSV,3,2,09,31,34,050,18,13,30,283,35,04,15,313,,01,14,209,23*79
$GPGSV,3,3,09,16,,,32*76
$GPRMC,071921.000,A,4404.1294,N,12118.8499,W,0.09,0.00,111111,,,D*71
$GPGGA,071922.000,4404.1294,N,12118.8498,W,2,5,4.17,1135.8,M,-19.6,M,0000,0000*54
$GPGSA,A,3,23,13,32,20,01,,,,,,,,6.19,4.17,4.57*09
$GPGSV,3,1,09,20,73,202,40,23,57,298,38,32,53,149,43,48,37,196,44*71
$GPGSV,3,2,09,31,34,050,18,13,30,283,35,04,15,313,,01,14,209,23*79
$GPGSV,3,3,09,16,,,32*76
$GPRMC,071922.000,A,4404.1294,N,12118.8498,W,0.09,0.00,111111,,,D*73
$GPGGA,071923.000,4404.1294,N,12118.8498,W,2,5,4.17,1135.8,M,-19.6,M,0000,0000*55
$GPGSA,A,3,23,13,32,20,01,,,,,,,,6.18,4.17,4.57*08
$GPGSV,3,1,09,20,73,202,40,23,57,298,38,32,53,149,43,48,37,196,44*71
$GPGSV,3,2,09,31,34,050,19,13,30,283,35,04,15,313,,01,14,209,23*78
$GPGSV,3,3,09,16,,,32*76
$GPRMC,071923.000,A,4404.1294,N,12118.8498,W,0.09,0.00,111111,,,D*72
$GPGGA,071924.000,4404.1294,N,12118.8499,W,2,5,4.16,1136.0,M,-19.6,M,0000,0000*59
$GPGSA,A,3,23,13,32,20,01,,,,,,,,6.18,4.16,4.57*09
$GPGSV,3,1,09,20,73,202,40,23,57,298,38,32,53,149,43,48,37,196,44*71
$GPGSV,3,2,09,31,34,050,18,13,30,283,35,04,15,313,,01,14,209,23*79
$GPGSV,3,3,09,16,,,32*76
$GPRMC,071924.000,A,4404.1294,N,12118.8499,W,0.09,0.00,111111,,,D*74
$GPGGA,071925.000,4404.1295,N,12118.8499,W,2,5,4.16,1136.1,M,-19.6,M,0000,0000*58
$GPGSA,A,3,23,13,32,20,01,,,,,,,,6.18,4.16,4.57*09
$GPGSV,3,1,09,20,73,202,40,23,57,298,38,32,53,149,43,48,37,196,44*71
$GPGSV,3,2,09,31,34,050,18,13,30,283,35,04,15,313,,01,14,209,23*79
$GPGSV,3,3,09,16,,,32*76
$GPRMC,071925.000,A,4404.1295,N,12118.8499,W,0.09,0.00,111111,,,D*74
$GPGGA,071926.000,4404.1295,N,12118.8500,W,2,5,4.16,1136.2,M,-19.6,M,0000,0000*59
$GPGSA,A,3,23,13,32,20,01,,,,,,,,6.18,4.16,4.57*09
$GPGSV,3,1,09,20,73,202,40,23,57,298,38,32,53,149,43,48,37,196,44*71
$GPGSV,3,2,09,31,34,050,18,13,30,283,35,04,15,313,,01,14,209,22*78
$GPGSV,3,3,09,16,,,32*76
$GPRMC,071926.000,A,4404.1295,N,12118.8500,W,0.09,0.00,111111,,,D*76
$GPGGA,071927.000,4404.1295,N,12118.8499,W,2,5,4.17,1136.3,M,-19.6,M,0000,0000*59
$GPGSA,A,3,23,13,32,20,01,,,,,,,,6.18,4.17,4.57*08
$GPGSV,3,1,09,20,73,202,40,23,57,298,38,32,53,149,43,48,37,196,44*71
$GPGSV,3,2,09,31,34,050,18,13,30,283,35,04,15,313,,01,14,209,22*78
$GPGSV,3,3,09,16,,,32*76
$GPRMC,071927.000,A,4404.1295,N,12118.8499,W,0.07,0.00,111111,,,D*78
$GPGGA,071928.000,4404.1296,N,12118.8498,W,2,5,4.17,1136.3,M,-19.6,M,0000,0000*54
$GPGSA,A,3,23,13,32,20,01,,,,,,,,6.18,4.17,4.57*08
$GPGSV,3,1,09,20,73,202,40,23,57,298,39,32,53,149,43,48,37,196,44*70
$GPGSV,3,2,09,31,34,050,18,13,30,283,35,04,15,313,,01,14,209,22*78
$GPGSV,3,3,09,16,,,32*76
$GPRMC,071928.000,A,4404.1296,N,12118.8498,W,0.05,0.00,111111,,,D*77
$GPGGA,071929.000,4404.1296,N,12118.8497,W,2,5,4.16,1136.3,M,-19.6,M,0000,0000*5B
$GPGSA,A,3,23,13,32,20,01,,,,,,,,6.18,4.16,4.57*09
$GPGSV,3,1,09,20,73,202,40,23,57,298,39,32,53,149,43,48,37,196,44*70
$GPGSV,3,2,09,31,34,050,19,13,30,283,35,04,15,313,,01,14,209,22*79
$GPGSV,3,3,09,16,,,32*76
$GPRMC,071929.000,A,4404.1296,N,12118.8497,W,0.03,0.00,111111,,,D*7F
$GPGGA,071930.000,4404.1296,N,12118.8498,W,2,5,4.16,1136.2,M,-19.6,M,0000,0000*5D
$GPGSA,A,3,23,13,32,20,01,,,,,,,,6.18,4.16,4.57*09
$GPGSV,3,1,09,20,73,202,40,23,57,298,39,32,53,149,43,48,37,196,44*70
$GPGSV,3,2,09,31,34,050,19,13,30,283,35,04,15,313,,01,14,209,23*78
$GPGSV,3,3,09,16,,,32*76
$GPRMC,071930.000,A,4404.1296,N,12118.8498,W,0.02,0.00,111111,,,D*79
$GPGGA,071931.000,4404.1295,N,12118.8498,W,2,5,4.16,1136.2,M,-19.6,M,0000,0000*5F
$GPGSA,A,3,23,13,32,20,01,,,,,,,,6.17,4.16,4.56*07
$GPGSV,3,1,09,20,73,202,40,23,57,298,39,32,53,149,43,48,37,196,44*70
$GPGSV,3,2,09,31,34,050,20,13,30,283,35,04,15,313,,01,14,209,23*72
$GPGSV,3,3,09,16,,,32*76
$GPRMC,071931.000,A,4404.1295,N,12118.8498,W,0.01,0.00,111111,,,D*78
$GPGGA,071932.000,4404.1295,N,12118.8497,W,2,5,4.16,1136.2,M,-19.6,M,0000,0000*53
$GPGSA,A,3,23,13,32,20,01,,,,,,,,6.17,4.16,4.56*07
$GPGSV,3,1,09,20,73,202,40,23,57,298,39,32,53,149,43,48,37,196,44*70
$GPGSV,3,2,09,31,34,050,20,13,31,283,35,04,15,313,,01,14,209,23*73
$GPGSV,3,3,09,16,,,32*76
$GPRMC,071932.000,A,4404.1295,N,12118.8497,W,0.01,0.00,111111,,,D*74
$GPGGA,071933.000,4404.1292,N,12118.8498,W,2,5,4.16,1135.9,M,-19.6,M,0000,0000*52
$GPGSA,A,3,23,13,32,20,01,,,,,,,,6.18,4.16,4.56*08
$GPGSV,3,1,09,20,73,202,40,23,57,298,39,32,53,149,43,48,37,196,44*70
$GPGSV,3,2,09,31,34,050,20,13,31,283,35,04,15,313,,01,14,209,23*73
$GPGSV,3,3,09,16,,,32*76
$GPRMC,071933.000,A,4404.1292,N,12118.8498,W,0.01,0.00,111111,,,D*7D
$GPGGA,071934.000,4404.1293,N,12118.8498,W,2,5,4.16,1135.6,M,-19.6,M,0000,0000*5B
$GPGSA,A,3,23,13,32,20,01,,,,,,,,6.18,4.16,4.56*08
$GPGSV,3,1,09,20,73,202,40,23,57,298,39,32,53,149,43,48,37,196,44*70
$GPGSV,3,2,09,31,34,050,20,13,31,283,35,04,15,313,,01,14,209,22*72
$GPGSV,3,3,09,16,,,32*76
$GPRMC,071934.000,A,4404.1293,N,12118.8498,W,0.01,0.00,111111,,,D*7B
$GPGGA,071935.000,4404.1294,N,12118.8500,W,2,6,2.29,1135.7,M,-19.6,M,0000,0000*55
$GPGSA,A,3,23,13,32,20,01,16,,,,,,,3.43,2.29,2.55*0B
$GPGSV,3,1,09,20,73,202,40,23,57,298,39,32,53,149,43,48,37,196,44*70
$GPGSV,3,2,09,31,34,050,21,16,31,139,32,13,31,283,35,04,15,313,*73
$GPGSV,3,3,09,01,14,209,22*4F
$GPRMC,071935.000,A,4404.1294,N,12118.8500,W,0.01,0.00,111111,,,D*7D
$GPGGA,071936.000,4404.1294,N,12118.8499,W,2,6,2.29,1135.9,M,-19.6,M,0000,0000*59
$GPGSA,A,3,23,13,32,20,01,16,,,,,,,3.43,2.29,2.55*0B
$GPGSV,3,1,09,20,73,202,40,23,57,298,39,32,53,149,43,48,37,196,44*70
$GPGSV,3,2,09,31,34,050,21,16,31,139,32,13,31,283,35,04,15,313,*73
$GPGSV,3,3,09,01,14,209,22*4F
$GPRMC,071936.000,A,4404.1294,N,12118.8499,W,0.01,0.00,111111,,,D*7F
$GPGGA,071937.000,4404.1294,N,12118.8499,W,2,6,2.29,1136.3,M,-19.6,M,0000,0000*51
$GPGSA,A,3,23,13,32,20,01,16,,,,,,,3.43,2.29,2.55*0B
$GPGSV,3,1,09,20,73,202,40,23,57,298,39,32,53,149,43,48,37,196,44*70
$GPGSV,3,2,09,31,34,050,21,16,31,139,32,13,31,283,35,04,15,313,*73
$GPGSV,3,3,09,01,14,209,22*4F
$GPRMC,071937.000,A,4404.1294,N,12118.8499,W,0.00,0.00,111111,,,D*7F
$GPGGA,071938.000,4404.1294,N,12118.8500,W,2,6,2.29,1136.6,M,-19.6,M,0000,0000*5A
$GPGSA,A,3,23,13,32,20,01,16,,,,,,,3.43,2.29,2.55*0B
$GPGSV,3,1,09,20,73,202,40,23,57,298,39,32,53,149,43,48,37,196,44*70
$GPGSV,3,2,09,31,34,050,22,16,31,139,32,13,31,283,35,04,15,313,*70
$GPGSV,3,3,09,01,14,209,22*4F
$GPRMC,071938.000,A,4404.1294,N,12118.8500,W,0.00,0.00,111111,,,D*71
$GPGGA,071939.000,4404.1297,N,12118.8499,W,2,6,2.29,1137.3,M,-19.6,M,0000,0000*5D
$GPGSA,A,3,23,13,32,20,01,16,,,,,,,3.43,2.29,2.55*0B
$GPGSV,3,1,09,20,73,202,40,23,57,298,39,32,53,149,43,48,37,196,45*71
$GPGSV,3,2,09,31,34,050,22,16,31,139,32,13,31,283,35,04,15,313,*70
$GPGSV,3,3,09,01,14,209,23*4E
$GPRMC,071939.000,A,4404.1297,N,12118.8499,W,0.01,0.00,111111,,,D*73
$GPGGA,071940.000,4404.1295,N,12118.8501,W,2,6,2.29,1137.2,M,-19.6,M,0000,0000*50
$GPGSA,A,3,23,13,32,20,01,16,,,,,,,3.43,2.29,2.55*0B
$GPGSV,3,1,09,20,73,201,40,23,57,298,39,32,53,149,43,48,37,196,45*72
$GPGSV,3,2,09,31,34,050,22,16,31,139,32,13,31,283,35,04,15,313,*70
$GPGSV,3,3,09,01,14,209,23*4E
$GPRMC,071940.000,A,4404.1295,N,12118.8501,W,0.01,0.00,111111,,,D*7F
$GPGGA,071941.000,4404.1295,N,12118.8503,W,2,6,2.29,1137.2,M,-19.6,M,0000,0000*53
$GPGSA,A,3,23,13,32,20,01,16,,,,,,,3.43,2.29,2.55*0B
$GPGSV,3,1,09,20,73,201,40,23,57,298,39,32,53,149,43,48,37,196,45*72
$GPGSV,3,2,09,31,34,050,22,16,31,139,32,13,31,283,35,04,15,313,*70
$GPGSV,3,3,09,01,14,209,23*4E
$GPRMC,071941.000,A,4404.1295,N,12118.8503,W,0.02,0.00,111111,,,D*7F
$GPGGA,071942.000,4404.1295,N,12118.8502,W,2,6,2.29,1137.2,M,-19.6,M,0000,0000*51
$GPGSA,A,3,23,13,32,20,01,16,,,,,,,3.43,2.29,2.55*0B
$GPGSV,3,1,09,20,73,201,40,23,57,298,39,32,53,149,43,48,37,196,45*72
$GPGSV,3,2,09,31,34,050,22,16,31,139,32,13,31,283,35,04,15,313,*70
$GPGSV,3,3,09,01,14,209,23*4E
$GPRMC,071942.000,A,4404.1295,N,12118.8502,W,0.02,0.00,111111,,,D*7D
$GPGGA,071943.000,4404.1294,N,12118.8502,W,2,6,2.29,1137.1,M,-19.6,M,0000,0000*52
$GPGSA,A,3,23,13,32,20,01,16,,,,,,,3.43,2.29,2.55*0B
$GPGSV,3,1,09,20,73,201,40,23,57,298,39,32,53,149,43,48,37,196,45*72
$GPGSV,3,2,09,31,34,050,22,16,31,139,32,13,31,283,35,04,15,313,*70
$GPGSV,3,3,09,01,14,209,23*4E
$GPRMC,071943.000,A,4404.1294,N,12118.8502,W,0.02,0.00,111111,,,D*7D
$GPGGA,071944.000,4404.1294,N,12118.8500,W,2,6,2.29,1137.3,M,-19.6,M,0000,0000*55
$GPGSA,A,3,23,13,32,20,01,16,,,,,,,3.43,2.29,2.55*0B
$GPGSV,3,1,09,20,73,201,40,23,57,299,39,32,53,149,43,48,37,196,45*73
$GPGSV,3,2,09,31,34,050,22,16,31,139,32,13,31,283,35,04,15,313,*70
$GPGSV,3,3,09,01,14,209,23*4E
$GPRMC,071944.000,A,4404.1294,N,12118.8500,W,0.03,0.00,111111,,,D*79
$GPGGA,071945.000,4404.1294,N,12118.8497,W,2,6,2.29,1137.0,M,-19.6,M,0000,0000*58
$GPGSA,A,3,23,13,32,20,01,16,,,,,,,3.43,2.29,2.55*0B
$GPGSV,3,1,09,20,73,201,40,23,57,299,39,32,53,149,43,48,37,196,45*73
$GPGSV,3,2,09,31,34,050,22,16,31,139,32,13,31,283,35,04,15,313,*70
$GPGSV,3,3,09,01,14,209,23*4E
$GPRMC,071945.000,A,4404.1294,N,12118.8497,W,0.03,0.00,111111,,,D*77
$GPGGA,071946.000,4404.1293,N,12118.8499,W,2,6,2.29,1137.0,M,-19.6,M,0000,0000*52
$GPGSA,A,3,23,13,32,20,01,16,,,,,,,3.43,2.29,2.55*0B
$GPGSV,3,1,09,20,73,201,40,23,57,299,39,32,53,149,43,48,37,196,45*73
$GPGSV,3,2,09,31,34,050,22,16,31,139,32,13,31,283,34,04,15,313,*71
$GPGSV,3,3,09,01,14,209,23*4E
$GPRMC,071946.000,A,4404.1293,N,12118.8499,W,0.03,0.00,111111,,,D*7D
$GPGGA,071947.000,4404.1294,N,12118.8501,W,2,6,2.29,1137.0,M,-19.6,M,0000,0000*54
$GPGSA,A,3,23,13,32,20,01,16,,,,,,,3.43,2.29,2.55*0B
$GPGSV,3,1,09,20,73,201,40,23,57,299,39,32,53,149,43,48,37,196,45*73
$GPGSV,3,2,09,31,34,050,22,16,31,139,32,13,31,283,34,04,15,313,*71
$GPGSV,3,3,09,01,14,209,23*4E
$GPRMC,071947.000,A,4404.1294,N,12118.8501,W,0.02,0.00,111111,,,D*7A
$GPGGA,071948.000,4404.1295,N,12118.8497,W,2,6,2.29,1136.6,M,-19.6,M,0000,0000*53
$GPGSA,A,3,23,13,32,20,01,16,,,,,,,3.43,2.29,2.55*0B
$GPGSV,3,1,09,20,73,201,40,23,57,299,39,32,53,149,43,48,37,196,45*73
$GPGSV,3,2,09,31,34,050,23,16,31,139,32,13,31,283,34,04,15,313,*70
$GPGSV,3,3,09,01,14,209,23*4E
$GPRMC,071948.000,A,4404.1295,N,12118.8497,W,0.02,0.00,111111,,,D*7A
$GPGGA,071949.000,4404.1296,N,12118.8499,W,2,6,2.29,1136.7,M,-19.6,M,0000,0000*5E
$GPGSA,A,3,23,13,32,20,01,16,,,,,,,3.43,2.29,2.55*0B
$GPGSV,3,1,09,20,73,201,40,23,57,299,39,32,53,149,43,48,37,196,45*73
$GPGSV,3,2,09,31,34,050,22,16,31,139,32,13,31,283,34,04,15,313,*71
$GPGSV,3,3,09,01,14,209,23*4E
$GPRMC,071949.000,A,4404.1296,N,12118.8499,W,0.01,0.00,111111,,,D*75
$GPGGA,071950.000,4404.1295,N,12118.8502,W,2,6,2.29,1137.2,M,-19.6,M,0000,0000*52
$GPGSA,A,3,23,13,32,20,01,16,,,,,,,3.43,2.29,2.55*0B
$GPGSV,3,1,09,20,73,201,40,23,57,299,39,32,53,149,43,48,37,196,45*73
$GPGSV,3,2,09,31,34,050,22,16,31,139,32,13,31,283,34,04,15,313,*71
$GPGSV,3,3,09,01,14,209,23*4E
$GPRMC,071950.000,A,4404.1295,N,12118.8502,W,0.02,0.00,111111,,,D*7E
$GPGGA,071951.000,4404.1294,N,12118.8506,W,2,6,2.29,1137.3,M,-19.6,M,0000,0000*57
$GPGSA,A,3,23,13,32,20,01,16,,,,,,,3.43,2.29,2.55*0B
$GPGSV,3,1,09,20,73,201,40,23,57,299,39,32,53,149,43,48,37,196,45*73
$GPGSV,3,2,09,31,34,050,21,16,31,139,32,13,31,283,34,04,15,313,*72
$GPGSV,3,3,09,01,14,209,23*4E
$GPRMC,071951.000,A,4404.1294,N,12118.8506,W,0.02,0.00,111111,,,D*7A
$GPGGA,071952.000,4404.1294,N,12118.8509,W,2,6,2.29,1137.2,M,-19.6,M,0000,0000*5A
$GPGSA,A,3,23,13,32,20,01,16,,,,,,,3.43,2.29,2.55*0B
$GPGSV,3,1,09,20,73,201,40,23,57,299,39,32,53,149,43,48,37,196,45*73
$GPGSV,3,2,09,31,34,050,22,16,31,139,32,13,31,283,34,04,15,313,*71
$GPGSV,3,3,09,01,14,209,23*4E
$GPRMC,071952.000,A,4404.1294,N,12118.8509,W,0.03,0.00,111111,,,D*77
$GPGGA,071953.000,4404.1294,N,12118.8508,W,2,6,2.29,1137.4,M,-19.6,M,0000,0000*5C
$GPGSA,A,3,23,13,32,20,01,16,,,,,,,3.43,2.29,2.55*0B
$GPGSV,3,1,09,20,73,201,40,23,57,299,39,32,53,149,43,48,37,196,45*73
$GPGSV,3,2,09,31,34,050,22,16,31,139,32,13,31,283,33,04,15,313,*76
$GPGSV,3,3,09,01,14,209,23*4E
$GPRMC,071953.000,A,4404.1294,N,12118.8508,W,0.02,0.00,111111,,,D*76
$GPGGA,071954.000,4404.1293,N,12118.8510,W,2,6,2.29,1137.5,M,-19.6,M,0000,0000*54
$GPGSA,A,3,23,13,32,20,01,16,,,,,,,3.43,2.29,2.55*0B
$GPGSV,3,1,09,20,73,201,40,23,57,299,39,32,53,149,43,48,37,196,45*73
$GPGSV,3,2,09,31,34,050,21,16,31,139,32,13,31,283,33,04,15,313,*75
$GPGSV,3,3,09,01,14,209,23*4E
$GPRMC,071954.000,A,4404.1293,N,12118.8510,W,0.03,0.00,111111,,,D*7E
$GPGGA,071955.000,4404.1293,N,12118.8511,W,2,6,2.29,1137.8,M,-19.6,M,0000,0000*59
$GPGSA,A,3,23,13,32,20,01,16,,,,,,,3.43,2.29,2.55*0B
$GPGSV,3,1,09,20,73,201,40,23,57,299,39,32,53,149,43,48,37,196,45*73
$GPGSV,3,2,09,31,34,050,21,16,31,139,32,13,31,283,33,04,15,313,*75
$GPGSV,3,3,09,01,14,209,23*4E
$GPRMC,071955.000,A,4404.1293,N,12118.8511,W,0.02,0.00,111111,,,D*7F
$GPGGA,071956.000,4404.1294,N,12118.8513,W,2,6,2.29,1137.8,M,-19.6,M,0000,0000*5F
$GPGSA,A,3,23,13,32,20,01,16,,,,,,,3.43,2.29,2.55*0B
$GPGSV,3,1,09,20,73,201,40,23,57,299,39,32,53,149,43,48,37,196,45*73
$GPGSV,3,2,09,31,34,050,21,16,31,139,32,13,31,283,33,04,15,313,*75
$GPGSV,3,3,09,01,14,209,22*4F
$GPRMC,071956.000,A,4404.1294,N,12118.8513,W,0.01,0.00,111111,,,D*7A
$GPGGA,071957.000,4404.1295,N,12118.8513,W,2,6,2.29,1137.6,M,-19.6,M,0000,0000*51
$GPGSA,A,3,23,13,32,20,01,16,,,,,,,3.43,2.29,2.55*0B
$GPGSV,3,1,09,20,73,201,40,23,57,299,39,32,53,149,43,48,37,196,45*73
$GPGSV,3,2,09,31,34,050,21,16,31,139,32,13,31,283,33,04,15,313,*75
$GPGSV,3,3,09,01,14,209,22*4F
$GPRMC,071957.000,A,4404.1295,N,12118.8513,W,0.01,0.00,111111,,,D*7A
$GPGGA,071958.000,4404.1294,N,12118.8515,W,2,6,2.29,1137.3,M,-19.6,M,0000,0000*5C
$GPGSA,A,3,23,13,32,20,01,16,,,,,,,3.43,2.29,2.55*0B
$GPGSV,3,1,09,20,73,201,40,23,57,299,39,32,53,149,43,48,37,196,45*73
$GPGSV,3,2,09,31,34,050,20,16,31,139,32,13,31,283,33,04,15,313,*74
