$GPRMC,000000,V,2037.7075,N,08704.0535,W,0.0000,0.000,000000,,*23
{"class":"TPV","tag":"ID84","mode":0}
$GPRMC,000000,V,2037.7075,N,08704.0535,W,0.0000,0.000,000000,,*23
{"class":"TPV","tag":"ID84","mode":0}
$GPRMC,000000,V,2037.7075,N,08704.0535,W,0.0000,0.000,000000,,*23
{"class":"TPV","tag":"ID84","mode":0}
$GPRMC,000000,V,2037.7075,N,08704.0535,W,0.0000,0.000,000000,,*23
{"class":"TPV","tag":"ID84","mode":0}
$GPRMC,040938,A,2037.7075,N,08704.0535,W,0.0000,0.000,221206,,*37
{"class":"TPV","tag":"ID84","mode":0,"time":"2006-12-22T04:09:38.000Z","ept":0.005}
$GPRMC,040939,A,2037.7075,N,08704.0535,W,0.0000,0.000,221206,,*36
{"class":"TPV","tag":"ID84","mode":0,"time":"2006-12-22T04:09:39.000Z","ept":0.005}
$GPRMC,040940,A,2037.7075,N,08704.0535,W,0.0000,0.000,221206,,*38
{"class":"TPV","tag":"ID84","mode":0,"time":"2006-12-22T04:09:40.000Z","ept":0.005}
$GPRMC,040941,A,2037.7075,N,08704.0535,W,0.0000,0.000,221206,,*39
{"class":"TPV","tag":"ID84","mode":0,"time":"2006-12-22T04:09:41.000Z","ept":0.005}
$GPRMC,040942,A,2037.7075,N,08704.0535,W,0.0000,0.000,221206,,*3A
{"class":"TPV","tag":"ID84","mode":0,"time":"2006-12-22T04:09:42.000Z","ept":0.005}
$GPRMC,040943,A,2037.7075,N,08704.0535,W,0.0000,0.000,221206,,*3B
{"class":"TPV","tag":"ID84","mode":0,"time":"2006-12-22T04:09:43.000Z","ept":0.005}
$GPRMC,040944,A,2037.7075,N,08704.0535,W,0.0000,0.000,221206,,*3C
{"class":"TPV","tag":"ID84","mode":0,"time":"2006-12-22T04:09:44.000Z","ept":0.005}
$GPRMC,040945,A,2037.7075,N,08704.0535,W,0.0000,0.000,221206,,*3D
{"class":"TPV","tag":"ID84","mode":0,"time":"2006-12-22T04:09:45.000Z","ept":0.005}
$GPRMC,040946,A,2037.7075,N,08704.0535,W,0.0000,0.000,221206,,*3E
{"class":"TPV","tag":"ID84","mode":0,"time":"2006-12-22T04:09:46.000Z","ept":0.005}
$GPRMC,040947,A,2037.7076,N,08704.0535,W,0.0000,0.000,221206,,*3C
{"class":"TPV","tag":"ID84","mode":0,"time":"2006-12-22T04:09:47.000Z","ept":0.005}
$GPRMC,040948,A,2037.7076,N,08704.0535,W,0.0000,0.000,221206,,*33
{"class":"TPV","tag":"ID84","mode":0,"time":"2006-12-22T04:09:48.000Z","ept":0.005}
$GPRMC,040949,A,2037.7076,N,08704.0535,W,0.0000,0.000,221206,,*32
{"class":"TPV","tag":"ID84","mode":0,"time":"2006-12-22T04:09:49.000Z","ept":0.005}
$GPRMC,040950,A,2037.7077,N,08704.0534,W,0.0000,0.000,221206,,*3A
{"class":"TPV","tag":"ID84","mode":0,"time":"2006-12-22T04:09:50.000Z","ept":0.005}
$GPRMC,040951,A,2037.7077,N,08704.0534,W,0.0000,0.000,221206,,*3B
{"class":"TPV","tag":"ID84","mode":0,"time":"2006-12-22T04:09:51.000Z","ept":0.005}
$GPRMC,040952,A,2037.7076,N,08704.0535,W,0.0000,0.000,221206,,*38
{"class":"TPV","tag":"ID84","mode":0,"time":"2006-12-22T04:09:52.000Z","ept":0.005}
$GPRMC,040953,A,2037.7059,N,08704.0550,W,0.0000,0.000,221206,,*37
{"class":"TPV","tag":"ID84","mode":0,"time":"2006-12-22T04:09:53.000Z","ept":0.005}
$GPRMC,040954,A,2037.7053,N,08704.0556,W,0.0000,0.000,221206,,*3C
{"class":"TPV","tag":"ID84","mode":0,"time":"2006-12-22T04:09:54.000Z","ept":0.005}
$GPRMC,040955,A,2037.7051,N,08704.0558,W,0.0000,0.000,221206,,*31
{"class":"TPV","tag":"ID84","mode":0,"time":"2006-12-22T04:09:55.000Z","ept":0.005}
$GPRMC,040956,A,2037.7049,N,08704.0559,W,0.0000,0.000,221206,,*3A
{"class":"TPV","tag":"ID84","mode":0,"time":"2006-12-22T04:09:56.000Z","ept":0.005}
$GPRMC,040957,A,2037.7048,N,08704.0560,W,0.0000,0.000,221206,,*30
{"class":"TPV","tag":"ID84","mode":0,"time":"2006-12-22T04:09:57.000Z","ept":0.005}
$GPRMC,040958,A,2037.7047,N,08704.0561,W,0.0000,0.000,221206,,*31
{"class":"TPV","tag":"ID84","mode":0,"time":"2006-12-22T04:09:58.000Z","ept":0.005}
$GPRMC,040959,A,2037.7047,N,08704.0561,W,0.0000,0.000,221206,,*30
{"class":"TPV","tag":"ID84","mode":0,"time":"2006-12-22T04:09:59.000Z","ept":0.005}
$GPRMC,041000,A,2037.7046,N,08704.0562,W,0.0000,0.000,221206,,*36
{"class":"TPV","tag":"ID84","mode":0,"time":"2006-12-22T04:10:00.000Z","ept":0.005}
$GPRMC,041001,A,2037.7046,N,08704.0562,W,0.0000,0.000,221206,,*37
{"class":"TPV","tag":"ID84","mode":0,"time":"2006-12-22T04:10:01.000Z","ept":0.005}
$GPRMC,041002,A,2037.7046,N,08704.0562,W,0.0000,0.000,221206,,*34
{"class":"TPV","tag":"ID84","mode":0,"time":"2006-12-22T04:10:02.000Z","ept":0.005}
$GPRMC,041003,A,2037.7046,N,08704.0563,W,0.0000,0.000,221206,,*34
{"class":"TPV","tag":"ID84","mode":0,"time":"2006-12-22T04:10:03.000Z","ept":0.005}
$GPRMC,041004,A,2037.7046,N,08704.0563,W,0.0000,0.000,221206,,*33
{"class":"TPV","tag":"ID84","mode":0,"time":"2006-12-22T04:10:04.000Z","ept":0.005}
$GPRMC,041005,A,2037.7046,N,08704.0563,W,0.0000,0.000,221206,,*32
{"class":"TPV","tag":"ID84","mode":0,"time":"2006-12-22T04:10:05.000Z","ept":0.005}
$GPRMC,041006,A,2037.7046,N,08704.0563,W,0.0000,0.000,221206,,*31
{"class":"TPV","tag":"ID84","mode":0,"time":"2006-12-22T04:10:06.000Z","ept":0.005}
$GPRMC,041007,A,2037.7046,N,08704.0562,W,0.0000,0.000,221206,,*31
{"class":"TPV","tag":"ID84","mode":0,"time":"2006-12-22T04:10:07.000Z","ept":0.005}
$GPRMC,041008,A,2037.7054,N,08704.0557,W,0.0000,0.000,221206,,*3B
{"class":"TPV","tag":"ID84","mode":0,"time":"2006-12-22T04:10:08.000Z","ept":0.005}
$GPRMC,041009,A,2037.7055,N,08704.0557,W,0.0000,0.000,221206,,*3B
{"class":"TPV","tag":"ID84","mode":0,"time":"2006-12-22T04:10:09.000Z","ept":0.005}
$GPRMC,041010,A,2037.7055,N,08704.0556,W,0.0000,0.000,221206,,*32
{"class":"TPV","tag":"ID84","mode":0,"time":"2006-12-22T04:10:10.000Z","ept":0.005}
$GPRMC,041011,A,2037.7056,N,08704.0556,W,0.0000,0.000,221206,,*30
{"class":"TPV","tag":"ID84","mode":0,"time":"2006-12-22T04:10:11.000Z","ept":0.005}
$GPRMC,041012,A,2037.7057,N,08704.0555,W,0.0000,0.000,221206,,*31
{"class":"TPV","tag":"ID84","mode":0,"time":"2006-12-22T04:10:12.000Z","ept":0.005}
$GPRMC,041013,A,2037.7058,N,08704.0555,W,0.0000,0.000,221206,,*3F
{"class":"TPV","tag":"ID84","mode":0,"time":"2006-12-22T04:10:13.000Z","ept":0.005}
