# Name: U-Blox, EVK-5H-0, ID: 1546:01a5
# Chipset: LEA-5H-0
# Submitter: Stephan Dierick <sac.dierick@hccnet.nl>
# Date: 2010-08-23
# Location: Rotterdam, NL, 51.9N 4.6E
# Notess: Unit was stationary.  Part without fix (antenna
#	  shielded) and stationary fix.  Sentences with
#	  fix begin at timestamp 085515
#
$GPTXT,01,01,02,u-blox ag - www.u-blox.com*50
$GPTXT,01,01,02,HW  UBX-G50xx  00040005 *53
$GPTXT,01,01,02,EXT CORE 6.00 (33247) May 13 2009 17:35:46*49
$GPTXT,01,01,02,ROM BASE 4.00 (25682) Jan 14 2008 16:29:23*4F
$GPTXT,01,01,02,MOD LEA-5H-0*2E
$GPTXT,01,01,02,ANTSUPERV=AC SD PDoS SR*20
$GPTXT,01,01,02,ANTSTATUS=OK*3B
$GPRMC,083723.00,A,5155.55442,N,00434.65873,E,0.211,,210810,,,A*7F
$GPVTG,,T,,M,0.211,N,0.391,K,A*2A
$GPGGA,083723.00,5155.55442,N,00434.65873,E,1,06,2.51,-4.0,M,46.0,M,,*70
$GPGSA,A,3,27,15,09,28,18,08,,,,,,,3.33,2.51,2.20*04
$GPGSV,3,1,12,05,04,187,,08,11,078,29,09,43,270,37,12,03,212,*75
$GPGSV,3,2,12,15,78,214,34,17,25,106,18,18,32,294,39,22,13,324,20*77
$GPGSV,3,3,12,24,04,342,,26,55,139,24,27,62,276,36,28,39,055,26*77
$GPGLL,5155.55442,N,00434.65873,E,083723.00,A,A*6E
$GPRMC,083724.00,A,5155.55430,N,00434.65878,E,0.392,,210810,,,A*7C
$GPVTG,,T,,M,0.392,N,0.727,K,A*29
$GPGGA,083724.00,5155.55430,N,00434.65878,E,1,06,2.51,-4.2,M,46.0,M,,*7B
$GPGSA,A,3,27,15,09,28,18,08,,,,,,,3.33,2.51,2.20*04
$GPGSV,3,1,12,05,04,187,,08,11,078,29,09,43,270,37,12,03,212,*75
$GPGSV,3,2,12,15,78,214,34,17,25,106,18,18,32,294,39,22,13,324,20*77
$GPGSV,3,3,12,24,04,342,,26,55,139,24,27,62,276,36,28,39,055,26*77
$GPGLL,5155.55430,N,00434.65878,E,083724.00,A,A*67
$GPRMC,083725.00,A,5155.55467,N,00434.65870,E,0.274,,210810,,,A*7E
$GPVTG,,T,,M,0.274,N,0.508,K,A*2F
$GPGGA,083725.00,5155.55467,N,00434.65870,E,1,06,2.51,-3.2,M,46.0,M,,*77
$GPGSA,A,3,27,15,09,28,18,08,,,,,,,3.33,2.51,2.20*04
$GPGSV,3,1,12,05,04,187,,08,11,078,28,09,43,270,34,12,03,212,*77
$GPGSV,3,2,12,15,78,214,33,17,25,106,17,18,32,294,37,22,13,324,20*71
$GPGSV,3,3,12,24,04,342,,26,55,139,24,27,62,276,33,28,39,055,26*72
$GPGLL,5155.55467,N,00434.65870,E,083725.00,A,A*6C
$GPRMC,083726.00,A,5155.55458,N,00434.65878,E,0.034,,210810,,,A*7F
$GPVTG,,T,,M,0.034,N,0.062,K,A*20
$GPGGA,083726.00,5155.55458,N,00434.65878,E,1,06,2.51,-3.3,M,46.0,M,,*71
$GPGSA,A,3,27,15,09,28,18,08,,,,,,,3.33,2.51,2.20*04
$GPGSV,3,1,12,05,04,187,,08,11,078,28,09,43,270,37,12,03,212,*74
$GPGSV,3,2,12,15,78,214,33,17,25,106,17,18,32,294,39,22,13,324,20*7F
$GPGSV,3,3,12,24,04,342,,26,55,139,24,27,62,276,34,28,39,055,26*75
$GPGLL,5155.55458,N,00434.65878,E,083726.00,A,A*6B
$GPRMC,083727.00,A,5155.55436,N,00434.65880,E,0.094,,210810,,,A*7B
$GPVTG,,T,,M,0.094,N,0.174,K,A*2C
$GPGGA,083727.00,5155.55436,N,00434.65880,E,1,06,2.51,-3.6,M,46.0,M,,*7A
$GPGSA,A,3,27,15,09,28,18,08,,,,,,,3.33,2.51,2.20*04
$GPGSV,3,1,12,05,04,187,,08,11,078,29,09,43,270,38,12,03,212,*7A
$GPGSV,3,2,12,15,78,214,33,17,25,106,16,18,32,294,40,22,13,324,21*71
$GPGSV,3,3,12,24,04,342,,26,55,139,24,27,62,276,35,28,39,055,26*74
$GPGLL,5155.55436,N,00434.65880,E,083727.00,A,A*65
$GPRMC,083728.00,A,5155.55420,N,00434.65883,E,0.147,,210810,,,A*7F
$GPVTG,,T,,M,0.147,N,0.273,K,A*27
$GPGGA,083728.00,5155.55420,N,00434.65883,E,1,06,2.51,-3.8,M,46.0,M,,*7F
$GPGSA,A,3,27,15,09,28,18,08,,,,,,,3.33,2.51,2.20*04
$GPGSV,3,1,12,05,04,187,,08,11,078,29,09,43,270,38,12,03,212,*7A
$GPGSV,3,2,12,15,78,214,34,17,25,106,17,18,32,294,40,22,13,324,22*74
$GPGSV,3,3,12,24,04,342,,26,55,139,25,27,62,276,36,28,39,055,26*76
$GPGLL,5155.55420,N,00434.65883,E,083728.00,A,A*6E
$GPRMC,083729.00,A,5155.55404,N,00434.65895,E,0.192,,210810,,,A*77
$GPVTG,,T,,M,0.192,N,0.356,K,A*29
$GPGGA,083729.00,5155.55404,N,00434.65895,E,1,06,2.51,-4.0,M,46.0,M,,*70
$GPGSA,A,3,27,15,09,28,18,08,,,,,,,3.33,2.51,2.20*04
$GPGSV,3,1,12,05,04,187,,08,11,078,29,09,43,270,37,12,03,212,*75
$GPGSV,3,2,12,15,78,214,33,17,25,106,17,18,32,294,40,22,13,324,22*73
$GPGSV,3,3,12,24,04,342,,26,55,139,24,27,62,276,35,28,39,055,26*74
$GPGLL,5155.55404,N,00434.65895,E,083729.00,A,A*6E
$GPRMC,083730.00,A,5155.55390,N,00434.65909,E,0.045,,210810,,,A*7A
$GPVTG,,T,,M,0.045,N,0.084,K,A*2E
$GPGGA,083730.00,5155.55390,N,00434.65909,E,1,06,2.51,-4.2,M,46.0,M,,*74
$GPGSA,A,3,27,15,09,28,18,08,,,,,,,3.33,2.51,2.20*04
$GPGSV,3,1,12,05,04,187,,08,11,078,28,09,43,270,37,12,03,212,*74
$GPGSV,3,2,12,15,78,214,33,17,25,106,16,18,32,294,39,22,13,324,21*7F
$GPGSV,3,3,12,24,04,342,,26,55,139,25,27,62,276,35,28,39,055,26*75
$GPGLL,5155.55390,N,00434.65909,E,083730.00,A,A*68
$GPRMC,083731.00,A,5155.55368,N,00434.65914,E,0.134,,210810,,,A*77
$GPVTG,,T,,M,0.134,N,0.247,K,A*24
$GPGGA,083731.00,5155.55368,N,00434.65914,E,1,06,2.51,-4.4,M,46.0,M,,*78
$GPGSA,A,3,27,15,09,28,18,08,,,,,,,3.33,2.51,2.20*04
$GPGSV,3,1,12,05,04,187,,08,11,078,28,09,43,270,38,12,03,212,*7B
$GPGSV,3,2,12,15,78,214,34,17,25,106,16,18,32,294,40,22,13,324,22*75
$GPGSV,3,3,12,24,04,342,,26,55,139,25,27,62,276,36,28,39,055,27*77
$GPGLL,5155.55368,N,00434.65914,E,083731.00,A,A*62
$GPRMC,083732.00,A,5155.55351,N,00434.65917,E,0.175,,210810,,,A*78
$GPVTG,,T,,M,0.175,N,0.325,K,A*24
$GPGGA,083732.00,5155.55351,N,00434.65917,E,1,06,2.50,-4.5,M,46.0,M,,*72
$GPGSA,A,3,27,15,09,28,18,08,,,,,,,3.33,2.50,2.20*05
$GPGSV,3,1,12,05,04,187,,08,11,078,28,09,43,270,36,12,03,212,*75
$GPGSV,3,2,12,15,78,214,32,17,25,106,16,18,32,294,40,22,13,324,22*73
$GPGSV,3,3,12,24,04,342,,26,55,139,24,27,62,276,35,28,39,055,26*74
$GPGLL,5155.55351,N,00434.65917,E,083732.00,A,A*68
$GPRMC,083733.00,A,5155.55334,N,00434.65925,E,0.162,,210810,,,A*7D
$GPVTG,,T,,M,0.162,N,0.300,K,A*25
$GPGGA,083733.00,5155.55334,N,00434.65925,E,1,06,2.50,-4.7,M,46.0,M,,*73
$GPGSA,A,3,27,15,09,28,18,08,,,,,,,3.33,2.50,2.20*05
$GPGSV,3,1,12,05,04,187,,08,11,078,28,09,43,270,37,12,03,212,*74
$GPGSV,3,2,12,15,78,214,33,17,25,106,17,18,32,294,40,22,13,324,22*73
$GPGSV,3,3,12,24,04,342,,26,55,139,24,27,62,276,35,28,39,055,27*75
$GPGLL,5155.55334,N,00434.65925,E,083733.00,A,A*6B
$GPRMC,083734.00,A,5155.55320,N,00434.65935,E,0.265,,210810,,,A*7A
$GPVTG,,T,,M,0.265,N,0.490,K,A*2F
$GPGGA,083734.00,5155.55320,N,00434.65935,E,1,06,2.50,-4.9,M,46.0,M,,*7E
$GPGSA,A,3,27,15,09,28,18,08,,,,,,,3.33,2.50,2.20*05
$GPGSV,3,1,12,05,04,187,,08,11,078,28,09,43,270,37,12,03,212,*74
$GPGSV,3,2,12,15,78,214,33,17,25,106,16,18,32,294,39,22,13,324,22*7C
$GPGSV,3,3,12,24,04,342,,26,55,139,23,27,62,276,36,28,39,055,27*71
$GPGLL,5155.55320,N,00434.65935,E,083734.00,A,A*68
$GPRMC,083735.00,A,5155.55307,N,00434.65949,E,0.152,,210810,,,A*72
$GPVTG,,T,,M,0.152,N,0.282,K,A*2D
$GPGGA,083735.00,5155.55307,N,00434.65949,E,1,06,2.50,-5.1,M,46.0,M,,*78
$GPGSA,A,3,27,15,09,28,18,08,,,,,,,3.33,2.50,2.20*05
$GPGSV,3,1,12,05,04,187,,08,11,078,26,09,43,270,36,12,03,212,*7B
$GPGSV,3,2,12,15,78,214,33,17,25,106,17,18,32,294,39,22,13,324,21*7E
$GPGSV,3,3,12,24,04,342,,26,55,139,23,27,62,276,36,28,39,055,27*71
$GPGLL,5155.55307,N,00434.65949,E,083735.00,A,A*67
$GPRMC,083736.00,A,5155.55296,N,00434.65953,E,0.178,,210810,,,A*7B
$GPVTG,,T,,M,0.178,N,0.330,K,A*2D
$GPGGA,083736.00,5155.55296,N,00434.65953,E,1,06,2.50,-5.2,M,46.0,M,,*7A
$GPGSA,A,3,27,15,09,28,18,08,,,,,,,3.33,2.50,2.20*05
$GPGSV,3,1,12,05,04,187,,08,11,078,24,09,43,270,36,12,03,212,*79
$GPGSV,3,2,12,15,78,214,33,17,25,106,19,18,32,294,40,22,13,324,20*7F
$GPGSV,3,3,12,24,04,342,,26,55,139,24,27,62,276,36,28,39,055,28*79
$GPGLL,5155.55296,N,00434.65953,E,083736.00,A,A*66
$GPRMC,083737.00,A,5155.55299,N,00434.65955,E,0.175,,210810,,,A*7E
$GPVTG,,T,,M,0.175,N,0.324,K,A*25
$GPGGA,083737.00,5155.55299,N,00434.65955,E,1,06,2.50,-4.8,M,46.0,M,,*79
$GPGSA,A,3,27,15,09,28,18,08,,,,,,,3.33,2.50,2.20*05
$GPGSV,3,1,12,05,04,187,,08,11,078,20,09,43,270,34,12,03,212,*7F
$GPGSV,3,2,12,15,78,214,32,17,25,106,19,18,32,294,39,22,13,324,20*70
$GPGSV,3,3,12,24,04,342,,26,55,139,25,27,62,276,34,28,39,055,28*7A
$GPGLL,5155.55299,N,00434.65955,E,083737.00,A,A*6E
$GPRMC,083738.00,A,5155.55301,N,00434.65955,E,0.473,,210810,,,A*72
$GPVTG,,T,,M,0.473,N,0.877,K,A*2B
$GPGGA,083738.00,5155.55301,N,00434.65955,E,1,06,2.50,-4.6,M,46.0,M,,*78
$GPGSA,A,3,27,15,09,28,18,08,,,,,,,3.33,2.50,2.20*05
$GPGSV,3,1,12,05,04,187,,08,11,078,19,09,43,270,34,12,03,212,*75
$GPGSV,3,2,12,15,78,214,32,17,25,106,19,18,32,294,39,22,13,324,20*70
$GPGSV,3,3,12,24,04,342,,26,55,139,26,27,62,276,34,28,39,055,27*76
$GPGLL,5155.55301,N,00434.65955,E,083738.00,A,A*61
$GPRMC,083739.00,A,5155.55294,N,00434.65966,E,0.147,,210810,,,A*7C
$GPVTG,,T,,M,0.147,N,0.272,K,A*26
$GPGGA,083739.00,5155.55294,N,00434.65966,E,1,06,2.50,-4.7,M,46.0,M,,*75
$GPGSA,A,3,27,15,09,28,18,08,,,,,,,3.33,2.50,2.20*05
$GPGSV,3,1,12,05,04,187,,08,11,078,18,09,43,270,35,12,03,212,*75
$GPGSV,3,2,12,15,78,214,32,17,25,106,19,18,32,294,40,22,13,324,21*7F
$GPGSV,3,3,12,24,04,342,,26,55,139,26,27,62,276,35,28,39,055,27*77
$GPGLL,5155.55294,N,00434.65966,E,083739.00,A,A*6D
$GPRMC,083740.00,A,5155.55278,N,00434.65971,E,0.067,,210810,,,A*75
$GPVTG,,T,,M,0.067,N,0.124,K,A*25
$GPGGA,083740.00,5155.55278,N,00434.65971,E,1,06,2.50,-4.8,M,46.0,M,,*70
$GPGSA,A,3,27,15,09,28,18,08,,,,,,,3.33,2.50,2.20*05
$GPGSV,3,1,12,05,04,187,,08,11,078,18,09,43,270,37,12,03,212,*77
$GPGSV,3,2,12,15,78,214,34,17,25,106,19,18,32,294,41,22,13,324,22*7B
$GPGSV,3,3,12,24,04,342,,26,55,139,27,27,62,276,36,28,39,055,29*7B
$GPGLL,5155.55278,N,00434.65971,E,083740.00,A,A*67
$GPRMC,083741.00,A,5155.55270,N,00434.65978,E,0.150,,210810,,,A*70
$GPVTG,,T,,M,0.150,N,0.278,K,A*2A
$GPGGA,083741.00,5155.55270,N,00434.65978,E,1,06,2.50,-4.9,M,46.0,M,,*71
$GPGSA,A,3,27,15,09,28,18,08,,,,,,,3.33,2.50,2.20*05
$GPGSV,3,1,12,05,04,187,,08,11,078,17,09,43,270,35,12,03,212,*7A
$GPGSV,3,2,12,15,78,214,33,17,25,106,16,18,32,294,38,22,13,324,21*7E
$GPGSV,3,3,12,24,04,342,,26,55,139,26,27,62,276,34,28,39,055,28*79
$GPGLL,5155.55270,N,00434.65978,E,083741.00,A,A*67
$GPRMC,083742.00,A,5155.55258,N,00434.65987,E,0.308,,210810,,,A*76
$GPVTG,,T,,M,0.308,N,0.570,K,A*2A
$GPGGA,083742.00,5155.55258,N,00434.65987,E,1,06,2.50,-5.1,M,46.0,M,,*71
$GPGSA,A,3,27,15,09,28,18,08,,,,,,,3.33,2.50,2.20*05
$GPGSV,3,1,12,05,04,187,,08,11,078,17,09,43,270,35,12,03,212,*7A
$GPGSV,3,2,12,15,78,214,33,17,25,106,17,18,32,294,39,22,13,324,21*7E
$GPGSV,3,3,12,24,04,342,,26,55,139,27,27,62,276,35,28,39,055,27*76
$GPGLL,5155.55258,N,00434.65987,E,083742.00,A,A*6E
$GPRMC,083743.00,A,5155.55243,N,00434.66004,E,0.307,,210810,,,A*73
$GPVTG,,T,,M,0.307,N,0.568,K,A*2C
$GPGGA,083743.00,5155.55243,N,00434.66004,E,1,06,2.50,-5.3,M,46.0,M,,*79
$GPGSA,A,3,27,15,09,28,18,08,,,,,,,3.33,2.50,2.20*05
$GPGSV,3,1,12,05,04,187,,08,10,078,21,09,43,270,35,12,03,212,*7E
$GPGSV,3,2,12,15,78,214,33,17,25,106,17,18,32,294,39,22,13,324,21*7E
$GPGSV,3,3,12,24,04,342,,26,55,139,26,27,62,276,35,28,39,055,26*76
$GPGLL,5155.55243,N,00434.66004,E,083743.00,A,A*64
$GPRMC,083744.00,A,5155.55229,N,00434.66021,E,0.280,,210810,,,A*71
$GPVTG,,T,,M,0.280,N,0.518,K,A*25
$GPGGA,083744.00,5155.55229,N,00434.66021,E,1,06,2.50,-5.6,M,46.0,M,,*70
$GPGSA,A,3,27,15,09,28,18,08,,,,,,,3.33,2.50,2.20*05
$GPGSV,3,1,12,05,04,187,,08,10,078,21,09,43,271,35,12,03,212,*7F
$GPGSV,3,2,12,15,78,214,33,17,25,106,18,18,32,294,38,22,13,324,22*73
$GPGSV,3,3,12,24,04,342,,26,55,139,26,27,62,276,35,28,39,055,26*76
$GPGLL,5155.55229,N,00434.66021,E,083744.00,A,A*68
$GPRMC,083745.00,A,5155.55212,N,00434.66032,E,0.270,,210810,,,A*75
$GPVTG,,T,,M,0.270,N,0.501,K,A*22
$GPGGA,083745.00,5155.55212,N,00434.66032,E,1,06,2.50,-5.9,M,46.0,M,,*74
$GPGSA,A,3,27,15,09,28,18,08,,,,,,,3.33,2.50,2.19*0F
$GPGSV,3,1,12,05,04,187,,08,10,078,21,09,43,271,35,12,03,212,*7F
$GPGSV,3,2,12,15,78,214,33,17,25,106,17,18,32,294,39,22,13,324,21*7E
$GPGSV,3,3,12,24,04,342,,26,55,139,25,27,62,276,34,28,39,055,26*74
$GPGLL,5155.55212,N,00434.66032,E,083745.00,A,A*63
$GPRMC,083746.00,A,5155.55191,N,00434.66035,E,0.290,,210810,,,A*77
$GPVTG,,T,,M,0.290,N,0.536,K,A*28
$GPGGA,083746.00,5155.55191,N,00434.66035,E,1,06,2.50,-6.1,M,46.0,M,,*73
$GPGSA,A,3,27,15,09,28,18,08,,,,,,,3.33,2.50,2.19*0F
$GPGSV,3,1,12,05,04,187,,08,10,078,20,09,43,271,36,12,03,212,*7D
$GPGSV,3,2,12,15,78,214,33,17,25,106,17,18,32,294,41,22,13,324,21*71
$GPGSV,3,3,12,24,04,342,,26,55,139,25,27,62,276,36,28,39,055,27*77
$GPGLL,5155.55191,N,00434.66035,E,083746.00,A,A*6F
$GPRMC,083747.00,A,5155.55209,N,00434.66012,E,0.358,,210810,,,A*74
$GPVTG,,T,,M,0.358,N,0.664,K,A*29
$GPGGA,083747.00,5155.55209,N,00434.66012,E,1,06,2.50,-5.2,M,46.0,M,,*75
$GPGSA,A,3,27,15,09,28,18,08,,,,,,,3.33,2.50,2.19*0F
$GPGSV,3,1,12,05,04,187,,08,10,078,18,09,43,271,34,12,04,213,*72
$GPGSV,3,2,12,15,78,214,32,17,25,106,17,18,32,294,39,22,13,324,21*7F
$GPGSV,3,3,12,24,04,342,,26,55,139,25,27,62,276,35,28,39,055,27*74
$GPGLL,5155.55209,N,00434.66012,E,083747.00,A,A*69
$GPRMC,083748.00,A,5155.55206,N,00434.66013,E,0.282,,210810,,,A*73
$GPVTG,,T,,M,0.282,N,0.523,K,A*2F
$GPGGA,083748.00,5155.55206,N,00434.66013,E,1,06,2.50,-5.1,M,46.0,M,,*77
$GPGSA,A,3,27,15,09,28,18,08,,,,,,,3.33,2.50,2.19*0F
$GPGSV,3,1,12,05,04,187,,08,10,078,18,09,43,271,34,12,04,213,*72
$GPGSV,3,2,12,15,78,214,32,17,25,106,17,18,32,294,39,22,13,324,21*7F
$GPGSV,3,3,12,24,04,342,,26,55,139,24,27,62,276,35,28,39,055,27*75
$GPGLL,5155.55206,N,00434.66013,E,083748.00,A,A*68
$GPRMC,083749.00,A,5155.55199,N,00434.66019,E,0.153,,210810,,,A*72
$GPVTG,,T,,M,0.153,N,0.283,K,A*2D
$GPGGA,083749.00,5155.55199,N,00434.66019,E,1,06,2.50,-5.1,M,46.0,M,,*79
$GPGSA,A,3,27,15,09,28,18,08,,,,,,,3.33,2.50,2.19*0F
$GPGSV,3,1,12,05,04,187,,08,10,078,18,09,43,271,35,12,04,213,*73
$GPGSV,3,2,12,15,78,214,34,17,25,106,18,18,32,294,41,22,13,324,22*7A
$GPGSV,3,3,12,24,04,342,,26,55,139,24,27,62,276,37,28,39,055,28*78
$GPGLL,5155.55199,N,00434.66019,E,083749.00,A,A*66
$GPRMC,083750.00,A,5155.55192,N,00434.66021,E,0.149,,210810,,,A*71
$GPVTG,,T,,M,0.149,N,0.276,K,A*2C
$GPGGA,083750.00,5155.55192,N,00434.66021,E,1,06,2.50,-5.1,M,46.0,M,,*71
$GPGSA,A,3,27,15,09,28,18,08,,,,,,,3.33,2.50,2.19*0F
$GPGSV,3,1,12,05,04,187,,08,10,078,18,09,43,271,34,12,04,213,*72
$GPGSV,3,2,12,15,78,213,31,17,25,106,19,18,32,294,39,22,13,324,22*76
$GPGSV,3,3,12,24,04,342,,26,55,139,23,27,62,276,35,28,39,055,28*7D
$GPGLL,5155.55192,N,00434.66021,E,083750.00,A,A*6E
$GPRMC,083751.00,A,5155.55183,N,00434.66025,E,0.219,,210810,,,A*72
$GPVTG,,T,,M,0.219,N,0.405,K,A*28
$GPGGA,083751.00,5155.55183,N,00434.66025,E,1,06,2.50,-5.2,M,46.0,M,,*77
$GPGSA,A,3,27,15,09,28,18,08,,,,,,,3.33,2.50,2.19*0F
$GPGSV,3,1,12,05,04,187,,08,10,078,18,09,43,271,34,12,04,213,*72
$GPGSV,3,2,12,15,78,213,32,17,25,106,18,18,32,294,40,22,13,324,22*7A
$GPGSV,3,3,12,24,04,342,,26,55,139,21,27,62,276,36,28,39,055,28*7C
$GPGLL,5155.55183,N,00434.66025,E,083751.00,A,A*6B
$GPRMC,083752.00,A,5155.55171,N,00434.66029,E,0.158,,210810,,,A*76
$GPVTG,,T,,M,0.158,N,0.293,K,A*27
$GPGGA,083752.00,5155.55171,N,00434.66029,E,1,06,2.50,-5.3,M,46.0,M,,*74
$GPGSA,A,3,27,15,09,28,18,08,,,,,,,3.33,2.50,2.19*0F
$GPGSV,3,1,12,05,04,187,,08,10,078,17,09,43,271,34,12,04,213,*7D
$GPGSV,3,2,12,15,78,213,32,17,26,106,18,18,32,294,40,22,13,324,23*78
$GPGSV,3,3,12,24,04,342,,26,55,139,20,27,62,276,35,28,39,055,28*7E
$GPGLL,5155.55171,N,00434.66029,E,083752.00,A,A*69
$GPRMC,083753.00,A,5155.55162,N,00434.66031,E,0.127,,210810,,,A*74
$GPVTG,,T,,M,0.127,N,0.235,K,A*23
$GPGGA,083753.00,5155.55162,N,00434.66031,E,1,06,2.50,-5.4,M,46.0,M,,*79
$GPGSA,A,3,27,15,09,28,18,08,,,,,,,3.32,2.50,2.19*0E
$GPGSV,3,1,12,05,04,187,,08,10,078,16,09,43,271,34,12,04,213,*7C
$GPGSV,3,2,12,15,78,213,32,17,26,106,17,18,32,294,40,22,13,324,22*76
$GPGSV,3,3,12,24,04,342,,26,55,139,19,27,62,276,36,28,39,055,28*77
$GPGLL,5155.55162,N,00434.66031,E,083753.00,A,A*63
$GPRMC,083754.00,A,5155.55154,N,00434.66033,E,0.153,,210810,,,A*77
$GPVTG,,T,,M,0.153,N,0.283,K,A*2D
$GPGGA,083754.00,5155.55154,N,00434.66033,E,1,06,2.50,-5.5,M,46.0,M,,*78
$GPGSA,A,3,27,15,09,28,18,08,,,,,,,3.32,2.50,2.19*0E
$GPGSV,3,1,12,05,04,187,,08,10,078,16,09,43,271,34,12,04,213,*7C
$GPGSV,3,2,12,15,78,213,33,17,26,106,18,18,32,294,40,22,13,324,21*7B
$GPGSV,3,3,12,24,04,342,,26,55,139,19,27,62,276,36,28,39,055,28*77
$GPGLL,5155.55154,N,00434.66033,E,083754.00,A,A*63
$GPRMC,083755.00,A,5155.55149,N,00434.66043,E,0.154,,210810,,,A*7A
$GPVTG,,T,,M,0.154,N,0.285,K,A*2C
$GPGGA,083755.00,5155.55149,N,00434.66043,E,1,06,2.50,-5.6,M,46.0,M,,*71
$GPGSA,A,3,27,15,09,28,18,08,,,,,,,3.32,2.50,2.19*0E
$GPGSV,3,1,12,05,04,187,,08,10,078,16,09,43,271,34,12,04,213,*7C
$GPGSV,3,2,12,15,78,213,33,17,26,106,19,18,32,294,40,22,13,324,20*7B
$GPGSV,3,3,12,24,04,342,,26,55,139,19,27,62,276,36,28,39,055,28*77
$GPGLL,5155.55149,N,00434.66043,E,083755.00,A,A*69
$GPRMC,083756.00,A,5155.55155,N,00434.66038,E,0.221,,210810,,,A*79
$GPVTG,,T,,M,0.221,N,0.409,K,A*2F
$GPGGA,083756.00,5155.55155,N,00434.66038,E,1,06,2.50,-5.4,M,46.0,M,,*71
$GPGSA,A,3,27,15,09,28,18,08,,,,,,,3.32,2.50,2.19*0E
$GPGSV,3,1,12,05,04,187,,08,10,078,16,09,43,271,34,12,04,213,*7C
$GPGSV,3,2,12,15,78,213,33,17,26,106,19,18,32,294,40,22,13,324,20*7B
$GPGSV,3,3,12,24,04,342,,26,55,139,19,27,62,276,36,28,39,055,27*78
$GPGLL,5155.55155,N,00434.66038,E,083756.00,A,A*6B
$GPRMC,083757.00,A,5155.55151,N,00434.66042,E,0.033,,210810,,,A*70
$GPVTG,,T,,M,0.033,N,0.061,K,A*24
$GPGGA,083757.00,5155.55151,N,00434.66042,E,1,06,2.50,-5.4,M,46.0,M,,*79
$GPGSA,A,3,27,15,09,28,18,08,,,,,,,3.32,2.50,2.19*0E
$GPGSV,3,1,12,05,04,187,,08,10,078,16,09,43,271,34,12,04,213,*7C
$GPGSV,3,2,12,15,78,213,34,17,26,106,20,18,32,294,40,22,13,324,19*7C
$GPGSV,3,3,12,24,04,342,,26,55,139,20,27,62,276,37,28,39,055,28*7C
$GPGLL,5155.55151,N,00434.66042,E,083757.00,A,A*63
$GPRMC,083758.00,A,5155.55149,N,00434.66043,E,0.155,,210810,,,A*76
$GPVTG,,T,,M,0.155,N,0.287,K,A*2F
$GPGGA,083758.00,5155.55149,N,00434.66043,E,1,06,2.50,-5.4,M,46.0,M,,*7E
$GPGSA,A,3,27,15,09,28,18,08,,,,,,,3.32,2.50,2.19*0E
$GPGSV,3,1,12,05,04,187,,08,10,078,16,09,43,271,34,12,04,213,*7C
$GPGSV,3,2,12,15,78,213,34,17,26,106,20,18,32,294,40,22,13,324,18*7D
$GPGSV,3,3,12,24,04,342,,26,55,139,21,27,62,276,35,28,39,055,28*7F
$GPGLL,5155.55149,N,00434.66043,E,083758.00,A,A*64
$GPRMC,083759.00,A,5155.55142,N,00434.66033,E,0.161,,210810,,,A*7C
$GPVTG,,T,,M,0.161,N,0.298,K,A*26
$GPGGA,083759.00,5155.55142,N,00434.66033,E,1,06,2.50,-5.5,M,46.0,M,,*72
$GPGSA,A,3,27,15,09,28,18,08,,,,,,,3.32,2.50,2.19*0E
$GPGSV,3,1,12,05,04,187,,08,10,078,16,09,43,271,35,12,04,213,*7D
$GPGSV,3,2,12,15,78,213,35,17,26,106,21,18,32,294,41,22,13,324,17*73
$GPGSV,3,3,12,24,04,341,,26,55,139,22,27,62,276,37,28,39,055,29*7C
$GPGLL,5155.55142,N,00434.66033,E,083759.00,A,A*69
$GPRMC,083800.00,A,5155.55140,N,00434.66021,E,0.370,,210810,,,A*7C
$GPVTG,,T,,M,0.370,N,0.685,K,A*2C
$GPGGA,083800.00,5155.55140,N,00434.66021,E,1,06,2.50,-5.4,M,46.0,M,,*71
$GPGSA,A,3,27,15,09,28,18,08,,,,,,,3.32,2.50,2.19*0E
$GPGSV,3,1,12,05,04,187,,08,10,078,16,09,43,271,33,12,04,213,*7B
$GPGSV,3,2,12,15,78,213,34,17,26,106,20,18,32,294,39,22,13,324,17*7C
$GPGSV,3,3,12,24,04,341,,26,55,139,22,27,62,276,35,28,39,055,28*7F
$GPGLL,5155.55140,N,00434.66021,E,083800.00,A,A*6B
$GPTXT,01,01,01,SCH OVR: 1*56
$GPRMC,083801.00,A,5155.55145,N,00434.66050,E,0.715,,210810,,,A*79
$GPVTG,,T,,M,0.715,N,1.324,K,A*24
$GPGGA,083801.00,5155.55145,N,00434.66050,E,1,06,2.50,-5.5,M,46.0,M,,*72
$GPGSA,A,3,27,15,09,28,18,08,,,,,,,3.32,2.50,2.19*0E
$GPGSV,3,1,12,05,04,187,,08,10,078,13,09,43,271,34,12,04,213,*79
$GPGSV,3,2,12,15,78,213,33,17,26,106,19,18,32,294,40,22,13,324,18*70
$GPGSV,3,3,12,24,04,341,,26,54,139,21,27,62,276,36,28,39,055,28*7E
$GPGLL,5155.55145,N,00434.66050,E,083801.00,A,A*69
$GPRMC,083802.00,A,5155.55138,N,00434.66056,E,0.046,,210810,,,A*77
$GPVTG,,T,,M,0.046,N,0.086,K,A*2F
$GPGGA,083802.00,5155.55138,N,00434.66056,E,1,06,2.50,-5.5,M,46.0,M,,*7D
$GPGSA,A,3,27,15,09,28,18,08,,,,,,,3.32,2.50,2.19*0E
$GPGSV,3,1,12,05,04,187,,08,10,078,14,09,43,271,34,12,04,213,*7E
$GPGSV,3,2,12,15,78,213,33,17,26,106,18,18,32,294,40,22,13,324,18*71
$GPGSV,3,3,12,24,04,341,,26,54,139,20,27,62,277,36,28,39,055,27*71
$GPGLL,5155.55138,N,00434.66056,E,083802.00,A,A*66
$GPRMC,085515.00,A,5155.55359,N,00434.65730,E,0.037,,210810,,,A*7D
#
# Sentences with fix begin here
#
$GPVTG,,T,,M,0.037,N,0.069,K,A*28
$GPGGA,085515.00,5155.55359,N,00434.65730,E,1,08,1.00,2.1,M,46.0,M,,*57
$GPGSA,A,3,15,27,09,28,18,17,22,12,,,,,1.69,1.00,1.37*06
$GPGSV,4,1,13,08,04,082,17,09,51,276,42,11,01,043,,12,11,214,29*7F
$GPGSV,4,2,13,15,73,189,40,17,30,099,25,18,33,285,39,22,17,319,37*7E
$GPGSV,4,3,13,24,03,335,,26,46,142,,27,69,284,44,28,32,052,31*77
$GPGSV,4,4,13,33,28,204,38*4C
$GPGLL,5155.55359,N,00434.65730,E,085515.00,A,A*6A
$GPTXT,01,01,02,u-blox ag - www.u-blox.com*50
$GPTXT,01,01,02,HW  UBX-G50xx  00040005 *53
$GPTXT,01,01,02,EXT CORE 6.00 (33247) May 13 2009 17:35:46*49
$GPTXT,01,01,02,ROM BASE 4.00 (25682) Jan 14 2008 16:29:23*4F
$GPTXT,01,01,02,MOD LEA-5H-0*2E
$GPTXT,01,01,02,ANTSUPERV=AC SD PDoS SR*20
$GPTXT,01,01,02,ANTSTATUS=OK*3B
$GPRMC,085516.00,A,5155.55350,N,00434.65733,E,0.050,,210810,,,A*75
$GPVTG,,T,,M,0.050,N,0.092,K,A*2D
$GPGGA,085516.00,5155.55350,N,00434.65733,E,1,08,1.00,2.0,M,46.0,M,,*5F
$GPGSA,A,3,15,27,09,28,18,17,22,12,,,,,1.69,1.00,1.37*06
$GPGSV,4,1,13,08,04,082,17,09,51,276,43,11,01,043,,12,11,215,29*7F
$GPGSV,4,2,13,15,73,189,40,17,30,099,25,18,33,285,39,22,17,319,38*71
$GPGSV,4,3,13,24,03,335,,26,46,142,,27,69,284,44,28,32,052,30*76
$GPGSV,4,4,13,33,28,204,38*4C
$GPGLL,5155.55350,N,00434.65733,E,085516.00,A,A*63
$GPRMC,085517.00,A,5155.55340,N,00434.65739,E,0.025,,210810,,,A*7D
$GPVTG,,T,,M,0.025,N,0.046,K,A*26
$GPGGA,085517.00,5155.55340,N,00434.65739,E,1,08,1.00,1.8,M,46.0,M,,*5E
$GPGSA,A,3,15,27,09,28,18,17,22,12,,,,,1.69,1.00,1.37*06
$GPGSV,4,1,13,08,04,082,17,09,51,276,43,11,01,043,,12,11,215,29*7F
$GPGSV,4,2,13,15,73,189,41,17,30,099,25,18,33,285,39,22,17,319,38*70
$GPGSV,4,3,13,24,03,335,,26,46,142,,27,69,284,44,28,32,052,30*76
$GPGSV,4,4,13,33,28,204,38*4C
$GPGLL,5155.55340,N,00434.65739,E,085517.00,A,A*69
$GPRMC,085518.00,A,5155.55332,N,00434.65744,E,0.017,,210810,,,A*7C
$GPVTG,,T,,M,0.017,N,0.032,K,A*24
$GPGGA,085518.00,5155.55332,N,00434.65744,E,1,08,1.00,1.6,M,46.0,M,,*50
$GPGSA,A,3,15,27,09,28,18,17,22,12,,,,,1.69,1.00,1.37*06
$GPGSV,4,1,13,08,04,082,17,09,51,276,42,11,01,043,,12,11,215,29*7E
$GPGSV,4,2,13,15,73,189,41,17,30,099,27,18,33,285,39,22,17,319,39*73
$GPGSV,4,3,13,24,03,335,,26,46,142,,27,69,284,44,28,32,052,31*77
$GPGSV,4,4,13,33,28,204,38*4C
$GPGLL,5155.55332,N,00434.65744,E,085518.00,A,A*69
$GPRMC,085519.00,A,5155.55322,N,00434.65748,E,0.056,,210810,,,A*75
$GPVTG,,T,,M,0.056,N,0.104,K,A*25
$GPGGA,085519.00,5155.55322,N,00434.65748,E,1,08,1.00,1.5,M,46.0,M,,*5F
$GPGSA,A,3,15,27,09,28,18,17,22,12,,,,,1.69,1.00,1.37*06
$GPGSV,4,1,13,08,04,082,16,09,51,276,42,11,01,043,,12,11,215,28*7E
$GPGSV,4,2,13,15,72,188,41,17,30,099,26,18,33,285,39,22,17,319,38*73
$GPGSV,4,3,13,24,03,335,,26,46,142,,27,69,284,44,28,32,052,30*76
$GPGSV,4,4,13,33,28,204,38*4C
$GPGLL,5155.55322,N,00434.65748,E,085519.00,A,A*65
$GPRMC,085520.00,A,5155.55317,N,00434.65752,E,0.011,,210810,,,A*71
$GPVTG,,T,,M,0.011,N,0.020,K,A*21
$GPGGA,085520.00,5155.55317,N,00434.65752,E,1,08,1.00,1.5,M,46.0,M,,*58
$GPGSA,A,3,15,27,09,28,18,17,22,12,,,,,1.69,1.00,1.37*06
$GPGSV,4,1,13,08,04,082,18,09,51,276,42,11,01,043,,12,11,215,28*70
$GPGSV,4,2,13,15,72,188,41,17,30,099,25,18,33,285,39,22,17,319,39*71
$GPGSV,4,3,13,24,03,335,,26,46,142,,27,69,284,44,28,32,052,31*77
$GPGSV,4,4,13,33,28,204,38*4C
$GPGLL,5155.55317,N,00434.65752,E,085520.00,A,A*62
$GPRMC,085521.00,A,5155.55309,N,00434.65756,E,0.013,,210810,,,A*79
$GPVTG,,T,,M,0.013,N,0.024,K,A*27
$GPGGA,085521.00,5155.55309,N,00434.65756,E,1,08,1.00,1.3,M,46.0,M,,*54
$GPGSA,A,3,15,27,09,28,18,17,22,12,,,,,1.69,1.00,1.37*06
$GPGSV,4,1,13,08,04,082,18,09,51,276,44,11,01,043,,12,11,215,27*79
$GPGSV,4,2,13,15,72,188,41,17,30,098,26,18,33,285,39,22,17,319,40*7D
$GPGSV,4,3,13,24,03,335,,26,46,142,,27,69,284,44,28,32,052,32*74
$GPGSV,4,4,13,33,28,204,38*4C
$GPGLL,5155.55309,N,00434.65756,E,085521.00,A,A*68
$GPRMC,085522.00,A,5155.55300,N,00434.65760,E,0.039,,210810,,,A*7E
$GPVTG,,T,,M,0.039,N,0.072,K,A*2C
$GPGGA,085522.00,5155.55300,N,00434.65760,E,1,09,1.00,1.2,M,46.0,M,,*5B
$GPGSA,A,3,15,27,09,28,18,26,17,22,12,,,,1.69,1.00,1.37*02
$GPGSV,4,1,13,08,04,082,17,09,51,276,43,11,01,043,,12,11,215,28*7E
$GPGSV,4,2,13,15,72,188,41,17,30,098,28,18,33,285,39,22,17,319,38*7C
$GPGSV,4,3,13,24,03,335,,26,46,142,25,27,69,284,44,28,32,052,30*71
$GPGSV,4,4,13,33,28,204,38*4C
$GPGLL,5155.55300,N,00434.65760,E,085522.00,A,A*67
$GPRMC,085523.00,A,5155.55295,N,00434.65760,E,0.062,,210810,,,A*7C
$GPVTG,,T,,M,0.062,N,0.116,K,A*21
$GPGGA,085523.00,5155.55295,N,00434.65760,E,1,09,1.00,1.2,M,46.0,M,,*57
$GPGSA,A,3,15,27,09,28,18,26,17,22,12,,,,1.69,1.00,1.37*02
$GPGSV,4,1,13,08,04,082,18,09,51,276,42,11,01,043,,12,11,215,28*70
$GPGSV,4,2,13,15,72,188,40,17,30,098,27,18,33,285,39,22,17,319,38*72
$GPGSV,4,3,13,24,03,335,,26,46,142,23,27,69,284,43,28,32,052,31*71
$GPGSV,4,4,13,33,28,204,38*4C
$GPGLL,5155.55295,N,00434.65760,E,085523.00,A,A*6B
$GPRMC,085524.00,A,5155.55293,N,00434.65764,E,0.033,,210810,,,A*7D
$GPVTG,,T,,M,0.033,N,0.061,K,A*24
$GPGGA,085524.00,5155.55293,N,00434.65764,E,1,08,1.00,1.1,M,46.0,M,,*50
$GPGSA,A,3,15,27,09,28,18,17,22,12,,,,,1.69,1.00,1.37*06
$GPGSV,4,1,13,08,04,082,17,09,51,276,42,11,01,043,,12,11,215,28*7F
$GPGSV,4,2,13,15,72,188,40,17,30,098,26,18,33,285,39,22,17,319,38*73
$GPGSV,4,3,13,24,03,335,,26,46,142,,27,69,284,43,28,32,052,31*70
$GPGSV,4,4,13,33,28,204,38*4C
$GPGLL,5155.55293,N,00434.65764,E,085524.00,A,A*6E
$GPRMC,085525.00,A,5155.55292,N,00434.65766,E,0.014,,210810,,,A*7A
$GPVTG,,T,,M,0.014,N,0.027,K,A*23
$GPGGA,085525.00,5155.55292,N,00434.65766,E,1,08,1.00,1.2,M,46.0,M,,*51
$GPGSA,A,3,15,27,09,28,18,17,22,12,,,,,1.69,1.00,1.37*06
$GPGSV,4,1,13,08,04,082,17,09,51,276,42,11,01,043,,12,11,215,29*7E
$GPGSV,4,2,13,15,72,188,40,17,30,098,27,18,33,285,39,22,17,319,38*72
$GPGSV,4,3,13,24,03,335,,26,46,142,,27,69,284,44,28,32,052,31*77
$GPGSV,4,4,13,33,28,204,38*4C
$GPGLL,5155.55292,N,00434.65766,E,085525.00,A,A*6C
$GPRMC,085526.00,A,5155.55292,N,00434.65770,E,0.037,,210810,,,A*7F
$GPVTG,,T,,M,0.037,N,0.068,K,A*29
$GPGGA,085526.00,5155.55292,N,00434.65770,E,1,08,1.00,1.2,M,46.0,M,,*55
$GPGSA,A,3,15,27,09,28,18,17,22,12,,,,,1.69,1.00,1.37*06
$GPGSV,4,1,13,08,04,082,17,09,51,276,43,11,01,043,,12,11,215,29*7F
$GPGSV,4,2,13,15,72,188,40,17,30,098,27,18,33,285,39,22,18,319,38*7D
$GPGSV,4,3,13,24,03,335,,26,46,142,,27,69,284,45,28,32,052,31*76
$GPGSV,4,4,13,33,28,204,38*4C
$GPGLL,5155.55292,N,00434.65770,E,085526.00,A,A*68
$GPRMC,085527.00,A,5155.55291,N,00434.65771,E,0.022,,210810,,,A*78
$GPVTG,,T,,M,0.022,N,0.042,K,A*25
$GPGGA,085527.00,5155.55291,N,00434.65771,E,1,08,1.00,1.2,M,46.0,M,,*56
$GPGSA,A,3,15,27,09,28,18,17,22,12,,,,,1.69,1.00,1.37*06
$GPGSV,4,1,13,08,04,082,17,09,51,276,43,11,01,043,,12,11,215,29*7F
$GPGSV,4,2,13,15,72,188,40,17,30,098,27,18,33,285,40,22,18,319,38*73
$GPGSV,4,3,13,24,03,335,,26,46,142,,27,69,284,45,28,32,052,32*75
$GPGSV,4,4,13,33,28,204,38*4C
$GPGLL,5155.55291,N,00434.65771,E,085527.00,A,A*6B
$GPRMC,085528.00,A,5155.55292,N,00434.65773,E,0.056,,210810,,,A*75
$GPVTG,,T,,M,0.056,N,0.103,K,A*22
$GPGGA,085528.00,5155.55292,N,00434.65773,E,1,08,1.00,1.3,M,46.0,M,,*59
$GPGSA,A,3,15,27,09,28,18,17,22,12,,,,,1.69,1.00,1.37*06
$GPGSV,4,1,13,08,04,082,18,09,51,276,43,11,01,043,,12,11,215,28*71
$GPGSV,4,2,13,15,72,188,40,17,30,098,28,18,33,285,40,22,18,319,38*7C
$GPGSV,4,3,13,24,03,335,,26,46,142,,27,69,284,45,28,32,052,32*75
$GPGSV,4,4,13,33,28,204,39*4D
$GPGLL,5155.55292,N,00434.65773,E,085528.00,A,A*65
$GPRMC,085529.00,A,5155.55292,N,00434.65782,E,0.013,,210810,,,A*7B
$GPVTG,,T,,M,0.013,N,0.023,K,A*20
$GPGGA,085529.00,5155.55292,N,00434.65782,E,1,09,1.00,1.3,M,46.0,M,,*57
$GPGSA,A,3,15,27,09,28,18,26,17,22,12,,,,1.69,1.00,1.37*02
$GPGSV,4,1,13,08,04,082,18,09,51,276,43,11,01,043,,12,11,215,28*71
$GPGSV,4,2,13,15,72,188,40,17,30,098,27,18,33,285,40,22,18,319,38*73
$GPGSV,4,3,13,24,03,335,,26,46,142,26,27,69,284,45,28,32,052,32*71
$GPGSV,4,4,13,33,28,204,39*4D
$GPGLL,5155.55292,N,00434.65782,E,085529.00,A,A*6A
$GPRMC,085530.00,A,5155.55293,N,00434.65788,E,0.006,,210810,,,A*7C
$GPVTG,,T,,M,0.006,N,0.012,K,A*26
$GPGGA,085530.00,5155.55293,N,00434.65788,E,1,08,1.00,1.3,M,46.0,M,,*55
$GPGSA,A,3,15,27,09,28,18,17,22,12,,,,,1.69,1.00,1.37*06
$GPGSV,4,1,13,08,04,082,17,09,51,276,43,11,01,043,,12,11,215,28*7E
$GPGSV,4,2,13,15,72,188,41,17,30,098,26,18,33,285,40,22,18,319,39*72
$GPGSV,4,3,13,24,03,335,,26,46,142,,27,69,284,45,28,32,052,32*75
$GPGSV,4,4,13,33,28,204,39*4D
$GPGLL,5155.55293,N,00434.65788,E,085530.00,A,A*69
$GPRMC,085531.00,A,5155.55295,N,00434.65789,E,0.056,,210810,,,A*7F
$GPVTG,,T,,M,0.056,N,0.103,K,A*22
$GPGGA,085531.00,5155.55295,N,00434.65789,E,1,08,1.00,1.3,M,46.0,M,,*53
$GPGSA,A,3,15,27,09,28,18,17,22,12,,,,,1.69,1.00,1.37*06
$GPGSV,4,1,13,08,04,082,17,09,51,276,43,11,01,043,,12,11,215,29*7F
$GPGSV,4,2,13,15,72,188,41,17,30,098,27,18,33,285,40,22,18,319,39*73
$GPGSV,4,3,13,24,03,335,,26,46,142,,27,69,285,45,28,32,052,32*74
$GPGSV,4,4,13,33,28,204,38*4C
$GPGLL,5155.55295,N,00434.65789,E,085531.00,A,A*6F
$GPRMC,085532.00,A,5155.55295,N,00434.65785,E,0.097,,210810,,,A*7D
$GPVTG,,T,,M,0.097,N,0.181,K,A*25
$GPGGA,085532.00,5155.55295,N,00434.65785,E,1,08,1.00,1.3,M,46.0,M,,*5C
$GPGSA,A,3,15,27,09,28,18,17,22,12,,,,,1.69,1.00,1.37*06
$GPGSV,4,1,13,08,04,082,16,09,51,276,43,11,01,043,,12,11,215,28*7F
$GPGSV,4,2,13,15,72,188,41,17,30,098,27,18,33,285,40,22,18,319,39*73
$GPGSV,4,3,13,24,03,335,,26,46,142,,27,69,285,44,28,32,052,33*74
$GPGSV,4,4,13,33,28,204,38*4C
$GPGLL,5155.55295,N,00434.65785,E,085532.00,A,A*60
$GPRMC,085533.00,A,5155.55298,N,00434.65778,E,0.041,,210810,,,A*78
$GPVTG,,T,,M,0.041,N,0.075,K,A*24
$GPGGA,085533.00,5155.55298,N,00434.65778,E,1,08,1.00,1.4,M,46.0,M,,*55
$GPGSA,A,3,15,27,09,28,18,17,22,12,,,,,1.69,1.00,1.37*06
$GPGSV,4,1,13,08,04,082,16,09,51,276,42,11,01,043,,12,11,215,28*7E
$GPGSV,4,2,13,15,72,188,42,17,30,098,25,18,33,285,40,22,18,319,39*72
$GPGSV,4,3,13,24,03,335,,26,46,142,,27,69,285,43,28,32,052,33*73
$GPGSV,4,4,13,33,28,204,38*4C
$GPGLL,5155.55298,N,00434.65778,E,085533.00,A,A*6E
