$GPVTG,287.04,T,,M,0.774,N,1.435,K,A*33
$GPGGA,085032.00,5355.17581,N,02730.04649,E,1,04,17.30,267.5,M,25.0,M,,*65
{"class":"TPV","tag":"GGA","mode":3,"lat":53.919596833,"lon":27.500774833,"alt":267.500}
$GPGSA,A,3,18,21,24,15,,,,,,,,,18.95,17.30,7.74*0E
{"class":"TPV","tag":"GSA","mode":3,"lat":53.919596833,"lon":27.500774833,"alt":267.500,"epv":178.020}
$GPGSV,3,1,12,03,67,251,,06,72,220,,08,07,331,24,14,06,151,*71
$GPGSV,3,2,12,15,15,032,46,16,15,204,,18,55,074,42,19,47,295,20*76
$GPGSV,3,3,12,21,33,087,48,22,67,157,,24,02,084,40,26,18,131,34*7D
{"class":"SKY","tag":"GSV","xdop":11.35,"ydop":6.34,"vdop":7.74,"tdop":1.00,"hdop":17.30,"gdop":14.12,"pdop":18.95,"satellites":[{"PRN":3,"el":67,"az":251,"ss":0,"used":false},{"PRN":6,"el":72,"az":220,"ss":0,"used":false},{"PRN":8,"el":7,"az":331,"ss":24,"used":false},{"PRN":14,"el":6,"az":151,"ss":0,"used":false},{"PRN":15,"el":15,"az":32,"ss":46,"used":true},{"PRN":16,"el":15,"az":204,"ss":0,"used":false},{"PRN":18,"el":55,"az":74,"ss":42,"used":true},{"PRN":19,"el":47,"az":295,"ss":20,"used":false},{"PRN":21,"el":33,"az":87,"ss":48,"used":true},{"PRN":22,"el":67,"az":157,"ss":0,"used":false},{"PRN":24,"el":2,"az":84,"ss":40,"used":true},{"PRN":26,"el":18,"az":131,"ss":34,"used":false}]}
$GPGLL,5355.17581,N,02730.04649,E,085032.00,A,A*60
{"class":"TPV","tag":"GLL","mode":3,"lat":53.919596833,"lon":27.500774833,"alt":267.500,"epx":170.223,"epy":95.066,"epv":178.020}
$GPRMC,085033.00,A,5355.17512,N,02730.04479,E,0.835,284.07,050210,,,A*6C
$GPVTG,284.07,T,,M,0.835,N,1.547,K,A*3D
$GPGGA,085033.00,5355.17512,N,02730.04479,E,1,04,17.31,266.9,M,25.0,M,,*63
$GPGSA,A,3,18,21,24,15,,,,,,,,,18.96,17.31,7.74*0C
$GPGSV,3,1,12,03,67,251,,06,72,220,,08,07,331,26,14,06,151,*73
$GPGSV,3,2,12,15,15,032,47,16,15,204,,18,55,074,43,19,47,295,19*7C
$GPGSV,3,3,12,21,33,087,49,22,67,157,,24,02,084,41,26,18,131,36*7F
{"class":"SKY","tag":"GSV","xdop":11.35,"ydop":6.34,"vdop":7.74,"tdop":1.00,"hdop":17.31,"gdop":14.12,"pdop":18.96,"satellites":[{"PRN":3,"el":67,"az":251,"ss":0,"used":false},{"PRN":6,"el":72,"az":220,"ss":0,"used":false},{"PRN":8,"el":7,"az":331,"ss":26,"used":false},{"PRN":14,"el":6,"az":151,"ss":0,"used":false},{"PRN":15,"el":15,"az":32,"ss":47,"used":true},{"PRN":16,"el":15,"az":204,"ss":0,"used":false},{"PRN":18,"el":55,"az":74,"ss":43,"used":true},{"PRN":19,"el":47,"az":295,"ss":19,"used":false},{"PRN":21,"el":33,"az":87,"ss":49,"used":true},{"PRN":22,"el":67,"az":157,"ss":0,"used":false},{"PRN":24,"el":2,"az":84,"ss":41,"used":true},{"PRN":26,"el":18,"az":131,"ss":36,"used":false}]}
$GPGLL,5355.17512,N,02730.04479,E,085033.00,A,A*6A
{"class":"TPV","tag":"GLL","mode":3,"time":"2010-02-05T08:50:33.000Z","ept":0.005,"lat":53.919585333,"lon":27.500746500,"alt":266.900,"epx":170.223,"epy":95.066,"epv":178.020,"track":284.0700,"speed":0.430,"climb":0.000}
$GPRMC,085034.00,A,5355.17453,N,02730.04323,E,0.492,281.09,050210,,,A*6D
$GPVTG,281.09,T,,M,0.492,N,0.911,K,A*39
$GPGGA,085034.00,5355.17453,N,02730.04323,E,1,04,17.31,266.2,M,25.0,M,,*63
$GPGSA,A,3,18,21,24,15,,,,,,,,,18.96,17.31,7.74*0C
$GPGSV,3,1,12,03,67,251,,06,72,220,,08,07,331,26,14,06,151,*73
$GPGSV,3,2,12,15,15,032,47,16,15,204,,18,55,074,43,19,47,295,18*7D
$GPGSV,3,3,12,21,33,087,48,22,67,157,,24,02,084,40,26,18,131,35*7C
{"class":"SKY","tag":"GSV","xdop":11.35,"ydop":6.34,"vdop":7.74,"tdop":1.00,"hdop":17.31,"gdop":14.12,"pdop":18.96,"satellites":[{"PRN":3,"el":67,"az":251,"ss":0,"used":false},{"PRN":6,"el":72,"az":220,"ss":0,"used":false},{"PRN":8,"el":7,"az":331,"ss":26,"used":false},{"PRN":14,"el":6,"az":151,"ss":0,"used":false},{"PRN":15,"el":15,"az":32,"ss":47,"used":true},{"PRN":16,"el":15,"az":204,"ss":0,"used":false},{"PRN":18,"el":55,"az":74,"ss":43,"used":true},{"PRN":19,"el":47,"az":295,"ss":18,"used":false},{"PRN":21,"el":33,"az":87,"ss":48,"used":true},{"PRN":22,"el":67,"az":157,"ss":0,"used":false},{"PRN":24,"el":2,"az":84,"ss":40,"used":true},{"PRN":26,"el":18,"az":131,"ss":35,"used":false}]}
$GPGLL,5355.17453,N,02730.04323,E,085034.00,A,A*61
{"class":"TPV","tag":"GLL","mode":3,"time":"2010-02-05T08:50:34.000Z","ept":0.005,"lat":53.919575500,"lon":27.500720500,"alt":266.200,"epx":170.223,"epy":95.066,"epv":178.020,"track":281.0900,"speed":0.253,"climb":0.000,"eps":340.45}
$GPRMC,085035.00,A,5355.17396,N,02730.04163,E,0.355,280.76,050210,,,A*61
$GPVTG,280.76,T,,M,0.355,N,0.657,K,A*31
$GPGGA,085035.00,5355.17396,N,02730.04163,E,1,04,17.32,265.6,M,25.0,M,,*6E
$GPGSA,A,3,18,21,24,15,,,,,,,,,18.97,17.32,7.74*0E
$GPGSV,3,1,12,03,67,251,,06,72,220,,08,07,331,26,14,06,151,*73
$GPGSV,3,2,12,15,15,032,47,16,15,204,,18,55,074,43,19,47,295,16*73
$GPGSV,3,3,12,21,33,087,47,22,67,157,,24,02,084,40,26,18,131,35*73
{"class":"SKY","tag":"GSV","xdop":11.35,"ydop":6.34,"vdop":7.74,"tdop":1.00,"hdop":17.32,"gdop":14.12,"pdop":18.97,"satellites":[{"PRN":3,"el":67,"az":251,"ss":0,"used":false},{"PRN":6,"el":72,"az":220,"ss":0,"used":false},{"PRN":8,"el":7,"az":331,"ss":26,"used":false},{"PRN":14,"el":6,"az":151,"ss":0,"used":false},{"PRN":15,"el":15,"az":32,"ss":47,"used":true},{"PRN":16,"el":15,"az":204,"ss":0,"used":false},{"PRN":18,"el":55,"az":74,"ss":43,"used":true},{"PRN":19,"el":47,"az":295,"ss":16,"used":false},{"PRN":21,"el":33,"az":87,"ss":47,"used":true},{"PRN":22,"el":67,"az":157,"ss":0,"used":false},{"PRN":24,"el":2,"az":84,"ss":40,"used":true},{"PRN":26,"el":18,"az":131,"ss":35,"used":false}]}
$GPGLL,5355.17396,N,02730.04163,E,085035.00,A,A*68
{"class":"TPV","tag":"GLL","mode":3,"time":"2010-02-05T08:50:35.000Z","ept":0.005,"lat":53.919566000,"lon":27.500693833,"alt":265.600,"epx":170.223,"epy":95.066,"epv":178.020,"track":280.7600,"speed":0.183,"climb":0.000,"eps":340.45}
$GPRMC,085036.00,A,5355.17332,N,02730.04006,E,0.831,278.54,050210,,,A*60
$GPVTG,278.54,T,,M,0.831,N,1.540,K,A*3B
$GPGGA,085036.00,5355.17332,N,02730.04006,E,1,04,17.33,265.3,M,25.0,M,,*65
$GPGSA,A,3,18,21,24,15,,,,,,,,,18.98,17.33,7.74*00
$GPGSV,3,1,12,03,67,251,28,06,72,220,,08,07,331,27,14,06,151,*78
$GPGSV,3,2,12,15,15,032,47,16,15,204,,18,55,074,43,19,47,295,14*71
$GPGSV,3,3,12,21,33,087,47,22,67,157,,24,02,084,41,26,18,131,36*71
{"class":"SKY","tag":"GSV","xdop":11.35,"ydop":6.34,"vdop":7.74,"tdop":1.00,"hdop":17.33,"gdop":14.12,"pdop":18.98,"satellites":[{"PRN":3,"el":67,"az":251,"ss":28,"used":false},{"PRN":6,"el":72,"az":220,"ss":0,"used":false},{"PRN":8,"el":7,"az":331,"ss":27,"used":false},{"PRN":14,"el":6,"az":151,"ss":0,"used":false},{"PRN":15,"el":15,"az":32,"ss":47,"used":true},{"PRN":16,"el":15,"az":204,"ss":0,"used":false},{"PRN":18,"el":55,"az":74,"ss":43,"used":true},{"PRN":19,"el":47,"az":295,"ss":14,"used":false},{"PRN":21,"el":33,"az":87,"ss":47,"used":true},{"PRN":22,"el":67,"az":157,"ss":0,"used":false},{"PRN":24,"el":2,"az":84,"ss":41,"used":true},{"PRN":26,"el":18,"az":131,"ss":36,"used":false}]}
$GPGLL,5355.17332,N,02730.04006,E,085036.00,A,A*67
{"class":"TPV","tag":"GLL","mode":3,"time":"2010-02-05T08:50:36.000Z","ept":0.005,"lat":53.919555333,"lon":27.500667667,"alt":265.300,"epx":170.223,"epy":95.066,"epv":178.020,"track":278.5400,"speed":0.428,"climb":0.000,"eps":340.45}
$GPRMC,085037.00,A,5355.17281,N,02730.03900,E,0.252,277.72,050210,,,A*64
$GPVTG,277.72,T,,M,0.252,N,0.467,K,A*3A
$GPGGA,085037.00,5355.17281,N,02730.03900,E,1,04,17.34,265.1,M,25.0,M,,*60
$GPGSA,A,3,18,21,24,15,,,,,,,,,18.98,17.34,7.74*07
$GPGSV,3,1,12,03,67,251,,06,72,220,,08,07,331,27,14,06,151,*72
$GPGSV,3,2,12,15,15,032,48,16,15,204,,18,55,074,43,19,47,295,13*79
$GPGSV,3,3,12,21,33,087,47,22,67,157,,24,02,084,41,26,18,131,36*71
{"class":"SKY","tag":"GSV","xdop":11.35,"ydop":6.34,"vdop":7.74,"tdop":1.00,"hdop":17.34,"gdop":14.12,"pdop":18.98,"satellites":[{"PRN":3,"el":67,"az":251,"ss":0,"used":false},{"PRN":6,"el":72,"az":220,"ss":0,"used":false},{"PRN":8,"el":7,"az":331,"ss":27,"used":false},{"PRN":14,"el":6,"az":151,"ss":0,"used":false},{"PRN":15,"el":15,"az":32,"ss":48,"used":true},{"PRN":16,"el":15,"az":204,"ss":0,"used":false},{"PRN":18,"el":55,"az":74,"ss":43,"used":true},{"PRN":19,"el":47,"az":295,"ss":13,"used":false},{"PRN":21,"el":33,"az":87,"ss":47,"used":true},{"PRN":22,"el":67,"az":157,"ss":0,"used":false},{"PRN":24,"el":2,"az":84,"ss":41,"used":true},{"PRN":26,"el":18,"az":131,"ss":36,"used":false}]}
$GPGLL,5355.17281,N,02730.03900,E,085037.00,A,A*67
{"class":"TPV","tag":"GLL","mode":3,"time":"2010-02-05T08:50:37.000Z","ept":0.005,"lat":53.919546833,"lon":27.500650000,"alt":265.100,"epx":170.223,"epy":95.066,"epv":178.020,"track":277.7200,"speed":0.130,"climb":0.000,"eps":340.45}
$GPRMC,085038.00,A,5355.17239,N,02730.03826,E,0.115,,050210,,,A*74
$GPVTG,,T,,M,0.115,N,0.212,K,A*27
$GPGGA,085038.00,5355.17239,N,02730.03826,E,1,04,17.34,265.1,M,25.0,M,,*69
$GPGSA,A,3,18,21,24,15,,,,,,,,,18.99,17.34,7.74*06
$GPGSV,3,1,12,03,67,251,,06,72,220,25,08,07,331,28,14,06,151,*7A
$GPGSV,3,2,12,15,15,032,47,16,15,204,,18,55,074,43,19,47,295,15*70
$GPGSV,3,3,12,21,33,087,47,22,67,157,,24,02,084,41,26,18,131,35*72
{"class":"SKY","tag":"GSV","xdop":11.35,"ydop":6.34,"vdop":7.74,"tdop":1.00,"hdop":17.34,"gdop":14.12,"pdop":18.99,"satellites":[{"PRN":3,"el":67,"az":251,"ss":0,"used":false},{"PRN":6,"el":72,"az":220,"ss":25,"used":false},{"PRN":8,"el":7,"az":331,"ss":28,"used":false},{"PRN":14,"el":6,"az":151,"ss":0,"used":false},{"PRN":15,"el":15,"az":32,"ss":47,"used":true},{"PRN":16,"el":15,"az":204,"ss":0,"used":false},{"PRN":18,"el":55,"az":74,"ss":43,"used":true},{"PRN":19,"el":47,"az":295,"ss":15,"used":false},{"PRN":21,"el":33,"az":87,"ss":47,"used":true},{"PRN":22,"el":67,"az":157,"ss":0,"used":false},{"PRN":24,"el":2,"az":84,"ss":41,"used":true},{"PRN":26,"el":18,"az":131,"ss":35,"used":false}]}
$GPGLL,5355.17239,N,02730.03826,E,085038.00,A,A*6E
{"class":"TPV","tag":"GLL","mode":3,"time":"2010-02-05T08:50:38.000Z","ept":0.005,"lat":53.919539833,"lon":27.500637667,"alt":265.100,"epx":170.223,"epy":95.066,"epv":178.020,"track":0.0000,"speed":0.059,"climb":0.000,"eps":340.45}
$GPRMC,085039.00,A,5355.17198,N,02730.03759,E,0.137,,050210,,,A*7A
$GPVTG,,T,,M,0.137,N,0.254,K,A*25
$GPGGA,085039.00,5355.17198,N,02730.03759,E,1,04,17.35,265.1,M,25.0,M,,*66
$GPGSA,A,3,18,21,24,15,,,,,,,,,19.00,17.35,7.74*06
$GPGSV,3,1,12,03,67,251,28,06,72,220,24,08,07,331,28,14,06,151,*71
$GPGSV,3,2,12,15,15,032,47,16,15,204,,18,55,074,43,19,47,295,16*73
$GPGSV,3,3,12,21,33,087,47,22,67,157,,24,02,084,40,26,18,131,35*73
{"class":"SKY","tag":"GSV","xdop":11.35,"ydop":6.34,"vdop":7.74,"tdop":1.00,"hdop":17.35,"gdop":14.12,"pdop":19.00,"satellites":[{"PRN":3,"el":67,"az":251,"ss":28,"used":false},{"PRN":6,"el":72,"az":220,"ss":24,"used":false},{"PRN":8,"el":7,"az":331,"ss":28,"used":false},{"PRN":14,"el":6,"az":151,"ss":0,"used":false},{"PRN":15,"el":15,"az":32,"ss":47,"used":true},{"PRN":16,"el":15,"az":204,"ss":0,"used":false},{"PRN":18,"el":55,"az":74,"ss":43,"used":true},{"PRN":19,"el":47,"az":295,"ss":16,"used":false},{"PRN":21,"el":33,"az":87,"ss":47,"used":true},{"PRN":22,"el":67,"az":157,"ss":0,"used":false},{"PRN":24,"el":2,"az":84,"ss":40,"used":true},{"PRN":26,"el":18,"az":131,"ss":35,"used":false}]}
$GPGLL,5355.17198,N,02730.03759,E,085039.00,A,A*60
{"class":"TPV","tag":"GLL","mode":3,"time":"2010-02-05T08:50:39.000Z","ept":0.005,"lat":53.919533000,"lon":27.500626500,"alt":265.100,"epx":170.223,"epy":95.066,"epv":178.020,"track":0.0000,"speed":0.070,"climb":0.000,"eps":340.45}
$GPRMC,085040.00,A,5355.17137,N,02730.03625,E,0.168,,050210,,,A*71
$GPVTG,,T,,M,0.168,N,0.311,K,A*2F
$GPGGA,085040.00,5355.17137,N,02730.03625,E,1,04,17.36,265.1,M,25.0,M,,*64
$GPGSA,A,3,18,21,24,15,,,,,,,,,19.01,17.36,7.74*04
$GPGSV,3,1,12,03,67,251,27,06,72,220,23,08,07,331,28,14,06,151,*79
$GPGSV,3,2,12,15,15,032,45,16,15,204,,18,55,074,42,19,47,295,16*70
$GPGSV,3,3,12,21,33,087,45,22,67,157,27,24,02,084,39,26,18,131,33*7C
{"class":"SKY","tag":"GSV","xdop":11.35,"ydop":6.34,"vdop":7.74,"tdop":1.00,"hdop":17.36,"gdop":14.12,"pdop":19.01,"satellites":[{"PRN":3,"el":67,"az":251,"ss":27,"used":false},{"PRN":6,"el":72,"az":220,"ss":23,"used":false},{"PRN":8,"el":7,"az":331,"ss":28,"used":false},{"PRN":14,"el":6,"az":151,"ss":0,"used":false},{"PRN":15,"el":15,"az":32,"ss":45,"used":true},{"PRN":16,"el":15,"az":204,"ss":0,"used":false},{"PRN":18,"el":55,"az":74,"ss":42,"used":true},{"PRN":19,"el":47,"az":295,"ss":16,"used":false},{"PRN":21,"el":33,"az":87,"ss":45,"used":true},{"PRN":22,"el":67,"az":157,"ss":27,"used":false},{"PRN":24,"el":2,"az":84,"ss":39,"used":true},{"PRN":26,"el":18,"az":131,"ss":33,"used":false}]}
$GPGLL,5355.17137,N,02730.03625,E,085040.00,A,A*61
{"class":"TPV","tag":"GLL","mode":3,"time":"2010-02-05T08:50:40.000Z","ept":0.005,"lat":53.919522833,"lon":27.500604167,"alt":265.100,"epx":170.223,"epy":95.066,"epv":178.020,"track":0.0000,"speed":0.086,"climb":0.000,"eps":340.45}
$GPRMC,085041.00,A,5355.17092,N,02730.03549,E,0.298,274.51,050210,,,A*60
$GPVTG,274.51,T,,M,0.298,N,0.552,K,A*39
$GPGGA,085041.00,5355.17092,N,02730.03549,E,1,04,17.37,265.0,M,25.0,M,,*62
$GPGSA,A,3,18,21,24,15,,,,,,,,,19.01,17.37,7.74*05
$GPGSV,3,1,12,03,67,250,27,06,72,220,23,08,07,331,28,14,06,151,*78
$GPGSV,3,2,12,15,15,032,46,16,15,204,,18,55,074,43,19,47,295,17*73
$GPGSV,3,3,12,21,33,087,46,22,67,157,27,24,02,084,39,26,18,131,33*7F
{"class":"SKY","tag":"GSV","xdop":11.35,"ydop":6.34,"vdop":7.74,"tdop":1.00,"hdop":17.37,"gdop":14.12,"pdop":19.01,"satellites":[{"PRN":3,"el":67,"az":250,"ss":27,"used":false},{"PRN":6,"el":72,"az":220,"ss":23,"used":false},{"PRN":8,"el":7,"az":331,"ss":28,"used":false},{"PRN":14,"el":6,"az":151,"ss":0,"used":false},{"PRN":15,"el":15,"az":32,"ss":46,"used":true},{"PRN":16,"el":15,"az":204,"ss":0,"used":false},{"PRN":18,"el":55,"az":74,"ss":43,"used":true},{"PRN":19,"el":47,"az":295,"ss":17,"used":false},{"PRN":21,"el":33,"az":87,"ss":46,"used":true},{"PRN":22,"el":67,"az":157,"ss":27,"used":false},{"PRN":24,"el":2,"az":84,"ss":39,"used":true},{"PRN":26,"el":18,"az":131,"ss":33,"used":false}]}
$GPGLL,5355.17092,N,02730.03549,E,085041.00,A,A*67
{"class":"TPV","tag":"GLL","mode":3,"time":"2010-02-05T08:50:41.000Z","ept":0.005,"lat":53.919515333,"lon":27.500591500,"alt":265.000,"epx":170.223,"epy":95.066,"epv":178.020,"track":274.5100,"speed":0.153,"climb":0.000,"eps":340.45}
$GPRMC,085042.00,A,5355.17075,N,02730.03565,E,0.253,275.14,050210,,,A*63
$GPVTG,275.14,T,,M,0.253,N,0.469,K,A*37
$GPGGA,085042.00,5355.17075,N,02730.03565,E,1,04,17.37,265.0,M,25.0,M,,*66
$GPGSA,A,3,18,21,24,15,,,,,,,,,19.02,17.37,7.74*06
$GPGSV,3,1,12,03,67,250,26,06,72,220,22,08,07,331,28,14,06,151,*78
$GPGSV,3,2,12,15,15,032,46,16,15,204,,18,55,074,44,19,47,295,16*75
$GPGSV,3,3,12,21,33,087,46,22,67,157,27,24,02,084,39,26,18,131,32*7E
{"class":"SKY","tag":"GSV","xdop":11.35,"ydop":6.34,"vdop":7.74,"tdop":1.00,"hdop":17.37,"gdop":14.12,"pdop":19.02,"satellites":[{"PRN":3,"el":67,"az":250,"ss":26,"used":false},{"PRN":6,"el":72,"az":220,"ss":22,"used":false},{"PRN":8,"el":7,"az":331,"ss":28,"used":false},{"PRN":14,"el":6,"az":151,"ss":0,"used":false},{"PRN":15,"el":15,"az":32,"ss":46,"used":true},{"PRN":16,"el":15,"az":204,"ss":0,"used":false},{"PRN":18,"el":55,"az":74,"ss":44,"used":true},{"PRN":19,"el":47,"az":295,"ss":16,"used":false},{"PRN":21,"el":33,"az":87,"ss":46,"used":true},{"PRN":22,"el":67,"az":157,"ss":27,"used":false},{"PRN":24,"el":2,"az":84,"ss":39,"used":true},{"PRN":26,"el":18,"az":131,"ss":32,"used":false}]}
$GPGLL,5355.17075,N,02730.03565,E,085042.00,A,A*63
{"class":"TPV","tag":"GLL","mode":3,"time":"2010-02-05T08:50:42.000Z","ept":0.005,"lat":53.919512500,"lon":27.500594167,"alt":265.000,"epx":170.223,"epy":95.066,"epv":178.020,"track":275.1400,"speed":0.130,"climb":0.000,"eps":340.45}
$GPRMC,085043.00,A,5355.17087,N,02730.03666,E,0.177,,050210,,,A*71
$GPVTG,,T,,M,0.177,N,0.327,K,A*24
$GPGGA,085043.00,5355.17087,N,02730.03666,E,1,04,17.38,265.2,M,25.0,M,,*67
$GPGSA,A,3,18,21,24,15,,,,,,,,,19.03,17.38,7.74*08
$GPGSV,3,1,12,03,67,250,,06,72,220,21,08,07,331,28,14,06,151,*7F
$GPGSV,3,2,12,15,15,032,45,16,15,204,,18,55,074,44,19,47,295,16*76
$GPGSV,3,3,12,21,33,087,46,22,67,157,28,24,02,084,39,26,18,131,30*73
{"class":"SKY","tag":"GSV","xdop":11.35,"ydop":6.34,"vdop":7.74,"tdop":1.00,"hdop":17.38,"gdop":14.12,"pdop":19.03,"satellites":[{"PRN":3,"el":67,"az":250,"ss":0,"used":false},{"PRN":6,"el":72,"az":220,"ss":21,"used":false},{"PRN":8,"el":7,"az":331,"ss":28,"used":false},{"PRN":14,"el":6,"az":151,"ss":0,"used":false},{"PRN":15,"el":15,"az":32,"ss":45,"used":true},{"PRN":16,"el":15,"az":204,"ss":0,"used":false},{"PRN":18,"el":55,"az":74,"ss":44,"used":true},{"PRN":19,"el":47,"az":295,"ss":16,"used":false},{"PRN":21,"el":33,"az":87,"ss":46,"used":true},{"PRN":22,"el":67,"az":157,"ss":28,"used":false},{"PRN":24,"el":2,"az":84,"ss":39,"used":true},{"PRN":26,"el":18,"az":131,"ss":30,"used":false}]}
$GPGLL,5355.17087,N,02730.03666,E,085043.00,A,A*6F
{"class":"TPV","tag":"GLL","mode":3,"time":"2010-02-05T08:50:43.000Z","ept":0.005,"lat":53.919514500,"lon":27.500611000,"alt":265.200,"epx":170.223,"epy":95.066,"epv":178.020,"track":0.0000,"speed":0.091,"climb":0.000,"eps":340.45}
$GPRMC,085044.00,A,5355.17136,N,02730.03861,E,0.309,281.42,050210,,,A*6C
$GPVTG,281.42,T,,M,0.309,N,0.572,K,A*3A
$GPGGA,085044.00,5355.17136,N,02730.03861,E,1,04,17.39,265.4,M,25.0,M,,*65
$GPGSA,A,3,18,21,24,15,,,,,,,,,19.03,17.39,7.74*09
$GPGSV,3,1,12,03,67,250,,06,72,219,19,08,07,331,29,14,06,151,*7F
$GPGSV,3,2,12,15,15,032,45,16,15,204,,18,55,074,44,19,47,295,15*75
$GPGSV,3,3,12,21,33,087,46,22,67,157,28,24,02,084,39,26,18,131,28*7A
{"class":"SKY","tag":"GSV","xdop":11.35,"ydop":6.34,"vdop":7.74,"tdop":1.00,"hdop":17.39,"gdop":14.12,"pdop":19.03,"satellites":[{"PRN":3,"el":67,"az":250,"ss":0,"used":false},{"PRN":6,"el":72,"az":219,"ss":19,"used":false},{"PRN":8,"el":7,"az":331,"ss":29,"used":false},{"PRN":14,"el":6,"az":151,"ss":0,"used":false},{"PRN":15,"el":15,"az":32,"ss":45,"used":true},{"PRN":16,"el":15,"az":204,"ss":0,"used":false},{"PRN":18,"el":55,"az":74,"ss":44,"used":true},{"PRN":19,"el":47,"az":295,"ss":15,"used":false},{"PRN":21,"el":33,"az":87,"ss":46,"used":true},{"PRN":22,"el":67,"az":157,"ss":28,"used":false},{"PRN":24,"el":2,"az":84,"ss":39,"used":true},{"PRN":26,"el":18,"az":131,"ss":28,"used":false}]}
$GPGLL,5355.17136,N,02730.03861,E,085044.00,A,A*6A
{"class":"TPV","tag":"GLL","mode":3,"time":"2010-02-05T08:50:44.000Z","ept":0.005,"lat":53.919522667,"lon":27.500643500,"alt":265.400,"epx":170.223,"epy":95.066,"epv":178.020,"track":281.4200,"speed":0.159,"climb":0.000,"eps":340.45}
$GPRMC,085045.00,A,5355.17209,N,02730.04094,E,0.774,290.35,050210,,,A*69
$GPVTG,290.35,T,,M,0.774,N,1.434,K,A*36
$GPGGA,085045.00,5355.17209,N,02730.04094,E,1,04,17.39,265.7,M,25.0,M,,*6D
$GPGSA,A,3,18,21,24,15,,,,,,,,,19.04,17.39,7.74*0E
$GPGSV,3,1,12,03,67,250,,06,72,219,17,08,07,331,28,14,06,151,*70
$GPGSV,3,2,12,15,15,032,44,16,15,204,,18,55,074,44,19,47,295,14*75
$GPGSV,3,3,12,21,33,087,46,22,67,157,28,24,02,084,39,26,18,131,27*75
{"class":"SKY","tag":"GSV","xdop":11.35,"ydop":6.34,"vdop":7.74,"tdop":1.00,"hdop":17.39,"gdop":14.12,"pdop":19.04,"satellites":[{"PRN":3,"el":67,"az":250,"ss":0,"used":false},{"PRN":6,"el":72,"az":219,"ss":17,"used":false},{"PRN":8,"el":7,"az":331,"ss":28,"used":false},{"PRN":14,"el":6,"az":151,"ss":0,"used":false},{"PRN":15,"el":15,"az":32,"ss":44,"used":true},{"PRN":16,"el":15,"az":204,"ss":0,"used":false},{"PRN":18,"el":55,"az":74,"ss":44,"used":true},{"PRN":19,"el":47,"az":295,"ss":14,"used":false},{"PRN":21,"el":33,"az":87,"ss":46,"used":true},{"PRN":22,"el":67,"az":157,"ss":28,"used":false},{"PRN":24,"el":2,"az":84,"ss":39,"used":true},{"PRN":26,"el":18,"az":131,"ss":27,"used":false}]}
$GPGLL,5355.17209,N,02730.04094,E,085045.00,A,A*61
{"class":"TPV","tag":"GLL","mode":3,"time":"2010-02-05T08:50:45.000Z","ept":0.005,"lat":53.919534833,"lon":27.500682333,"alt":265.700,"epx":170.223,"epy":95.066,"epv":178.020,"track":290.3500,"speed":0.398,"climb":0.000,"eps":340.45}
$GPRMC,085046.00,A,5355.17280,N,02730.04292,E,0.376,298.76,050210,,,A*66
$GPVTG,298.76,T,,M,0.376,N,0.697,K,A*35
$GPGGA,085046.00,5355.17280,N,02730.04292,E,1,04,17.40,266.0,M,25.0,M,,*61
$GPGSA,A,3,18,21,24,15,,,,,,,,,19.05,17.40,7.74*01
$GPGSV,3,1,12,03,67,250,,06,72,219,14,08,07,331,28,14,06,151,*73
$GPGSV,3,2,12,15,15,032,45,16,15,204,,18,55,074,45,19,47,295,15*74
$GPGSV,3,3,12,21,33,087,46,22,67,157,30,24,02,084,40,26,18,131,27*72
{"class":"SKY","tag":"GSV","xdop":11.35,"ydop":6.34,"vdop":7.74,"tdop":1.00,"hdop":17.40,"gdop":14.12,"pdop":19.05,"satellites":[{"PRN":3,"el":67,"az":250,"ss":0,"used":false},{"PRN":6,"el":72,"az":219,"ss":14,"used":false},{"PRN":8,"el":7,"az":331,"ss":28,"used":false},{"PRN":14,"el":6,"az":151,"ss":0,"used":false},{"PRN":15,"el":15,"az":32,"ss":45,"used":true},{"PRN":16,"el":15,"az":204,"ss":0,"used":false},{"PRN":18,"el":55,"az":74,"ss":45,"used":true},{"PRN":19,"el":47,"az":295,"ss":15,"used":false},{"PRN":21,"el":33,"az":87,"ss":46,"used":true},{"PRN":22,"el":67,"az":157,"ss":30,"used":false},{"PRN":24,"el":2,"az":84,"ss":40,"used":true},{"PRN":26,"el":18,"az":131,"ss":27,"used":false}]}
$GPGLL,5355.17280,N,02730.04292,E,085046.00,A,A*67
{"class":"TPV","tag":"GLL","mode":3,"time":"2010-02-05T08:50:46.000Z","ept":0.005,"lat":53.919546667,"lon":27.500715333,"alt":266.000,"epx":170.223,"epy":95.066,"epv":178.020,"track":298.7600,"speed":0.193,"climb":0.000,"eps":340.45}
$GPRMC,085047.00,A,5355.17358,N,02730.04516,E,0.431,306.60,050210,,,A*6D
$GPVTG,306.60,T,,M,0.431,N,0.799,K,A*3F
$GPGGA,085047.00,5355.17358,N,02730.04516,E,1,04,17.41,266.5,M,25.0,M,,*6B
$GPGSA,A,3,18,21,24,15,,,,,,,,,19.05,17.41,7.74*00
$GPGSV,3,1,12,03,67,250,26,06,72,219,11,08,07,331,28,14,06,151,*72
$GPGSV,3,2,12,15,15,032,45,16,15,204,,18,55,074,45,19,47,295,15*74
$GPGSV,3,3,12,21,33,087,46,22,67,157,30,24,02,084,40,26,18,131,29*7C
{"class":"SKY","tag":"GSV","xdop":11.35,"ydop":6.34,"vdop":7.74,"tdop":1.00,"hdop":17.41,"gdop":14.12,"pdop":19.05,"satellites":[{"PRN":3,"el":67,"az":250,"ss":26,"used":false},{"PRN":6,"el":72,"az":219,"ss":11,"used":false},{"PRN":8,"el":7,"az":331,"ss":28,"used":false},{"PRN":14,"el":6,"az":151,"ss":0,"used":false},{"PRN":15,"el":15,"az":32,"ss":45,"used":true},{"PRN":16,"el":15,"az":204,"ss":0,"used":false},{"PRN":18,"el":55,"az":74,"ss":45,"used":true},{"PRN":19,"el":47,"az":295,"ss":15,"used":false},{"PRN":21,"el":33,"az":87,"ss":46,"used":true},{"PRN":22,"el":67,"az":157,"ss":30,"used":false},{"PRN":24,"el":2,"az":84,"ss":40,"used":true},{"PRN":26,"el":18,"az":131,"ss":29,"used":false}]}
$GPGLL,5355.17358,N,02730.04516,E,085047.00,A,A*69
{"class":"TPV","tag":"GLL","mode":3,"time":"2010-02-05T08:50:47.000Z","ept":0.005,"lat":53.919559667,"lon":27.500752667,"alt":266.500,"epx":170.223,"epy":95.066,"epv":178.020,"track":306.6000,"speed":0.222,"climb":0.000,"eps":340.45}
$GPRMC,085048.00,A,5355.17430,N,02730.04697,E,0.219,311.70,050210,,,A*6A
$GPVTG,311.70,T,,M,0.219,N,0.406,K,A*31
$GPGGA,085048.00,5355.17430,N,02730.04697,E,1,04,17.42,266.9,M,25.0,M,,*68
$GPGSA,A,3,18,21,24,15,,,,,,,,,19.06,17.42,7.74*00
$GPGSV,3,1,12,03,67,250,26,06,72,219,08,08,07,331,27,14,06,151,*75
$GPGSV,3,2,12,15,15,032,45,16,15,204,,18,55,074,46,19,47,295,14*76
$GPGSV,3,3,12,21,33,087,47,22,67,157,29,24,02,084,41,26,18,131,32*7E
{"class":"SKY","tag":"GSV","xdop":11.35,"ydop":6.34,"vdop":7.74,"tdop":1.00,"hdop":17.42,"gdop":14.12,"pdop":19.06,"satellites":[{"PRN":3,"el":67,"az":250,"ss":26,"used":false},{"PRN":6,"el":72,"az":219,"ss":8,"used":false},{"PRN":8,"el":7,"az":331,"ss":27,"used":false},{"PRN":14,"el":6,"az":151,"ss":0,"used":false},{"PRN":15,"el":15,"az":32,"ss":45,"used":true},{"PRN":16,"el":15,"az":204,"ss":0,"used":false},{"PRN":18,"el":55,"az":74,"ss":46,"used":true},{"PRN":19,"el":47,"az":295,"ss":14,"used":false},{"PRN":21,"el":33,"az":87,"ss":47,"used":true},{"PRN":22,"el":67,"az":157,"ss":29,"used":false},{"PRN":24,"el":2,"az":84,"ss":41,"used":true},{"PRN":26,"el":18,"az":131,"ss":32,"used":false}]}
$GPGLL,5355.17430,N,02730.04697,E,085048.00,A,A*65
{"class":"TPV","tag":"GLL","mode":3,"time":"2010-02-05T08:50:48.000Z","ept":0.005,"lat":53.919571667,"lon":27.500782833,"alt":266.900,"epx":170.223,"epy":95.066,"epv":178.020,"track":311.7000,"speed":0.113,"climb":0.000,"eps":340.45}
$GPRMC,085049.00,A,5355.17510,N,02730.04910,E,0.590,317.91,050210,,,A*67
$GPVTG,317.91,T,,M,0.590,N,1.092,K,A*36
$GPGGA,085049.00,5355.17510,N,02730.04910,E,1,04,17.42,267.4,M,25.0,M,,*66
$GPGSA,A,3,18,21,24,15,,,,,,,,,19.07,17.42,7.74*01
$GPGSV,3,1,12,03,67,250,26,06,72,219,,08,07,331,27,14,06,151,23*7C
$GPGSV,3,2,12,15,15,032,44,16,15,204,,18,55,074,46,19,47,295,14*77
$GPGSV,3,3,12,21,33,087,47,22,67,157,29,24,02,084,41,26,18,131,33*7F
{"class":"SKY","tag":"GSV","xdop":11.35,"ydop":6.34,"vdop":7.74,"tdop":1.00,"hdop":17.42,"gdop":14.12,"pdop":19.07,"satellites":[{"PRN":3,"el":67,"az":250,"ss":26,"used":false},{"PRN":6,"el":72,"az":219,"ss":0,"used":false},{"PRN":8,"el":7,"az":331,"ss":27,"used":false},{"PRN":14,"el":6,"az":151,"ss":23,"used":false},{"PRN":15,"el":15,"az":32,"ss":44,"used":true},{"PRN":16,"el":15,"az":204,"ss":0,"used":false},{"PRN":18,"el":55,"az":74,"ss":46,"used":true},{"PRN":19,"el":47,"az":295,"ss":14,"used":false},{"PRN":21,"el":33,"az":87,"ss":47,"used":true},{"PRN":22,"el":67,"az":157,"ss":29,"used":false},{"PRN":24,"el":2,"az":84,"ss":41,"used":true},{"PRN":26,"el":18,"az":131,"ss":33,"used":false}]}
$GPGLL,5355.17510,N,02730.04910,E,085049.00,A,A*67
{"class":"TPV","tag":"GLL","mode":3,"time":"2010-02-05T08:50:49.000Z","ept":0.005,"lat":53.919585000,"lon":27.500818333,"alt":267.400,"epx":170.223,"epy":95.066,"epv":178.020,"track":317.9100,"speed":0.304,"climb":0.000,"eps":340.45}
$GPRMC,085050.00,A,5355.17582,N,02730.05082,E,0.273,321.57,050210,,,A*62
$GPVTG,321.57,T,,M,0.273,N,0.505,K,A*39
$GPGGA,085050.00,5355.17582,N,02730.05082,E,1,04,17.43,267.9,M,25.0,M,,*6A
$GPGSA,A,3,18,21,24,15,,,,,,,,,19.07,17.43,7.74*00
$GPGSV,3,1,12,03,67,250,25,06,72,219,,08,07,331,26,14,06,151,*7F
$GPGSV,3,2,12,15,15,032,45,16,15,204,,18,55,074,46,19,47,295,15*77
$GPGSV,3,3,12,21,33,087,47,22,67,157,29,24,02,084,41,26,18,131,34*78
{"class":"SKY","tag":"GSV","xdop":11.35,"ydop":6.34,"vdop":7.74,"tdop":1.00,"hdop":17.43,"gdop":14.12,"pdop":19.07,"satellites":[{"PRN":3,"el":67,"az":250,"ss":25,"used":false},{"PRN":6,"el":72,"az":219,"ss":0,"used":false},{"PRN":8,"el":7,"az":331,"ss":26,"used":false},{"PRN":14,"el":6,"az":151,"ss":0,"used":false},{"PRN":15,"el":15,"az":32,"ss":45,"used":true},{"PRN":16,"el":15,"az":204,"ss":0,"used":false},{"PRN":18,"el":55,"az":74,"ss":46,"used":true},{"PRN":19,"el":47,"az":295,"ss":15,"used":false},{"PRN":21,"el":33,"az":87,"ss":47,"used":true},{"PRN":22,"el":67,"az":157,"ss":29,"used":false},{"PRN":24,"el":2,"az":84,"ss":41,"used":true},{"PRN":26,"el":18,"az":131,"ss":34,"used":false}]}
$GPGLL,5355.17582,N,02730.05082,E,085050.00,A,A*67
{"class":"TPV","tag":"GLL","mode":3,"time":"2010-02-05T08:50:50.000Z","ept":0.005,"lat":53.919597000,"lon":27.500847000,"alt":267.900,"epx":170.223,"epy":95.066,"epv":178.020,"track":321.5700,"speed":0.140,"climb":0.000,"eps":340.45}
$GPRMC,085051.00,A,5355.17632,N,02730.05184,E,0.307,327.68,050210,,,A*64
$GPVTG,327.68,T,,M,0.307,N,0.569,K,A*3B
$GPGGA,085051.00,5355.17632,N,02730.05184,E,1,04,17.44,268.3,M,25.0,M,,*66
$GPGSA,A,3,18,21,24,15,,,,,,,,,19.08,17.44,7.74*08
$GPGSV,3,1,12,03,67,250,,06,72,219,,08,07,331,26,14,06,151,*78
$GPGSV,3,2,12,15,15,032,45,16,15,204,,18,55,074,46,19,47,295,16*74
$GPGSV,3,3,12,21,33,087,47,22,67,157,28,24,02,084,41,26,18,131,34*79
{"class":"SKY","tag":"GSV","xdop":11.35,"ydop":6.34,"vdop":7.74,"tdop":1.00,"hdop":17.44,"gdop":14.12,"pdop":19.08,"satellites":[{"PRN":3,"el":67,"az":250,"ss":0,"used":false},{"PRN":6,"el":72,"az":219,"ss":0,"used":false},{"PRN":8,"el":7,"az":331,"ss":26,"used":false},{"PRN":14,"el":6,"az":151,"ss":0,"used":false},{"PRN":15,"el":15,"az":32,"ss":45,"used":true},{"PRN":16,"el":15,"az":204,"ss":0,"used":false},{"PRN":18,"el":55,"az":74,"ss":46,"used":true},{"PRN":19,"el":47,"az":295,"ss":16,"used":false},{"PRN":21,"el":33,"az":87,"ss":47,"used":true},{"PRN":22,"el":67,"az":157,"ss":28,"used":false},{"PRN":24,"el":2,"az":84,"ss":41,"used":true},{"PRN":26,"el":18,"az":131,"ss":34,"used":false}]}
$GPGLL,5355.17632,N,02730.05184,E,085051.00,A,A*69
{"class":"TPV","tag":"GLL","mode":3,"time":"2010-02-05T08:50:51.000Z","ept":0.005,"lat":53.919605333,"lon":27.500864000,"alt":268.300,"epx":170.223,"epy":95.066,"epv":178.020,"track":327.6800,"speed":0.158,"climb":0.000,"eps":340.45}
$GPRMC,085052.00,A,5355.17477,N,02730.04765,E,0.521,322.69,050210,,,A*6A
$GPVTG,322.69,T,,M,0.521,N,0.966,K,A*3E
$GPGGA,085052.00,5355.17477,N,02730.04765,E,1,05,3.57,266.0,M,25.0,M,,*55
$GPGSA,A,3,18,21,26,24,15,,,,,,,,4.12,3.57,2.06*0C
$GPGSV,3,1,12,03,67,250,,06,72,219,,08,07,331,26,14,06,151,26*7C
$GPGSV,3,2,12,15,15,032,44,16,15,204,,18,55,074,46,19,47,295,16*75
$GPGSV,3,3,12,21,33,087,47,22,67,157,28,24,02,084,41,26,18,130,35*79
{"class":"SKY","tag":"GSV","xdop":11.35,"ydop":6.34,"vdop":2.06,"tdop":1.00,"hdop":3.57,"gdop":14.12,"pdop":4.12,"satellites":[{"PRN":3,"el":67,"az":250,"ss":0,"used":false},{"PRN":6,"el":72,"az":219,"ss":0,"used":false},{"PRN":8,"el":7,"az":331,"ss":26,"used":false},{"PRN":14,"el":6,"az":151,"ss":26,"used":false},{"PRN":15,"el":15,"az":32,"ss":44,"used":true},{"PRN":16,"el":15,"az":204,"ss":0,"used":false},{"PRN":18,"el":55,"az":74,"ss":46,"used":true},{"PRN":19,"el":47,"az":295,"ss":16,"used":false},{"PRN":21,"el":33,"az":87,"ss":47,"used":true},{"PRN":22,"el":67,"az":157,"ss":28,"used":false},{"PRN":24,"el":2,"az":84,"ss":41,"used":true},{"PRN":26,"el":18,"az":130,"ss":35,"used":true}]}
$GPGLL,5355.17477,N,02730.04765,E,085052.00,A,A*61
{"class":"TPV","tag":"GLL","mode":3,"time":"2010-02-05T08:50:52.000Z","ept":0.005,"lat":53.919579500,"lon":27.500794167,"alt":266.000,"epx":170.223,"epy":95.066,"epv":178.020,"track":322.6900,"speed":0.268,"climb":0.000,"eps":340.45}
$GPRMC,085053.00,A,5355.16685,N,02730.02924,E,0.116,,050210,,,A*7A
$GPVTG,,T,,M,0.116,N,0.215,K,A*23
$GPGGA,085053.00,5355.16685,N,02730.02924,E,1,04,4.99,244.3,M,25.0,M,,*50
$GPGSA,A,3,18,21,26,15,,,,,,,,,5.48,4.99,2.26*03
$GPGSV,3,1,12,03,67,250,,06,72,219,,08,07,331,25,14,06,151,25*7C
$GPGSV,3,2,12,15,14,032,43,16,15,204,,18,55,074,45,19,47,295,18*7E
$GPGSV,3,3,12,21,33,087,46,22,67,157,28,24,02,084,41,26,18,130,34*79
{"class":"SKY","tag":"GSV","xdop":11.35,"ydop":6.34,"vdop":2.26,"tdop":1.00,"hdop":4.99,"gdop":14.12,"pdop":5.48,"satellites":[{"PRN":3,"el":67,"az":250,"ss":0,"used":false},{"PRN":6,"el":72,"az":219,"ss":0,"used":false},{"PRN":8,"el":7,"az":331,"ss":25,"used":false},{"PRN":14,"el":6,"az":151,"ss":25,"used":false},{"PRN":15,"el":14,"az":32,"ss":43,"used":true},{"PRN":16,"el":15,"az":204,"ss":0,"used":false},{"PRN":18,"el":55,"az":74,"ss":45,"used":true},{"PRN":19,"el":47,"az":295,"ss":18,"used":false},{"PRN":21,"el":33,"az":87,"ss":46,"used":true},{"PRN":22,"el":67,"az":157,"ss":28,"used":false},{"PRN":24,"el":2,"az":84,"ss":41,"used":false},{"PRN":26,"el":18,"az":130,"ss":34,"used":true}]}
$GPGLL,5355.16685,N,02730.02924,E,085053.00,A,A*63
{"class":"TPV","tag":"GLL","mode":3,"time":"2010-02-05T08:50:53.000Z","ept":0.005,"lat":53.919447500,"lon":27.500487333,"alt":244.300,"epx":170.223,"epy":95.066,"epv":47.380,"track":0.0000,"speed":0.060,"climb":0.000,"eps":340.45}
$GPRMC,085054.00,A,5355.16719,N,02730.02813,E,0.044,,050210,,,A*7A
$GPVTG,,T,,M,0.044,N,0.082,K,A*29
$GPGGA,085054.00,5355.16719,N,02730.02813,E,1,04,4.99,243.9,M,25.0,M,,*5B
$GPGSA,A,3,18,21,26,15,,,,,,,,,5.48,4.99,2.26*03
$GPGSV,3,1,12,03,67,250,,06,72,219,,08,07,331,24,14,06,151,25*7D
$GPGSV,3,2,12,15,14,032,44,16,14,204,,18,55,074,46,19,47,295,17*74
$GPGSV,3,3,12,21,33,087,47,22,67,157,27,24,02,084,41,26,18,130,33*70
{"class":"SKY","tag":"GSV","xdop":11.35,"ydop":6.34,"vdop":2.26,"tdop":1.00,"hdop":4.99,"gdop":14.12,"pdop":5.48,"satellites":[{"PRN":3,"el":67,"az":250,"ss":0,"used":false},{"PRN":6,"el":72,"az":219,"ss":0,"used":false},{"PRN":8,"el":7,"az":331,"ss":24,"used":false},{"PRN":14,"el":6,"az":151,"ss":25,"used":false},{"PRN":15,"el":14,"az":32,"ss":44,"used":true},{"PRN":16,"el":14,"az":204,"ss":0,"used":false},{"PRN":18,"el":55,"az":74,"ss":46,"used":true},{"PRN":19,"el":47,"az":295,"ss":17,"used":false},{"PRN":21,"el":33,"az":87,"ss":47,"used":true},{"PRN":22,"el":67,"az":157,"ss":27,"used":false},{"PRN":24,"el":2,"az":84,"ss":41,"used":false},{"PRN":26,"el":18,"az":130,"ss":33,"used":true}]}
$GPGLL,5355.16719,N,02730.02813,E,085054.00,A,A*65
{"class":"TPV","tag":"GLL","mode":3,"time":"2010-02-05T08:50:54.000Z","ept":0.005,"lat":53.919453167,"lon":27.500468833,"alt":243.900,"epx":170.223,"epy":95.066,"epv":51.980,"track":0.0000,"speed":0.023,"climb":0.000,"eps":340.45}
$GPRMC,085055.00,A,5355.16726,N,02730.02707,E,0.025,,050210,,,A*7A
$GPVTG,,T,,M,0.025,N,0.047,K,A*27
$GPGGA,085055.00,5355.16726,N,02730.02707,E,1,04,4.99,243.9,M,25.0,M,,*5C
$GPGSA,A,3,18,21,26,15,,,,,,,,,5.48,4.99,2.26*03
$GPGSV,3,1,12,03,67,250,,06,72,219,25,08,07,331,23,14,06,151,24*7C
$GPGSV,3,2,12,15,14,032,43,16,14,204,,18,55,074,46,19,47,295,17*73
$GPGSV,3,3,12,21,33,087,48,22,67,157,26,24,02,084,41,26,18,130,33*7E
{"class":"SKY","tag":"GSV","xdop":11.35,"ydop":6.34,"vdop":2.26,"tdop":1.00,"hdop":4.99,"gdop":14.12,"pdop":5.48,"satellites":[{"PRN":3,"el":67,"az":250,"ss":0,"used":false},{"PRN":6,"el":72,"az":219,"ss":25,"used":false},{"PRN":8,"el":7,"az":331,"ss":23,"used":false},{"PRN":14,"el":6,"az":151,"ss":24,"used":false},{"PRN":15,"el":14,"az":32,"ss":43,"used":true},{"PRN":16,"el":14,"az":204,"ss":0,"used":false},{"PRN":18,"el":55,"az":74,"ss":46,"used":true},{"PRN":19,"el":47,"az":295,"ss":17,"used":false},{"PRN":21,"el":33,"az":87,"ss":48,"used":true},{"PRN":22,"el":67,"az":157,"ss":26,"used":false},{"PRN":24,"el":2,"az":84,"ss":41,"used":false},{"PRN":26,"el":18,"az":130,"ss":33,"used":true}]}
$GPGLL,5355.16726,N,02730.02707,E,085055.00,A,A*62
{"class":"TPV","tag":"GLL","mode":3,"time":"2010-02-05T08:50:55.000Z","ept":0.005,"lat":53.919454333,"lon":27.500451167,"alt":243.900,"epx":170.223,"epy":95.066,"epv":51.980,"track":0.0000,"speed":0.013,"climb":0.000,"eps":340.45}
$GPRMC,085056.00,A,5355.16743,N,02730.02569,E,0.104,,050210,,,A*72
$GPVTG,,T,,M,0.104,N,0.192,K,A*2C
$GPGGA,085056.00,5355.16743,N,02730.02569,E,1,04,4.99,244.1,M,25.0,M,,*59
$GPGSA,A,3,18,21,26,15,,,,,,,,,5.48,4.99,2.27*02
$GPGSV,3,1,12,03,67,250,,06,72,219,24,08,07,331,23,14,06,151,24*7D
$GPGSV,3,2,12,15,14,032,43,16,14,204,,18,55,073,46,19,47,295,16*75
$GPGSV,3,3,12,21,33,087,48,22,67,157,25,24,02,084,41,26,18,130,33*7D
{"class":"SKY","tag":"GSV","xdop":11.35,"ydop":6.34,"vdop":2.27,"tdop":1.00,"hdop":4.99,"gdop":14.12,"pdop":5.48,"satellites":[{"PRN":3,"el":67,"az":250,"ss":0,"used":false},{"PRN":6,"el":72,"az":219,"ss":24,"used":false},{"PRN":8,"el":7,"az":331,"ss":23,"used":false},{"PRN":14,"el":6,"az":151,"ss":24,"used":false},{"PRN":15,"el":14,"az":32,"ss":43,"used":true},{"PRN":16,"el":14,"az":204,"ss":0,"used":false},{"PRN":18,"el":55,"az":73,"ss":46,"used":true},{"PRN":19,"el":47,"az":295,"ss":16,"used":false},{"PRN":21,"el":33,"az":87,"ss":48,"used":true},{"PRN":22,"el":67,"az":157,"ss":25,"used":false},{"PRN":24,"el":2,"az":84,"ss":41,"used":false},{"PRN":26,"el":18,"az":130,"ss":33,"used":true}]}
$GPGLL,5355.16743,N,02730.02569,E,085056.00,A,A*68
{"class":"TPV","tag":"GLL","mode":3,"time":"2010-02-05T08:50:56.000Z","ept":0.005,"lat":53.919457167,"lon":27.500428167,"alt":244.100,"epx":170.223,"epy":95.066,"epv":51.980,"track":0.0000,"speed":0.054,"climb":0.000,"eps":340.45}
$GPRMC,085057.00,A,5355.16755,N,02730.02418,E,0.054,,050210,,,A*77
$GPVTG,,T,,M,0.054,N,0.100,K,A*23
$GPGGA,085057.00,5355.16755,N,02730.02418,E,1,04,4.99,244.3,M,25.0,M,,*5A
$GPGSA,A,3,18,21,26,15,,,,,,,,,5.48,4.99,2.27*02
$GPGSV,3,1,12,03,67,250,,06,72,219,24,08,07,331,25,14,06,151,25*7A
$GPGSV,3,2,12,15,14,032,44,16,14,204,,18,55,073,47,19,48,295,15*7F
$GPGSV,3,3,12,21,33,087,50,22,67,157,24,24,02,084,42,26,18,130,35*70
{"class":"SKY","tag":"GSV","xdop":11.35,"ydop":6.34,"vdop":2.27,"tdop":1.00,"hdop":4.99,"gdop":14.12,"pdop":5.48,"satellites":[{"PRN":3,"el":67,"az":250,"ss":0,"used":false},{"PRN":6,"el":72,"az":219,"ss":24,"used":false},{"PRN":8,"el":7,"az":331,"ss":25,"used":false},{"PRN":14,"el":6,"az":151,"ss":25,"used":false},{"PRN":15,"el":14,"az":32,"ss":44,"used":true},{"PRN":16,"el":14,"az":204,"ss":0,"used":false},{"PRN":18,"el":55,"az":73,"ss":47,"used":true},{"PRN":19,"el":48,"az":295,"ss":15,"used":false},{"PRN":21,"el":33,"az":87,"ss":50,"used":true},{"PRN":22,"el":67,"az":157,"ss":24,"used":false},{"PRN":24,"el":2,"az":84,"ss":42,"used":false},{"PRN":26,"el":18,"az":130,"ss":35,"used":true}]}
$GPGLL,5355.16755,N,02730.02418,E,085057.00,A,A*69
{"class":"TPV","tag":"GLL","mode":3,"time":"2010-02-05T08:50:57.000Z","ept":0.005,"lat":53.919459167,"lon":27.500403000,"alt":244.300,"epx":170.223,"epy":95.066,"epv":52.210,"track":0.0000,"speed":0.028,"climb":0.000,"eps":340.45}
$GPRMC,085058.00,A,5355.16773,N,02730.02276,E,0.083,,050210,,,A*78
$GPVTG,,T,,M,0.083,N,0.154,K,A*28
$GPGGA,085058.00,5355.16773,N,02730.02276,E,1,04,4.99,244.3,M,25.0,M,,*5F
$GPGSA,A,3,18,21,26,15,,,,,,,,,5.48,4.99,2.27*02
$GPGSV,3,1,12,03,67,250,,06,72,219,22,08,07,331,26,14,06,151,24*7E
$GPGSV,3,2,12,15,14,032,43,16,14,204,,18,55,073,46,19,48,295,13*7F
$GPGSV,3,3,12,21,33,087,49,22,67,157,,24,02,084,42,26,18,130,34*7F
{"class":"SKY","tag":"GSV","xdop":11.35,"ydop":6.34,"vdop":2.27,"tdop":1.00,"hdop":4.99,"gdop":14.12,"pdop":5.48,"satellites":[{"PRN":3,"el":67,"az":250,"ss":0,"used":false},{"PRN":6,"el":72,"az":219,"ss":22,"used":false},{"PRN":8,"el":7,"az":331,"ss":26,"used":false},{"PRN":14,"el":6,"az":151,"ss":24,"used":false},{"PRN":15,"el":14,"az":32,"ss":43,"used":true},{"PRN":16,"el":14,"az":204,"ss":0,"used":false},{"PRN":18,"el":55,"az":73,"ss":46,"used":true},{"PRN":19,"el":48,"az":295,"ss":13,"used":false},{"PRN":21,"el":33,"az":87,"ss":49,"used":true},{"PRN":22,"el":67,"az":157,"ss":0,"used":false},{"PRN":24,"el":2,"az":84,"ss":42,"used":false},{"PRN":26,"el":18,"az":130,"ss":34,"used":true}]}
$GPGLL,5355.16773,N,02730.02276,E,085058.00,A,A*6C
{"class":"TPV","tag":"GLL","mode":3,"time":"2010-02-05T08:50:58.000Z","ept":0.005,"lat":53.919462167,"lon":27.500379333,"alt":244.300,"epx":170.223,"epy":95.066,"epv":52.210,"track":0.0000,"speed":0.043,"climb":0.000,"eps":340.45}
$GPRMC,085059.00,A,5355.16784,N,02730.02176,E,0.038,,050210,,,A*72
$GPVTG,,T,,M,0.038,N,0.071,K,A*2E
$GPGGA,085059.00,5355.16784,N,02730.02176,E,1,04,4.99,244.2,M,25.0,M,,*54
$GPGSA,A,3,18,21,26,15,,,,,,,,,5.48,4.99,2.27*02
$GPGSV,3,1,12,03,67,250,,06,72,219,19,08,07,331,26,14,06,151,24*76
$GPGSV,3,2,12,15,14,032,43,16,14,204,,18,55,073,46,19,48,295,12*7E
$GPGSV,3,3,12,21,32,087,49,22,67,157,23,24,02,084,42,26,18,130,34*7F
{"class":"SKY","tag":"GSV","xdop":11.35,"ydop":6.34,"vdop":2.27,"tdop":1.00,"hdop":4.99,"gdop":14.12,"pdop":5.48,"satellites":[{"PRN":3,"el":67,"az":250,"ss":0,"used":false},{"PRN":6,"el":72,"az":219,"ss":19,"used":false},{"PRN":8,"el":7,"az":331,"ss":26,"used":false},{"PRN":14,"el":6,"az":151,"ss":24,"used":false},{"PRN":15,"el":14,"az":32,"ss":43,"used":true},{"PRN":16,"el":14,"az":204,"ss":0,"used":false},{"PRN":18,"el":55,"az":73,"ss":46,"used":true},{"PRN":19,"el":48,"az":295,"ss":12,"used":false},{"PRN":21,"el":32,"az":87,"ss":49,"used":true},{"PRN":22,"el":67,"az":157,"ss":23,"used":false},{"PRN":24,"el":2,"az":84,"ss":42,"used":false},{"PRN":26,"el":18,"az":130,"ss":34,"used":true}]}
$GPGLL,5355.16784,N,02730.02176,E,085059.00,A,A*66
{"class":"TPV","tag":"GLL","mode":3,"time":"2010-02-05T08:50:59.000Z","ept":0.005,"lat":53.919464000,"lon":27.500362667,"alt":244.200,"epx":170.223,"epy":95.066,"epv":52.210,"track":0.0000,"speed":0.020,"climb":0.000,"eps":340.45}
$GPRMC,085100.00,A,5355.16789,N,02730.02093,E,0.059,,050210,,,A*7F
$GPVTG,,T,,M,0.059,N,0.109,K,A*27
$GPGGA,085100.00,5355.16789,N,02730.02093,E,1,04,4.99,244.3,M,25.0,M,,*5F
$GPGSA,A,3,18,21,26,15,,,,,,,,,5.48,4.99,2.27*02
$GPGSV,3,1,12,03,67,250,27,06,72,219,17,08,07,331,27,14,06,151,23*7B
$GPGSV,3,2,12,15,14,032,44,16,14,204,,18,55,073,46,19,48,295,14*7F
$GPGSV,3,3,12,21,32,087,49,22,67,156,23,24,02,084,41,26,18,130,34*7D
{"class":"SKY","tag":"GSV","xdop":11.35,"ydop":6.34,"vdop":2.27,"tdop":1.00,"hdop":4.99,"gdop":14.12,"pdop":5.48,"satellites":[{"PRN":3,"el":67,"az":250,"ss":27,"used":false},{"PRN":6,"el":72,"az":219,"ss":17,"used":false},{"PRN":8,"el":7,"az":331,"ss":27,"used":false},{"PRN":14,"el":6,"az":151,"ss":23,"used":false},{"PRN":15,"el":14,"az":32,"ss":44,"used":true},{"PRN":16,"el":14,"az":204,"ss":0,"used":false},{"PRN":18,"el":55,"az":73,"ss":46,"used":true},{"PRN":19,"el":48,"az":295,"ss":14,"used":false},{"PRN":21,"el":32,"az":87,"ss":49,"used":true},{"PRN":22,"el":67,"az":156,"ss":23,"used":false},{"PRN":24,"el":2,"az":84,"ss":41,"used":false},{"PRN":26,"el":18,"az":130,"ss":34,"used":true}]}
$GPGLL,5355.16789,N,02730.02093,E,085100.00,A,A*6C
{"class":"TPV","tag":"GLL","mode":3,"time":"2010-02-05T08:51:00.000Z","ept":0.005,"lat":53.919464833,"lon":27.500348833,"alt":244.300,"epx":170.223,"epy":95.066,"epv":52.210,"track":0.0000,"speed":0.030,"climb":0.000,"eps":340.45}
$GPRMC,085101.00,A,5355.16793,N,02730.02037,E,0.033,,050210,,,A*77
$GPVTG,,T,,M,0.033,N,0.062,K,A*27
$GPGGA,085101.00,5355.16793,N,02730.02037,E,1,04,4.99,244.4,M,25.0,M,,*5C
$GPGSA,A,3,18,21,26,15,,,,,,,,,5.48,4.99,2.27*02
$GPGSV,3,1,12,03,67,250,25,06,72,219,15,08,07,331,27,14,06,151,22*7A
$GPGSV,3,2,12,15,14,032,44,16,14,204,,18,55,073,46,19,48,295,15*7E
$GPGSV,3,3,12,21,32,087,49,22,67,156,24,24,02,084,41,26,18,130,34*7A
{"class":"SKY","tag":"GSV","xdop":11.35,"ydop":6.34,"vdop":2.27,"tdop":1.00,"hdop":4.99,"gdop":14.12,"pdop":5.48,"satellites":[{"PRN":3,"el":67,"az":250,"ss":25,"used":false},{"PRN":6,"el":72,"az":219,"ss":15,"used":false},{"PRN":8,"el":7,"az":331,"ss":27,"used":false},{"PRN":14,"el":6,"az":151,"ss":22,"used":false},{"PRN":15,"el":14,"az":32,"ss":44,"used":true},{"PRN":16,"el":14,"az":204,"ss":0,"used":false},{"PRN":18,"el":55,"az":73,"ss":46,"used":true},{"PRN":19,"el":48,"az":295,"ss":15,"used":false},{"PRN":21,"el":32,"az":87,"ss":49,"used":true},{"PRN":22,"el":67,"az":156,"ss":24,"used":false},{"PRN":24,"el":2,"az":84,"ss":41,"used":false},{"PRN":26,"el":18,"az":130,"ss":34,"used":true}]}
$GPGLL,5355.16793,N,02730.02037,E,085101.00,A,A*68
{"class":"TPV","tag":"GLL","mode":3,"time":"2010-02-05T08:51:01.000Z","ept":0.005,"lat":53.919465500,"lon":27.500339500,"alt":244.400,"epx":170.223,"epy":95.066,"epv":52.210,"track":0.0000,"speed":0.017,"climb":0.000,"eps":340.45}
$GPRMC,085102.00,A,5355.16792,N,02730.01981,E,0.245,317.09,050210,,,A*63
$GPVTG,317.09,T,,M,0.245,N,0.453,K,A*30
$GPGGA,085102.00,5355.16792,N,02730.01981,E,1,04,4.99,244.5,M,25.0,M,,*58
$GPGSA,A,3,18,21,26,15,,,,,,,,,5.48,4.99,2.27*02
$GPGSV,3,1,12,03,67,250,25,06,72,219,17,08,07,331,28,14,06,151,20*75
$GPGSV,3,2,12,15,14,032,44,16,14,204,,18,55,073,46,19,48,295,15*7E
$GPGSV,3,3,12,21,32,087,49,22,67,156,25,24,01,085,41,26,18,130,33*7E
{"class":"SKY","tag":"GSV","xdop":11.35,"ydop":6.34,"vdop":2.27,"tdop":1.00,"hdop":4.99,"gdop":14.12,"pdop":5.48,"satellites":[{"PRN":3,"el":67,"az":250,"ss":25,"used":false},{"PRN":6,"el":72,"az":219,"ss":17,"used":false},{"PRN":8,"el":7,"az":331,"ss":28,"used":false},{"PRN":14,"el":6,"az":151,"ss":20,"used":false},{"PRN":15,"el":14,"az":32,"ss":44,"used":true},{"PRN":16,"el":14,"az":204,"ss":0,"used":false},{"PRN":18,"el":55,"az":73,"ss":46,"used":true},{"PRN":19,"el":48,"az":295,"ss":15,"used":false},{"PRN":21,"el":32,"az":87,"ss":49,"used":true},{"PRN":22,"el":67,"az":156,"ss":25,"used":false},{"PRN":24,"el":1,"az":85,"ss":41,"used":false},{"PRN":26,"el":18,"az":130,"ss":33,"used":true}]}
$GPGLL,5355.16792,N,02730.01981,E,085102.00,A,A*6D
{"class":"TPV","tag":"GLL","mode":3,"time":"2010-02-05T08:51:02.000Z","ept":0.005,"lat":53.919465333,"lon":27.500330167,"alt":244.500,"epx":170.223,"epy":95.066,"epv":52.210,"track":317.0900,"speed":0.126,"climb":0.000,"eps":340.45}
$GPRMC,085103.00,A,5355.16789,N,02730.01903,E,0.466,312.02,050210,,,A*6B
$GPVTG,312.02,T,,M,0.466,N,0.863,K,A*36
$GPGGA,085103.00,5355.16789,N,02730.01903,E,1,04,4.99,244.5,M,25.0,M,,*59
$GPGSA,A,3,18,21,26,15,,,,,,,,,5.48,4.99,2.27*02
$GPGSV,3,1,12,03,67,250,24,06,72,219,20,08,07,331,28,14,06,151,*72
$GPGSV,3,2,12,15,14,032,44,16,14,204,,18,55,073,46,19,48,295,15*7E
$GPGSV,3,3,12,21,32,087,49,22,67,156,25,24,01,085,41,26,18,130,33*7E
{"class":"SKY","tag":"GSV","xdop":11.35,"ydop":6.34,"vdop":2.27,"tdop":1.00,"hdop":4.99,"gdop":14.12,"pdop":5.48,"satellites":[{"PRN":3,"el":67,"az":250,"ss":24,"used":false},{"PRN":6,"el":72,"az":219,"ss":20,"used":false},{"PRN":8,"el":7,"az":331,"ss":28,"used":false},{"PRN":14,"el":6,"az":151,"ss":0,"used":false},{"PRN":15,"el":14,"az":32,"ss":44,"used":true},{"PRN":16,"el":14,"az":204,"ss":0,"used":false},{"PRN":18,"el":55,"az":73,"ss":46,"used":true},{"PRN":19,"el":48,"az":295,"ss":15,"used":false},{"PRN":21,"el":32,"az":87,"ss":49,"used":true},{"PRN":22,"el":67,"az":156,"ss":25,"used":false},{"PRN":24,"el":1,"az":85,"ss":41,"used":false},{"PRN":26,"el":18,"az":130,"ss":33,"used":true}]}
$GPGLL,5355.16789,N,02730.01903,E,085103.00,A,A*6C
{"class":"TPV","tag":"GLL","mode":3,"time":"2010-02-05T08:51:03.000Z","ept":0.005,"lat":53.919464833,"lon":27.500317167,"alt":244.500,"epx":170.223,"epy":95.066,"epv":52.210,"track":312.0200,"speed":0.240,"climb":0.000,"eps":340.45}
$GPRMC,085104.00,A,5355.16784,N,02730.01827,E,0.519,307.35,050210,,,A*6F
$GPVTG,307.35,T,,M,0.519,N,0.962,K,A*3F
$GPGGA,085104.00,5355.16784,N,02730.01827,E,1,04,4.99,244.3,M,25.0,M,,*52
$GPGSA,A,3,18,21,26,15,,,,,,,,,5.48,4.99,2.27*02
$GPGSV,3,1,12,03,67,250,24,06,72,219,21,08,07,331,28,14,06,151,*73
$GPGSV,3,2,12,15,14,032,44,16,14,204,,18,55,073,46,19,48,295,14*7F
$GPGSV,3,3,12,21,32,087,49,22,67,156,25,24,01,085,41,26,18,130,33*7E
{"class":"SKY","tag":"GSV","xdop":11.35,"ydop":6.34,"vdop":2.27,"tdop":1.00,"hdop":4.99,"gdop":14.12,"pdop":5.48,"satellites":[{"PRN":3,"el":67,"az":250,"ss":24,"used":false},{"PRN":6,"el":72,"az":219,"ss":21,"used":false},{"PRN":8,"el":7,"az":331,"ss":28,"used":false},{"PRN":14,"el":6,"az":151,"ss":0,"used":false},{"PRN":15,"el":14,"az":32,"ss":44,"used":true},{"PRN":16,"el":14,"az":204,"ss":0,"used":false},{"PRN":18,"el":55,"az":73,"ss":46,"used":true},{"PRN":19,"el":48,"az":295,"ss":14,"used":false},{"PRN":21,"el":32,"az":87,"ss":49,"used":true},{"PRN":22,"el":67,"az":156,"ss":25,"used":false},{"PRN":24,"el":1,"az":85,"ss":41,"used":false},{"PRN":26,"el":18,"az":130,"ss":33,"used":true}]}
$GPGLL,5355.16784,N,02730.01827,E,085104.00,A,A*61
{"class":"TPV","tag":"GLL","mode":3,"time":"2010-02-05T08:51:04.000Z","ept":0.005,"lat":53.919464000,"lon":27.500304500,"alt":244.300,"epx":170.223,"epy":95.066,"epv":52.210,"track":307.3500,"speed":0.267,"climb":0.000,"eps":340.45}
$GPRMC,085105.00,A,5355.16779,N,02730.01767,E,0.466,302.81,050210,,,A*64
$GPVTG,302.81,T,,M,0.466,N,0.863,K,A*3C
$GPGGA,085105.00,5355.16779,N,02730.01767,E,1,04,4.99,244.1,M,25.0,M,,*58
$GPGSA,A,3,18,21,26,15,,,,,,,,,5.48,4.99,2.27*02
$GPGSV,3,1,12,03,67,250,24,06,72,219,21,08,07,331,28,14,06,151,*73
$GPGSV,3,2,12,15,14,032,43,16,14,204,,18,55,073,46,19,48,295,12*7E
$GPGSV,3,3,12,21,32,087,49,22,67,156,24,24,01,085,42,26,18,130,33*7C
{"class":"SKY","tag":"GSV","xdop":11.35,"ydop":6.34,"vdop":2.27,"tdop":1.00,"hdop":4.99,"gdop":14.12,"pdop":5.48,"satellites":[{"PRN":3,"el":67,"az":250,"ss":24,"used":false},{"PRN":6,"el":72,"az":219,"ss":21,"used":false},{"PRN":8,"el":7,"az":331,"ss":28,"used":false},{"PRN":14,"el":6,"az":151,"ss":0,"used":false},{"PRN":15,"el":14,"az":32,"ss":43,"used":true},{"PRN":16,"el":14,"az":204,"ss":0,"used":false},{"PRN":18,"el":55,"az":73,"ss":46,"used":true},{"PRN":19,"el":48,"az":295,"ss":12,"used":false},{"PRN":21,"el":32,"az":87,"ss":49,"used":true},{"PRN":22,"el":67,"az":156,"ss":24,"used":false},{"PRN":24,"el":1,"az":85,"ss":42,"used":false},{"PRN":26,"el":18,"az":130,"ss":33,"used":true}]}
$GPGLL,5355.16779,N,02730.01767,E,085105.00,A,A*69
{"class":"TPV","tag":"GLL","mode":3,"time":"2010-02-05T08:51:05.000Z","ept":0.005,"lat":53.919463167,"lon":27.500294500,"alt":244.100,"epx":170.223,"epy":95.066,"epv":52.210,"track":302.8100,"speed":0.240,"climb":0.000,"eps":340.45}
$GPRMC,085106.00,A,5355.16774,N,02730.01722,E,0.239,298.38,050210,,,A*67
$GPVTG,298.38,T,,M,0.239,N,0.443,K,A*3E
$GPGGA,085106.00,5355.16774,N,02730.01722,E,1,04,4.99,243.8,M,25.0,M,,*59
$GPGSA,A,3,18,21,26,15,,,,,,,,,5.48,4.99,2.27*02
$GPGSV,3,1,12,03,67,250,24,06,72,219,20,08,07,331,27,14,06,151,*7D
$GPGSV,3,2,12,15,14,032,43,16,14,204,,18,55,073,46,19,48,295,10*7C
$GPGSV,3,3,12,21,32,087,48,22,67,156,,24,01,085,42,26,18,130,34*7C
{"class":"SKY","tag":"GSV","xdop":11.35,"ydop":6.34,"vdop":2.27,"tdop":1.00,"hdop":4.99,"gdop":14.12,"pdop":5.48,"satellites":[{"PRN":3,"el":67,"az":250,"ss":24,"used":false},{"PRN":6,"el":72,"az":219,"ss":20,"used":false},{"PRN":8,"el":7,"az":331,"ss":27,"used":false},{"PRN":14,"el":6,"az":151,"ss":0,"used":false},{"PRN":15,"el":14,"az":32,"ss":43,"used":true},{"PRN":16,"el":14,"az":204,"ss":0,"used":false},{"PRN":18,"el":55,"az":73,"ss":46,"used":true},{"PRN":19,"el":48,"az":295,"ss":10,"used":false},{"PRN":21,"el":32,"az":87,"ss":48,"used":true},{"PRN":22,"el":67,"az":156,"ss":0,"used":false},{"PRN":24,"el":1,"az":85,"ss":42,"used":false},{"PRN":26,"el":18,"az":130,"ss":34,"used":true}]}
$GPGLL,5355.16774,N,02730.01722,E,085106.00,A,A*66
{"class":"TPV","tag":"GLL","mode":3,"time":"2010-02-05T08:51:06.000Z","ept":0.005,"lat":53.919462333,"lon":27.500287000,"alt":243.800,"epx":170.223,"epy":95.066,"epv":52.210,"track":298.3800,"speed":0.123,"climb":0.000,"eps":340.45}
$GPRMC,085107.00,A,5355.16776,N,02730.01731,E,0.085,,050210,,,A*75
$GPVTG,,T,,M,0.085,N,0.157,K,A*2D
$GPGGA,085107.00,5355.16776,N,02730.01731,E,1,04,4.99,243.6,M,25.0,M,,*56
$GPGSA,A,3,18,21,26,15,,,,,,,,,5.48,4.99,2.27*02
$GPGSV,3,1,12,03,67,250,24,06,72,219,17,08,07,331,27,14,06,151,*79
$GPGSV,3,2,12,15,14,032,43,16,14,204,,18,55,073,46,19,48,295,10*7C
$GPGSV,3,3,12,21,32,087,48,22,67,156,,24,01,085,42,26,18,130,35*7D
{"class":"SKY","tag":"GSV","xdop":11.35,"ydop":6.34,"vdop":2.27,"tdop":1.00,"hdop":4.99,"gdop":14.12,"pdop":5.48,"satellites":[{"PRN":3,"el":67,"az":250,"ss":24,"used":false},{"PRN":6,"el":72,"az":219,"ss":17,"used":false},{"PRN":8,"el":7,"az":331,"ss":27,"used":false},{"PRN":14,"el":6,"az":151,"ss":0,"used":false},{"PRN":15,"el":14,"az":32,"ss":43,"used":true},{"PRN":16,"el":14,"az":204,"ss":0,"used":false},{"PRN":18,"el":55,"az":73,"ss":46,"used":true},{"PRN":19,"el":48,"az":295,"ss":10,"used":false},{"PRN":21,"el":32,"az":87,"ss":48,"used":true},{"PRN":22,"el":67,"az":156,"ss":0,"used":false},{"PRN":24,"el":1,"az":85,"ss":42,"used":false},{"PRN":26,"el":18,"az":130,"ss":35,"used":true}]}
$GPGLL,5355.16776,N,02730.01731,E,085107.00,A,A*67
{"class":"TPV","tag":"GLL","mode":3,"time":"2010-02-05T08:51:07.000Z","ept":0.005,"lat":53.919462667,"lon":27.500288500,"alt":243.600,"epx":170.223,"epy":95.066,"epv":52.210,"track":0.0000,"speed":0.044,"climb":0.000,"eps":340.45}
$GPRMC,085108.00,A,5355.16781,N,02730.01786,E,0.188,,050210,,,A*72
$GPVTG,,T,,M,0.188,N,0.349,K,A*2C
$GPGGA,085108.00,5355.16781,N,02730.01786,E,1,04,4.99,243.4,M,25.0,M,,*5F
$GPGSA,A,3,18,21,26,15,,,,,,,,,5.48,4.99,2.27*02
$GPGSV,3,1,12,03,67,250,23,06,72,219,15,08,07,331,26,14,06,151,*7D
$GPGSV,3,2,12,15,14,032,43,16,14,204,,18,55,073,46,19,48,295,13*7F
$GPGSV,3,3,12,21,32,087,47,22,67,156,,24,01,085,42,26,18,130,36*71
{"class":"SKY","tag":"GSV","xdop":11.35,"ydop":6.34,"vdop":2.27,"tdop":1.00,"hdop":4.99,"gdop":14.12,"pdop":5.48,"satellites":[{"PRN":3,"el":67,"az":250,"ss":23,"used":false},{"PRN":6,"el":72,"az":219,"ss":15,"used":false},{"PRN":8,"el":7,"az":331,"ss":26,"used":false},{"PRN":14,"el":6,"az":151,"ss":0,"used":false},{"PRN":15,"el":14,"az":32,"ss":43,"used":true},{"PRN":16,"el":14,"az":204,"ss":0,"used":false},{"PRN":18,"el":55,"az":73,"ss":46,"used":true},{"PRN":19,"el":48,"az":295,"ss":13,"used":false},{"PRN":21,"el":32,"az":87,"ss":47,"used":true},{"PRN":22,"el":67,"az":156,"ss":0,"used":false},{"PRN":24,"el":1,"az":85,"ss":42,"used":false},{"PRN":26,"el":18,"az":130,"ss":36,"used":true}]}
$GPGLL,5355.16781,N,02730.01786,E,085108.00,A,A*6C
{"class":"TPV","tag":"GLL","mode":3,"time":"2010-02-05T08:51:08.000Z","ept":0.005,"lat":53.919463500,"lon":27.500297667,"alt":243.400,"epx":170.223,"epy":95.066,"epv":52.210,"track":0.0000,"speed":0.097,"climb":0.000,"eps":340.45}
$GPRMC,085109.00,A,5355.16801,N,02730.01883,E,0.221,306.41,050210,,,A*60
$GPVTG,306.41,T,,M,0.221,N,0.409,K,A*31
$GPGGA,085109.00,5355.16801,N,02730.01883,E,1,04,4.99,243.5,M,25.0,M,,*52
$GPGSA,A,3,18,21,26,15,,,,,,,,,5.48,4.99,2.27*02
$GPGSV,3,1,12,03,67,250,,06,72,219,11,08,07,331,25,14,06,151,*7B
$GPGSV,3,2,12,15,14,032,41,16,14,204,,18,55,073,45,19,48,295,16*7B
$GPGSV,3,3,12,21,32,087,45,22,67,156,,24,01,085,41,26,18,130,36*70
{"class":"SKY","tag":"GSV","xdop":11.35,"ydop":6.34,"vdop":2.27,"tdop":1.00,"hdop":4.99,"gdop":14.12,"pdop":5.48,"satellites":[{"PRN":3,"el":67,"az":250,"ss":0,"used":false},{"PRN":6,"el":72,"az":219,"ss":11,"used":false},{"PRN":8,"el":7,"az":331,"ss":25,"used":false},{"PRN":14,"el":6,"az":151,"ss":0,"used":false},{"PRN":15,"el":14,"az":32,"ss":41,"used":true},{"PRN":16,"el":14,"az":204,"ss":0,"used":false},{"PRN":18,"el":55,"az":73,"ss":45,"used":true},{"PRN":19,"el":48,"az":295,"ss":16,"used":false},{"PRN":21,"el":32,"az":87,"ss":45,"used":true},{"PRN":22,"el":67,"az":156,"ss":0,"used":false},{"PRN":24,"el":1,"az":85,"ss":41,"used":false},{"PRN":26,"el":18,"az":130,"ss":36,"used":true}]}
$GPGLL,5355.16801,N,02730.01883,E,085109.00,A,A*60
{"class":"TPV","tag":"GLL","mode":3,"time":"2010-02-05T08:51:09.000Z","ept":0.005,"lat":53.919466833,"lon":27.500313833,"alt":243.500,"epx":170.223,"epy":95.066,"epv":52.210,"track":306.4100,"speed":0.114,"climb":0.000,"eps":340.45}
$GPRMC,085110.00,A,5355.16838,N,02730.02013,E,0.088,,050210,,,A*7F
$GPVTG,,T,,M,0.088,N,0.162,K,A*26
$GPGGA,085110.00,5355.16838,N,02730.02013,E,1,04,4.99,243.9,M,25.0,M,,*5E
$GPGSA,A,3,18,21,26,15,,,,,,,,,5.48,4.99,2.27*02
$GPGSV,3,1,12,03,67,250,,06,72,219,10,08,07,331,24,14,06,151,*7B
$GPGSV,3,2,12,15,14,032,40,16,14,204,26,18,55,073,45,19,48,295,18*70
$GPGSV,3,3,12,21,32,087,45,22,67,156,,24,01,085,40,26,18,130,37*70
{"class":"SKY","tag":"GSV","xdop":11.35,"ydop":6.34,"vdop":2.27,"tdop":1.00,"hdop":4.99,"gdop":14.12,"pdop":5.48,"satellites":[{"PRN":3,"el":67,"az":250,"ss":0,"used":false},{"PRN":6,"el":72,"az":219,"ss":10,"used":false},{"PRN":8,"el":7,"az":331,"ss":24,"used":false},{"PRN":14,"el":6,"az":151,"ss":0,"used":false},{"PRN":15,"el":14,"az":32,"ss":40,"used":true},{"PRN":16,"el":14,"az":204,"ss":26,"used":false},{"PRN":18,"el":55,"az":73,"ss":45,"used":true},{"PRN":19,"el":48,"az":295,"ss":18,"used":false},{"PRN":21,"el":32,"az":87,"ss":45,"used":true},{"PRN":22,"el":67,"az":156,"ss":0,"used":false},{"PRN":24,"el":1,"az":85,"ss":40,"used":false},{"PRN":26,"el":18,"az":130,"ss":37,"used":true}]}
$GPGLL,5355.16838,N,02730.02013,E,085110.00,A,A*60
{"class":"TPV","tag":"GLL","mode":3,"time":"2010-02-05T08:51:10.000Z","ept":0.005,"lat":53.919473000,"lon":27.500335500,"alt":243.900,"epx":170.223,"epy":95.066,"epv":52.210,"track":0.0000,"speed":0.045,"climb":0.000,"eps":340.45}
$GPRMC,085111.00,A,5355.16896,N,02730.02189,E,0.078,,050210,,,A*77
$GPVTG,,T,,M,0.078,N,0.145,K,A*2C
$GPGGA,085111.00,5355.16896,N,02730.02189,E,1,04,4.99,244.7,M,25.0,M,,*50
$GPGSA,A,3,18,21,26,15,,,,,,,,,5.48,4.99,2.27*02
$GPGSV,3,1,12,03,67,250,,06,72,219,,08,07,331,23,14,06,151,*7D
$GPGSV,3,2,12,15,14,032,40,16,14,204,,18,55,073,46,19,48,295,20*7C
$GPGSV,3,3,12,21,32,087,46,22,67,156,,24,01,085,41,26,18,130,39*7C
{"class":"SKY","tag":"GSV","xdop":11.35,"ydop":6.34,"vdop":2.27,"tdop":1.00,"hdop":4.99,"gdop":14.12,"pdop":5.48,"satellites":[{"PRN":3,"el":67,"az":250,"ss":0,"used":false},{"PRN":6,"el":72,"az":219,"ss":0,"used":false},{"PRN":8,"el":7,"az":331,"ss":23,"used":false},{"PRN":14,"el":6,"az":151,"ss":0,"used":false},{"PRN":15,"el":14,"az":32,"ss":40,"used":true},{"PRN":16,"el":14,"az":204,"ss":0,"used":false},{"PRN":18,"el":55,"az":73,"ss":46,"used":true},{"PRN":19,"el":48,"az":295,"ss":20,"used":false},{"PRN":21,"el":32,"az":87,"ss":46,"used":true},{"PRN":22,"el":67,"az":156,"ss":0,"used":false},{"PRN":24,"el":1,"az":85,"ss":41,"used":false},{"PRN":26,"el":18,"az":130,"ss":39,"used":true}]}
$GPGLL,5355.16896,N,02730.02189,E,085111.00,A,A*67
{"class":"TPV","tag":"GLL","mode":3,"time":"2010-02-05T08:51:11.000Z","ept":0.005,"lat":53.919482667,"lon":27.500364833,"alt":244.700,"epx":170.223,"epy":95.066,"epv":52.210,"track":0.0000,"speed":0.040,"climb":0.000,"eps":340.45}
$GPRMC,085112.00,A,5355.16942,N,02730.02332,E,0.033,,050210,,,A*71
$GPVTG,,T,,M,0.033,N,0.061,K,A*24
$GPGGA,085112.00,5355.16942,N,02730.02332,E,1,04,4.99,245.4,M,25.0,M,,*5B
$GPGSA,A,3,18,21,26,15,,,,,,,,,5.48,4.99,2.27*02
$GPGSV,3,1,12,03,67,250,27,06,72,219,,08,07,331,23,14,06,151,*78
$GPGSV,3,2,12,15,14,032,41,16,14,204,,18,55,073,46,19,48,295,22*7F
$GPGSV,3,3,12,21,32,087,47,22,67,156,,24,01,085,41,26,18,130,39*7D
{"class":"SKY","tag":"GSV","xdop":11.35,"ydop":6.34,"vdop":2.27,"tdop":1.00,"hdop":4.99,"gdop":14.12,"pdop":5.48,"satellites":[{"PRN":3,"el":67,"az":250,"ss":27,"used":false},{"PRN":6,"el":72,"az":219,"ss":0,"used":false},{"PRN":8,"el":7,"az":331,"ss":23,"used":false},{"PRN":14,"el":6,"az":151,"ss":0,"used":false},{"PRN":15,"el":14,"az":32,"ss":41,"used":true},{"PRN":16,"el":14,"az":204,"ss":0,"used":false},{"PRN":18,"el":55,"az":73,"ss":46,"used":true},{"PRN":19,"el":48,"az":295,"ss":22,"used":false},{"PRN":21,"el":32,"az":87,"ss":47,"used":true},{"PRN":22,"el":67,"az":156,"ss":0,"used":false},{"PRN":24,"el":1,"az":85,"ss":41,"used":false},{"PRN":26,"el":18,"az":130,"ss":39,"used":true}]}
$GPGLL,5355.16942,N,02730.02332,E,085112.00,A,A*6E
{"class":"TPV","tag":"GLL","mode":3,"time":"2010-02-05T08:51:12.000Z","ept":0.005,"lat":53.919490333,"lon":27.500388667,"alt":245.400,"epx":170.223,"epy":95.066,"epv":52.210,"track":0.0000,"speed":0.017,"climb":0.000,"eps":340.45}
$GPRMC,085113.00,A,5355.16988,N,02730.02475,E,0.143,,050210,,,A*74
$GPVTG,,T,,M,0.143,N,0.264,K,A*25
$GPGGA,085113.00,5355.16988,N,02730.02475,E,1,04,4.98,246.1,M,25.0,M,,*5F
$GPGSA,A,3,18,21,26,15,,,,,,,,,5.48,4.98,2.27*03
$GPGSV,3,1,12,03,67,250,27,06,72,219,,08,07,331,24,14,06,151,*7F
$GPGSV,3,2,12,15,14,032,41,16,14,204,,18,55,073,45,19,48,295,24*7A
$GPGSV,3,3,12,21,32,087,47,22,67,156,,24,01,085,41,26,18,130,39*7D
{"class":"SKY","tag":"GSV","xdop":11.35,"ydop":6.34,"vdop":2.27,"tdop":1.00,"hdop":4.98,"gdop":14.12,"pdop":5.48,"satellites":[{"PRN":3,"el":67,"az":250,"ss":27,"used":false},{"PRN":6,"el":72,"az":219,"ss":0,"used":false},{"PRN":8,"el":7,"az":331,"ss":24,"used":false},{"PRN":14,"el":6,"az":151,"ss":0,"used":false},{"PRN":15,"el":14,"az":32,"ss":41,"used":true},{"PRN":16,"el":14,"az":204,"ss":0,"used":false},{"PRN":18,"el":55,"az":73,"ss":45,"used":true},{"PRN":19,"el":48,"az":295,"ss":24,"used":false},{"PRN":21,"el":32,"az":87,"ss":47,"used":true},{"PRN":22,"el":67,"az":156,"ss":0,"used":false},{"PRN":24,"el":1,"az":85,"ss":41,"used":false},{"PRN":26,"el":18,"az":130,"ss":39,"used":true}]}
$GPGLL,5355.16988,N,02730.02475,E,085113.00,A,A*6D
{"class":"TPV","tag":"GLL","mode":3,"time":"2010-02-05T08:51:13.000Z","ept":0.005,"lat":53.919498000,"lon":27.500412500,"alt":246.100,"epx":170.223,"epy":95.066,"epv":52.210,"track":0.0000,"speed":0.074,"climb":0.000,"eps":340.45}
